[{"country": "AR", "name": "28 de Noviembre", "lat": "-51.5839", "lng": "-72.21382"}, {"country": "MX", "name": "2da. Secci\u00f3n de Medio Monte", "lat": "14.88194", "lng": "-92.18444"}, {"country": "RO", "name": "23 August", "lat": "43.91667", "lng": "28.58333"}, {"country": "UY", "name": "25 de Mayo", "lat": "-34.18917", "lng": "-56.33944"}, {"country": "UY", "name": "25 de Agosto", "lat": "-34.41167", "lng": "-56.40222"}]