[{"country": "AE", "name": "Dubai", "lat": "25.0657", "lng": "55.17128"}, {"country": "AE", "name": "Dibba Al-Fujairah", "lat": "25.59246", "lng": "56.26176"}, {"country": "AE", "name": "Dibba Al-Hisn", "lat": "25.61955", "lng": "56.27291"}, {"country": "AF", "name": "Deh Khw\u0101h\u0101n", "lat": "37.88965", "lng": "70.21875"}, {"country": "AF", "name": "D\u014dsh\u012b", "lat": "35.60918", "lng": "68.68473"}, {"country": "AF", "name": "Dowlaty\u0101r", "lat": "34.55132", "lng": "65.79302"}, {"country": "AF", "name": "Dowlat Sh\u0101h", "lat": "34.9504", "lng": "70.07102"}, {"country": "AF", "name": "Dowlat\u0101b\u0101d", "lat": "36.98821", "lng": "66.82069"}, {"country": "AF", "name": "Dowlat\u0101b\u0101d", "lat": "36.43259", "lng": "64.92071"}, {"country": "AF", "name": "D\u016b Qal\u2018ah", "lat": "32.14237", "lng": "61.4469"}, {"country": "AF", "name": "D\u016b\u0101b", "lat": "35.56277", "lng": "67.82191"}, {"country": "AF", "name": "D\u00ea N\u0101rkh\u0113l K\u00ealay", "lat": "32.43205", "lng": "65.63484"}, {"country": "AF", "name": "Deh\u012b", "lat": "35.95806", "lng": "67.27998"}, {"country": "AF", "name": "Deh-e \u015eal\u0101\u1e29", "lat": "35.69031", "lng": "69.31511"}, {"country": "AF", "name": "Deh-e Now", "lat": "34.74767", "lng": "69.04784"}, {"country": "AF", "name": "Dehd\u0101d\u012b", "lat": "36.66319", "lng": "66.99339"}, {"country": "AF", "name": "Dwah Man\u1e0fay", "lat": "33.28159", "lng": "69.58531"}, {"country": "AF", "name": "Dasht-e Qal\u2018ah", "lat": "37.1539", "lng": "69.4435"}, {"country": "AF", "name": "Dasht-e Qal\u2018ah", "lat": "33.02978", "lng": "63.8395"}, {"country": "AF", "name": "Dasht-e Arch\u012b", "lat": "37.13333", "lng": "69.16667"}, {"country": "AF", "name": "Darz\u0101b", "lat": "35.97744", "lng": "65.37828"}, {"country": "AF", "name": "Darqad", "lat": "37.38414", "lng": "69.45294"}, {"country": "AF", "name": "Dar\u0101yim", "lat": "36.86667", "lng": "70.38333"}, {"country": "AF", "name": "D\u0101ng\u0101m", "lat": "34.99249", "lng": "71.41935"}, {"country": "AF", "name": "Dowr-e Rab\u0101\u0163", "lat": "36.69132", "lng": "68.79093"}, {"country": "AF", "name": "Dahan-e Jarf", "lat": "34.92891", "lng": "68.46273"}, {"country": "AF", "name": "D\u016b La\u012bnah", "lat": "34.15599", "lng": "64.78566"}, {"country": "AL", "name": "Dhiv\u00ebr", "lat": "39.83611", "lng": "20.16861"}, {"country": "AL", "name": "Delvin\u00eb", "lat": "39.95111", "lng": "20.09778"}, {"country": "AL", "name": "Drenov\u00eb", "lat": "40.58333", "lng": "20.79222"}, {"country": "AL", "name": "Dishnic\u00eb", "lat": "40.65139", "lng": "20.81361"}, {"country": "AL", "name": "Dervi\u00e7ian", "lat": "40.0325", "lng": "20.17333"}, {"country": "AL", "name": "Derjan", "lat": "41.67361", "lng": "20.05833"}, {"country": "AL", "name": "Dardhas", "lat": "40.84583", "lng": "20.65722"}, {"country": "AL", "name": "Durr\u00ebs", "lat": "41.32306", "lng": "19.44139"}, {"country": "AL", "name": "Drenov\u00eb", "lat": "40.60056", "lng": "19.70083"}, {"country": "AL", "name": "Divjak\u00eb", "lat": "40.99667", "lng": "19.52944"}, {"country": "AL", "name": "D\u00ebrm\u00ebnas", "lat": "40.74556", "lng": "19.49389"}, {"country": "AL", "name": "Dajt", "lat": "41.39361", "lng": "19.91583"}, {"country": "AL", "name": "Daj\u00e7", "lat": "41.99167", "lng": "19.41056"}, {"country": "AL", "name": "Daj\u00e7", "lat": "41.91556", "lng": "19.60444"}, {"country": "AL", "name": "Dushk", "lat": "40.72667", "lng": "19.75722"}, {"country": "AM", "name": "Dzorastan", "lat": "39.27059", "lng": "46.3572"}, {"country": "AM", "name": "Dalar", "lat": "39.97653", "lng": "44.52649"}, {"country": "AM", "name": "Dzoraghbyur", "lat": "40.20412", "lng": "44.6415"}, {"country": "AM", "name": "Dzoragyugh", "lat": "40.16957", "lng": "45.18337"}, {"country": "AM", "name": "Dzit\u2019hank\u2019ov", "lat": "40.50848", "lng": "43.82092"}, {"country": "AM", "name": "Dvin", "lat": "40.01984", "lng": "44.58376"}, {"country": "AM", "name": "Dsegh", "lat": "40.9617", "lng": "44.65003"}, {"country": "AM", "name": "Drakhtik", "lat": "40.56497", "lng": "45.2367"}, {"country": "AM", "name": "Doghs", "lat": "40.22229", "lng": "44.27228"}, {"country": "AM", "name": "Dilijan", "lat": "40.7417", "lng": "44.8501"}, {"country": "AM", "name": "Ddmashen", "lat": "40.57028", "lng": "44.82295"}, {"country": "AM", "name": "Darpas", "lat": "40.83674", "lng": "44.42494"}, {"country": "AM", "name": "Dalarik", "lat": "40.2279", "lng": "43.87793"}, {"country": "AM", "name": "Darakert", "lat": "40.10553", "lng": "44.41388"}, {"country": "AM", "name": "Dashtavan", "lat": "40.1001", "lng": "44.39172"}, {"country": "AM", "name": "Dimitrov", "lat": "40.00848", "lng": "44.4917"}, {"country": "AR", "name": "Dos de Mayo", "lat": "-27.02277", "lng": "-54.68669"}, {"country": "AR", "name": "Dos Arroyos", "lat": "-27.70784", "lng": "-55.23364"}, {"country": "AR", "name": "Dom\u00ednguez", "lat": "-31.9871", "lng": "-58.96197"}, {"country": "AR", "name": "Dolores", "lat": "-36.31321", "lng": "-57.67918"}, {"country": "AR", "name": "Dolav\u00f3n", "lat": "-43.3", "lng": "-65.7"}, {"country": "AR", "name": "Doblas", "lat": "-37.14967", "lng": "-64.01183"}, {"country": "AR", "name": "Diamante", "lat": "-32.06641", "lng": "-60.63837"}, {"country": "AR", "name": "Devoto", "lat": "-31.40431", "lng": "-62.30634"}, {"country": "AR", "name": "Despe\u00f1aderos", "lat": "-31.81626", "lng": "-64.28989"}, {"country": "AR", "name": "Del Campillo", "lat": "-34.37659", "lng": "-64.49504"}, {"country": "AR", "name": "De\u00e1n Funes", "lat": "-30.42036", "lng": "-64.34984"}, {"country": "AR", "name": "Darwin", "lat": "-39.2", "lng": "-65.76667"}, {"country": "AR", "name": "Dalmacio V\u00e9lez S\u00e1rsfield", "lat": "-32.61072", "lng": "-63.58038"}, {"country": "AR", "name": "Daireaux", "lat": "-36.6", "lng": "-61.75"}, {"country": "AT", "name": "D\u00fcrnstein in der Steiermark", "lat": "46.98833", "lng": "14.39167"}, {"country": "AT", "name": "D\u00fcrnstein", "lat": "48.39582", "lng": "15.51973"}, {"country": "AT", "name": "D\u00fcrnkrut", "lat": "48.47315", "lng": "16.85062"}, {"country": "AT", "name": "D\u00fcns", "lat": "47.22353", "lng": "9.71663"}, {"country": "AT", "name": "Dro\u00df", "lat": "48.46393", "lng": "15.57561"}, {"country": "AT", "name": "Dr\u00f6sing", "lat": "48.539", "lng": "16.90264"}, {"country": "AT", "name": "Drasenhofen", "lat": "48.75", "lng": "16.65"}, {"country": "AT", "name": "Dornbirn", "lat": "47.41427", "lng": "9.74195"}, {"country": "AT", "name": "Dorfstetten", "lat": "48.32573", "lng": "14.98218"}, {"country": "AT", "name": "Dorfgastein", "lat": "47.24172", "lng": "13.10223"}, {"country": "AT", "name": "Dorfbeuern", "lat": "48.01667", "lng": "13.01667"}, {"country": "AT", "name": "Doren", "lat": "47.49278", "lng": "9.87972"}, {"country": "AT", "name": "Donnerskirchen", "lat": "47.89425", "lng": "16.64635"}, {"country": "AT", "name": "Donnersbach", "lat": "47.46139", "lng": "14.12972"}, {"country": "AT", "name": "D\u00f6lsach", "lat": "46.82833", "lng": "12.84528"}, {"country": "AT", "name": "Dobersberg", "lat": "48.9151", "lng": "15.32188"}, {"country": "AT", "name": "Diex", "lat": "46.75", "lng": "14.6"}, {"country": "AT", "name": "Dietersdorf am Gnasbach", "lat": "46.80917", "lng": "15.81167"}, {"country": "AT", "name": "Dienten am Hochk\u00f6nig", "lat": "47.38324", "lng": "13.00369"}, {"country": "AT", "name": "Dienersdorf", "lat": "47.23979", "lng": "15.90142"}, {"country": "AT", "name": "Deutsch-Wagram", "lat": "48.29972", "lng": "16.56667"}, {"country": "AT", "name": "Deutschlandsberg", "lat": "46.81528", "lng": "15.22222"}, {"country": "AT", "name": "Deutschkreutz", "lat": "47.6", "lng": "16.63333"}, {"country": "AT", "name": "Deutsch Kaltenbrunn", "lat": "47.09455", "lng": "16.13145"}, {"country": "AT", "name": "Deutsch Jahrndorf", "lat": "48.01667", "lng": "17.1"}, {"country": "AT", "name": "Deutsch Griffen", "lat": "46.85606", "lng": "14.07501"}, {"country": "AT", "name": "Deutsch Goritz", "lat": "46.75083", "lng": "15.82944"}, {"country": "AT", "name": "Deutschfeistritz", "lat": "47.19852", "lng": "15.33623"}, {"country": "AT", "name": "Desselbrunn", "lat": "48.02145", "lng": "13.77027"}, {"country": "AT", "name": "Dellach im Drautal", "lat": "46.7375", "lng": "13.07833"}, {"country": "AT", "name": "Dellach", "lat": "46.66175", "lng": "13.07965"}, {"country": "AT", "name": "Dechantskirchen", "lat": "47.41667", "lng": "16.01667"}, {"country": "AT", "name": "Dalaas", "lat": "47.12446", "lng": "9.99104"}, {"country": "AT", "name": "Dam\u00fcls", "lat": "47.28034", "lng": "9.89164"}, {"country": "AT", "name": "D\u00fcnserberg", "lat": "47.22752", "lng": "9.72372"}, {"country": "AT", "name": "Draschen", "lat": "46.76909", "lng": "14.06758"}, {"country": "AT", "name": "Doppl", "lat": "48.28245", "lng": "14.56851"}, {"country": "AU", "name": "Donnybrook", "lat": "-33.5713", "lng": "115.82446"}, {"country": "AU", "name": "Dongara", "lat": "-29.25818", "lng": "114.93276"}, {"country": "AU", "name": "Derby", "lat": "-17.30295", "lng": "123.62864"}, {"country": "AU", "name": "Denmark", "lat": "-34.96067", "lng": "117.35321"}, {"country": "AU", "name": "Darwin", "lat": "-12.46113", "lng": "130.84185"}, {"country": "AU", "name": "Darlington", "lat": "-35.03333", "lng": "138.56667"}, {"country": "AU", "name": "Darlington", "lat": "-31.91906", "lng": "116.0812"}, {"country": "AU", "name": "Dampier", "lat": "-20.66275", "lng": "116.71256"}, {"country": "AU", "name": "Dunsborough", "lat": "-33.61512", "lng": "115.10561"}, {"country": "AU", "name": "Dalkeith", "lat": "-31.99517", "lng": "115.7998"}, {"country": "AU", "name": "Dungog", "lat": "-32.40431", "lng": "151.75192"}, {"country": "AU", "name": "Dunedoo", "lat": "-32.01634", "lng": "149.3871"}, {"country": "AU", "name": "Dubbo", "lat": "-32.24295", "lng": "148.60484"}, {"country": "AU", "name": "Dromana", "lat": "-38.33375", "lng": "144.96458"}, {"country": "AU", "name": "Douglas Park", "lat": "-34.18496", "lng": "150.71449"}, {"country": "AU", "name": "Dorrigo", "lat": "-30.34112", "lng": "152.71394"}, {"country": "AU", "name": "Doreen", "lat": "-37.6", "lng": "145.15"}, {"country": "AU", "name": "Dora Creek", "lat": "-33.08139", "lng": "151.49677"}, {"country": "AU", "name": "Doonside", "lat": "-33.76667", "lng": "150.86667"}, {"country": "AU", "name": "Donvale", "lat": "-37.7891", "lng": "145.17488"}, {"country": "AU", "name": "Doncaster East", "lat": "-37.78761", "lng": "145.14888"}, {"country": "AU", "name": "Doncaster", "lat": "-37.78828", "lng": "145.12373"}, {"country": "AU", "name": "Dingley Village", "lat": "-37.9827", "lng": "145.1342"}, {"country": "AU", "name": "Diggers Rest", "lat": "-37.62597", "lng": "144.71881"}, {"country": "AU", "name": "Diamond Creek", "lat": "-37.66667", "lng": "145.15"}, {"country": "AU", "name": "Devonport", "lat": "-41.17695", "lng": "146.35152"}, {"country": "AU", "name": "Derrimut", "lat": "-37.79238", "lng": "144.76994"}, {"country": "AU", "name": "Denman", "lat": "-32.38788", "lng": "150.68935"}, {"country": "AU", "name": "Deniliquin", "lat": "-35.53245", "lng": "144.95364"}, {"country": "AU", "name": "Deloraine", "lat": "-41.52477", "lng": "146.65701"}, {"country": "AU", "name": "Deer Park", "lat": "-37.76667", "lng": "144.78333"}, {"country": "AU", "name": "Deception Bay", "lat": "-27.19354", "lng": "153.02631"}, {"country": "AU", "name": "Deagon", "lat": "-27.33333", "lng": "153.06667"}, {"country": "AU", "name": "Davistown", "lat": "-33.48559", "lng": "151.36151"}, {"country": "AU", "name": "Davidson", "lat": "-33.74297", "lng": "151.2008"}, {"country": "AU", "name": "Darlington Point", "lat": "-34.56942", "lng": "145.9987"}, {"country": "AU", "name": "Darlinghurst", "lat": "-33.87939", "lng": "151.21925"}, {"country": "AU", "name": "Dareton", "lat": "-34.09468", "lng": "142.03966"}, {"country": "AU", "name": "Dapto", "lat": "-34.5", "lng": "150.78333"}, {"country": "AU", "name": "Dandenong", "lat": "-37.98333", "lng": "145.2"}, {"country": "AU", "name": "Dalby", "lat": "-27.18169", "lng": "151.26205"}, {"country": "AU", "name": "D\u2019Aguilar", "lat": "-26.98333", "lng": "152.8"}, {"country": "AU", "name": "Daceyville", "lat": "-33.93333", "lng": "151.23333"}, {"country": "AU", "name": "Dolans Bay", "lat": "-34.06653", "lng": "151.12806"}, {"country": "AU", "name": "Drummoyne", "lat": "-33.85237", "lng": "151.15491"}, {"country": "AU", "name": "Darling Point", "lat": "-33.87064", "lng": "151.23895"}, {"country": "AU", "name": "Dover Heights", "lat": "-33.87083", "lng": "151.27917"}, {"country": "AU", "name": "Dee Why", "lat": "-33.75", "lng": "151.3"}, {"country": "AU", "name": "Docklands", "lat": "-37.8149", "lng": "144.95052"}, {"country": "AU", "name": "Deebing Heights", "lat": "-27.66719", "lng": "152.74867"}, {"country": "AU", "name": "Delacombe", "lat": "-37.58911", "lng": "143.81472"}, {"country": "AU", "name": "Doveton", "lat": "-37.99346", "lng": "145.23891"}, {"country": "AU", "name": "Delahey", "lat": "-37.7198", "lng": "144.77732"}, {"country": "AU", "name": "Darch", "lat": "-31.81255", "lng": "115.8458"}, {"country": "AU", "name": "Dulwich Hill", "lat": "-33.9041", "lng": "151.13945"}, {"country": "AU", "name": "Dianella", "lat": "-31.88822", "lng": "115.87186"}, {"country": "AU", "name": "Duncraig", "lat": "-31.83291", "lng": "115.7759"}, {"country": "AU", "name": "Dandenong North", "lat": "-37.96649", "lng": "145.2081"}, {"country": "AU", "name": "Darlington", "lat": "-33.89103", "lng": "151.19548"}, {"country": "AU", "name": "Denham Court", "lat": "-33.98307", "lng": "150.84606"}, {"country": "AU", "name": "Denistone", "lat": "-33.79835", "lng": "151.09051"}, {"country": "AU", "name": "Dolls Point", "lat": "-33.99498", "lng": "151.14552"}, {"country": "AU", "name": "Dundas Valley", "lat": "-33.78826", "lng": "151.05261"}, {"country": "AU", "name": "Daglish", "lat": "-31.94828", "lng": "115.81899"}, {"country": "AU", "name": "Dynnyrne", "lat": "-42.90541", "lng": "147.31576"}, {"country": "AU", "name": "Dicky Beach", "lat": "-26.78364", "lng": "153.13766"}, {"country": "AU", "name": "Darling Heights", "lat": "-27.59659", "lng": "151.93045"}, {"country": "AZ", "name": "D\u00fcnyamal\u0131lar", "lat": "39.77278", "lng": "47.75889"}, {"country": "AZ", "name": "Deste", "lat": "38.88375", "lng": "45.90963"}, {"country": "AZ", "name": "Dzhalilabad", "lat": "39.20963", "lng": "48.49186"}, {"country": "AZ", "name": "Dzagam", "lat": "40.9033", "lng": "45.88564"}, {"country": "AZ", "name": "Dondar Qu\u015f\u00e7u", "lat": "40.9539", "lng": "45.61942"}, {"country": "AZ", "name": "Digah", "lat": "40.49257", "lng": "49.87477"}, {"country": "AZ", "name": "Divichibazar", "lat": "41.20117", "lng": "48.98712"}, {"country": "AZ", "name": "Dolyar", "lat": "40.86278", "lng": "46.03493"}, {"country": "BA", "name": "Dubravica", "lat": "44.44131", "lng": "18.11883"}, {"country": "BA", "name": "Dubrave Gornje", "lat": "44.47229", "lng": "18.72685"}, {"country": "BA", "name": "Dubrave Donje", "lat": "44.4806", "lng": "18.69709"}, {"country": "BA", "name": "Drvar", "lat": "44.37389", "lng": "16.38083"}, {"country": "BA", "name": "Drinovci", "lat": "43.35454", "lng": "17.32536"}, {"country": "BA", "name": "Drini\u0107", "lat": "44.50671", "lng": "16.46699"}, {"country": "BA", "name": "Donji \u017dabar", "lat": "44.94317", "lng": "18.64673"}, {"country": "BA", "name": "Donji Vakuf", "lat": "44.14361", "lng": "17.4"}, {"country": "BA", "name": "Donji Dubovik", "lat": "44.89021", "lng": "16.3251"}, {"country": "BA", "name": "Donja Me\u0111i\u0111a", "lat": "44.80235", "lng": "18.40477"}, {"country": "BA", "name": "Donja Mahala", "lat": "45.04327", "lng": "18.66996"}, {"country": "BA", "name": "Donja Dubica", "lat": "45.07559", "lng": "18.41023"}, {"country": "BA", "name": "Domaljevac", "lat": "45.0611", "lng": "18.58612"}, {"country": "BA", "name": "Dobrljin", "lat": "45.15106", "lng": "16.47869"}, {"country": "BA", "name": "Dobrinje", "lat": "44.05008", "lng": "18.11958"}, {"country": "BA", "name": "Doboj", "lat": "44.73179", "lng": "18.08698"}, {"country": "BA", "name": "Divi\u010dani", "lat": "44.36682", "lng": "17.32678"}, {"country": "BA", "name": "Derventa", "lat": "44.97839", "lng": "17.90779"}, {"country": "BA", "name": "Dobrati\u0107i", "lat": "44.37792", "lng": "17.41426"}, {"country": "BA", "name": "Dvorovi", "lat": "44.80753", "lng": "19.25999"}, {"country": "BA", "name": "Dre\u017enica", "lat": "43.52891", "lng": "17.2812"}, {"country": "BD", "name": "Doh\u0101r", "lat": "23.59311", "lng": "90.14251"}, {"country": "BD", "name": "Dhaka", "lat": "23.7104", "lng": "90.40744"}, {"country": "BD", "name": "Din\u0101jpur", "lat": "25.62745", "lng": "88.63779"}, {"country": "BE", "name": "Durbuy", "lat": "50.35291", "lng": "5.45631"}, {"country": "BE", "name": "Duffel", "lat": "51.09554", "lng": "4.50903"}, {"country": "BE", "name": "Drogenbos", "lat": "50.78733", "lng": "4.31471"}, {"country": "BE", "name": "Dour", "lat": "50.39583", "lng": "3.77792"}, {"country": "BE", "name": "Donceel", "lat": "50.64827", "lng": "5.32"}, {"country": "BE", "name": "Doische", "lat": "50.13356", "lng": "4.73545"}, {"country": "BE", "name": "Dison", "lat": "50.61004", "lng": "5.8534"}, {"country": "BE", "name": "Dinant", "lat": "50.25807", "lng": "4.91166"}, {"country": "BE", "name": "Dilbeek", "lat": "50.84799", "lng": "4.25972"}, {"country": "BE", "name": "Diksmuide", "lat": "51.03248", "lng": "2.86384"}, {"country": "BE", "name": "Diest", "lat": "50.98923", "lng": "5.05062"}, {"country": "BE", "name": "Diepenbeek", "lat": "50.90769", "lng": "5.41875"}, {"country": "BE", "name": "Diegem", "lat": "50.89727", "lng": "4.43354"}, {"country": "BE", "name": "Destelbergen", "lat": "51.05952", "lng": "3.79899"}, {"country": "BE", "name": "Dessel", "lat": "51.23855", "lng": "5.11448"}, {"country": "BE", "name": "De Pinte", "lat": "50.99339", "lng": "3.64747"}, {"country": "BE", "name": "De Panne", "lat": "51.09793", "lng": "2.59368"}, {"country": "BE", "name": "Dentergem", "lat": "50.96429", "lng": "3.41617"}, {"country": "BE", "name": "Dendermonde", "lat": "51.02869", "lng": "4.10106"}, {"country": "BE", "name": "Denderleeuw", "lat": "50.88506", "lng": "4.07601"}, {"country": "BE", "name": "Deinze", "lat": "50.98175", "lng": "3.53096"}, {"country": "BE", "name": "De Haan", "lat": "51.27261", "lng": "3.03446"}, {"country": "BE", "name": "Deerlijk", "lat": "50.85337", "lng": "3.35416"}, {"country": "BE", "name": "Daverdisse", "lat": "50.02161", "lng": "5.11811"}, {"country": "BE", "name": "Damme", "lat": "51.25147", "lng": "3.28144"}, {"country": "BE", "name": "Dalhem", "lat": "50.71315", "lng": "5.72774"}, {"country": "BF", "name": "Dori", "lat": "14.0354", "lng": "-0.0345"}, {"country": "BF", "name": "Djibo", "lat": "14.0994", "lng": "-1.62554"}, {"country": "BF", "name": "Di\u00e9bougou", "lat": "10.96209", "lng": "-3.24967"}, {"country": "BF", "name": "Diapaga", "lat": "12.07305", "lng": "1.78838"}, {"country": "BF", "name": "D\u00e9ou", "lat": "14.60084", "lng": "-0.71901"}, {"country": "BF", "name": "D\u00e9dougou", "lat": "12.46338", "lng": "-3.46075"}, {"country": "BF", "name": "Dano", "lat": "11.1464", "lng": "-3.05784"}, {"country": "BG", "name": "Dobrich", "lat": "43.56667", "lng": "27.83333"}, {"country": "BG", "name": "Dupnitsa", "lat": "42.26667", "lng": "23.11667"}, {"country": "BG", "name": "Dolni Chiflik", "lat": "42.99296", "lng": "27.71596"}, {"country": "BG", "name": "Dzhebel", "lat": "41.49566", "lng": "25.30363"}, {"country": "BG", "name": "Dve Mogili", "lat": "43.59258", "lng": "25.87486"}, {"country": "BG", "name": "Dunavtsi", "lat": "43.92111", "lng": "22.82111"}, {"country": "BG", "name": "Dulovo", "lat": "43.81667", "lng": "27.15"}, {"country": "BG", "name": "Dalgopol", "lat": "43.05", "lng": "27.35"}, {"country": "BG", "name": "Dryanovo", "lat": "42.97897", "lng": "25.4785"}, {"country": "BG", "name": "Drenovets", "lat": "43.69134", "lng": "22.97365"}, {"country": "BG", "name": "Dragoman", "lat": "42.92191", "lng": "22.93109"}, {"country": "BG", "name": "Dospat", "lat": "41.64462", "lng": "24.15857"}, {"country": "BG", "name": "Dolni Dabnik", "lat": "43.4", "lng": "24.43333"}, {"country": "BG", "name": "Dolna Mitropolia", "lat": "43.46667", "lng": "24.53333"}, {"country": "BG", "name": "Dolna Banya", "lat": "42.3", "lng": "23.76667"}, {"country": "BG", "name": "Dimovo", "lat": "43.74167", "lng": "22.72694"}, {"country": "BG", "name": "Dimitrovgrad", "lat": "42.05", "lng": "25.6"}, {"country": "BG", "name": "Devnya", "lat": "43.22222", "lng": "27.56944"}, {"country": "BG", "name": "Devin", "lat": "41.74327", "lng": "24.40003"}, {"country": "BG", "name": "Debelets", "lat": "43.03333", "lng": "25.61667"}, {"country": "BH", "name": "D\u0101r Kulayb", "lat": "26.06861", "lng": "50.50389"}, {"country": "BJ", "name": "Dogbo", "lat": "6.79911", "lng": "1.78073"}, {"country": "BJ", "name": "Djougou", "lat": "9.70853", "lng": "1.66598"}, {"country": "BJ", "name": "Dassa-Zoum\u00e9", "lat": "7.75", "lng": "2.18333"}, {"country": "BQ", "name": "Dorp Tera Kora", "lat": "12.13333", "lng": "-68.26667"}, {"country": "BQ", "name": "Dorp Rinc\u00f3n", "lat": "12.23333", "lng": "-68.33333"}, {"country": "BQ", "name": "Dorp Antriol", "lat": "12.16667", "lng": "-68.26667"}, {"country": "BR", "name": "Dona In\u00eas", "lat": "-6.61354", "lng": "-35.62654"}, {"country": "BR", "name": "Dom Pedro", "lat": "-5.03749", "lng": "-44.43857"}, {"country": "BR", "name": "Dois Riachos", "lat": "-9.3925", "lng": "-37.10056"}, {"country": "BR", "name": "Desterro", "lat": "-7.29056", "lng": "-37.09389"}, {"country": "BR", "name": "Demerval Lob\u00e3o", "lat": "-5.35833", "lng": "-42.67639"}, {"country": "BR", "name": "Delmiro Gouveia", "lat": "-9.38861", "lng": "-37.99917"}, {"country": "BR", "name": "Duque de Caxias", "lat": "-22.78556", "lng": "-43.31167"}, {"country": "BR", "name": "Duartina", "lat": "-22.41444", "lng": "-49.40389"}, {"country": "BR", "name": "Dourados", "lat": "-22.22111", "lng": "-54.80556"}, {"country": "BR", "name": "Dores do Indai\u00e1", "lat": "-19.46333", "lng": "-45.60167"}, {"country": "BR", "name": "Dom Pedrito", "lat": "-30.98278", "lng": "-54.67306"}, {"country": "BR", "name": "Domingos Martins", "lat": "-20.36333", "lng": "-40.65917"}, {"country": "BR", "name": "Dois Vizinhos", "lat": "-25.73361", "lng": "-53.05722"}, {"country": "BR", "name": "Dois C\u00f3rregos", "lat": "-22.36611", "lng": "-48.38028"}, {"country": "BR", "name": "Divin\u00f3polis", "lat": "-20.14355", "lng": "-44.89065"}, {"country": "BR", "name": "Divino das Laranjeiras", "lat": "-18.77778", "lng": "-41.47972"}, {"country": "BR", "name": "Diamantino", "lat": "-14.40861", "lng": "-56.44611"}, {"country": "BR", "name": "Diamantina", "lat": "-18.24692", "lng": "-43.60345"}, {"country": "BR", "name": "Diadema", "lat": "-23.68611", "lng": "-46.62278"}, {"country": "BR", "name": "Descalvado", "lat": "-21.90389", "lng": "-47.61944"}, {"country": "BS", "name": "Dunmore Town", "lat": "25.50216", "lng": "-76.63633"}, {"country": "BS", "name": "Duncan Town", "lat": "22.19083", "lng": "-75.72583"}, {"country": "BT", "name": "Daga", "lat": "27.07529", "lng": "89.87688"}, {"country": "BT", "name": "Daphu", "lat": "26.96667", "lng": "89.38333"}, {"country": "BW", "name": "Dutlwe", "lat": "-23.98333", "lng": "23.9"}, {"country": "BW", "name": "Dukwe", "lat": "-20.58333", "lng": "26.41667"}, {"country": "BW", "name": "Dekar", "lat": "-21.53333", "lng": "21.93333"}, {"country": "BY", "name": "Dzyarzhynsk", "lat": "53.6832", "lng": "27.138"}, {"country": "BY", "name": "Dzyatlava", "lat": "53.4631", "lng": "25.4068"}, {"country": "BY", "name": "Dukora", "lat": "53.6786", "lng": "27.94"}, {"country": "BY", "name": "Dubrowna", "lat": "54.5716", "lng": "30.691"}, {"country": "BY", "name": "Drybin", "lat": "54.1192", "lng": "31.0939"}, {"country": "BY", "name": "Druya", "lat": "55.7906", "lng": "27.4505"}, {"country": "BY", "name": "Drahichyn", "lat": "52.1874", "lng": "25.1597"}, {"country": "BY", "name": "Dowsk", "lat": "53.1571", "lng": "30.4601"}, {"country": "BY", "name": "Damachava", "lat": "51.75", "lng": "23.6"}, {"country": "BY", "name": "Dokshytsy", "lat": "54.8918", "lng": "27.7667"}, {"country": "BY", "name": "Dobrush", "lat": "52.4089", "lng": "31.3237"}, {"country": "BY", "name": "Dzisna", "lat": "55.5676", "lng": "28.2076"}, {"country": "BY", "name": "Davyd-Haradok", "lat": "52.0566", "lng": "27.2161"}, {"country": "BY", "name": "Dashkawka", "lat": "53.7352", "lng": "30.2625"}, {"country": "BY", "name": "Druzhny", "lat": "53.6238", "lng": "27.8977"}, {"country": "BZ", "name": "Dangriga", "lat": "16.9697", "lng": "-88.23313"}, {"country": "CA", "name": "Dalmeny", "lat": "52.33339", "lng": "-106.76792"}, {"country": "CA", "name": "Danville", "lat": "45.78337", "lng": "-72.0158"}, {"country": "CA", "name": "Dartmouth", "lat": "44.67134", "lng": "-63.57719"}, {"country": "CA", "name": "Dauphin", "lat": "51.14941", "lng": "-100.05023"}, {"country": "CA", "name": "Daveluyville", "lat": "46.20006", "lng": "-72.13239"}, {"country": "CA", "name": "Dawson Creek", "lat": "55.75984", "lng": "-120.2403"}, {"country": "CA", "name": "Deep River", "lat": "46.10012", "lng": "-77.49949"}, {"country": "CA", "name": "Deer Lake", "lat": "49.16671", "lng": "-57.43163"}, {"country": "CA", "name": "Delaware", "lat": "42.91679", "lng": "-81.41646"}, {"country": "CA", "name": "Deloraine", "lat": "49.19082", "lng": "-100.49477"}, {"country": "CA", "name": "Delson", "lat": "45.36678", "lng": "-73.54917"}, {"country": "CA", "name": "Delta", "lat": "49.14399", "lng": "-122.9068"}, {"country": "CA", "name": "Deseronto", "lat": "44.20012", "lng": "-77.04944"}, {"country": "CA", "name": "Deux-Montagnes", "lat": "45.53455", "lng": "-73.90168"}, {"country": "CA", "name": "Devon", "lat": "53.36683", "lng": "-113.73533"}, {"country": "CA", "name": "Didsbury", "lat": "51.66681", "lng": "-114.13529"}, {"country": "CA", "name": "Dieppe", "lat": "46.07844", "lng": "-64.68735"}, {"country": "CA", "name": "Digby", "lat": "44.62188", "lng": "-65.7586"}, {"country": "CA", "name": "Dolbeau-Mistassini", "lat": "48.8786", "lng": "-72.23142"}, {"country": "CA", "name": "Dollard-Des Ormeaux", "lat": "45.49452", "lng": "-73.82419"}, {"country": "CA", "name": "Dorchester", "lat": "42.98339", "lng": "-81.06643"}, {"country": "CA", "name": "Dorval", "lat": "45.4473", "lng": "-73.75335"}, {"country": "CA", "name": "Drayton Valley", "lat": "53.21682", "lng": "-114.98544"}, {"country": "CA", "name": "Drummondville", "lat": "45.88336", "lng": "-72.48241"}, {"country": "CA", "name": "Dryden", "lat": "49.78334", "lng": "-92.75032"}, {"country": "CA", "name": "Duncan", "lat": "48.78293", "lng": "-123.70266"}, {"country": "CA", "name": "Dunham", "lat": "45.13338", "lng": "-72.79913"}, {"country": "CA", "name": "Dawson City", "lat": "64.06013", "lng": "-139.43328"}, {"country": "CA", "name": "Donnacona", "lat": "46.68042", "lng": "-71.7239"}, {"country": "CD", "name": "Demba", "lat": "-5.49573", "lng": "22.26962"}, {"country": "CF", "name": "Damara", "lat": "4.96075", "lng": "18.7035"}, {"country": "CG", "name": "Dolisie", "lat": "-4.19834", "lng": "12.66664"}, {"country": "CG", "name": "Djambala", "lat": "-2.54472", "lng": "14.75333"}, {"country": "CH", "name": "D\u00fcrrenroth", "lat": "47.08953", "lng": "7.7917"}, {"country": "CH", "name": "D\u00fcrren\u00e4sch", "lat": "47.32094", "lng": "8.15874"}, {"country": "CH", "name": "D\u00fcrnten", "lat": "47.27856", "lng": "8.84156"}, {"country": "CH", "name": "D\u00fcdingen", "lat": "46.84916", "lng": "7.1915"}, {"country": "CH", "name": "D\u00fcbendorf", "lat": "47.39724", "lng": "8.61872"}, {"country": "CH", "name": "Dottikon", "lat": "47.38437", "lng": "8.23981"}, {"country": "CH", "name": "Dornach", "lat": "47.48038", "lng": "7.61644"}, {"country": "CH", "name": "Domdidier", "lat": "46.86716", "lng": "7.01337"}, {"country": "CH", "name": "Dombresson", "lat": "47.07192", "lng": "6.9592"}, {"country": "CH", "name": "Domat", "lat": "46.83483", "lng": "9.45075"}, {"country": "CH", "name": "Disentis", "lat": "46.70341", "lng": "8.8509"}, {"country": "CH", "name": "Dietlikon / Dietlikon (Dorf)", "lat": "47.41827", "lng": "8.6188"}, {"country": "CH", "name": "Dietikon", "lat": "47.40165", "lng": "8.40015"}, {"country": "CH", "name": "Diessenhofen", "lat": "47.68908", "lng": "8.74958"}, {"country": "CH", "name": "Diepoldsau", "lat": "47.386", "lng": "9.65558"}, {"country": "CH", "name": "Diemtigen", "lat": "46.64928", "lng": "7.56477"}, {"country": "CH", "name": "Dielsdorf", "lat": "47.48146", "lng": "8.4585"}, {"country": "CH", "name": "Diegten", "lat": "47.4138", "lng": "7.81085"}, {"country": "CH", "name": "Derendingen", "lat": "47.1985", "lng": "7.58844"}, {"country": "CH", "name": "Densb\u00fcren", "lat": "47.4526", "lng": "8.0533"}, {"country": "CH", "name": "Del\u00e9mont", "lat": "47.36493", "lng": "7.34453"}, {"country": "CH", "name": "Deitingen", "lat": "47.21515", "lng": "7.6188"}, {"country": "CH", "name": "Degersheim", "lat": "47.37429", "lng": "9.20019"}, {"country": "CH", "name": "Davos", "lat": "46.80429", "lng": "9.83723"}, {"country": "CH", "name": "D\u00e4rligen", "lat": "46.66175", "lng": "7.80808"}, {"country": "CH", "name": "Dardagny", "lat": "46.19564", "lng": "5.99497"}, {"country": "CH", "name": "Dallenwil", "lat": "46.9242", "lng": "8.38785"}, {"country": "CH", "name": "Dagmersellen", "lat": "47.21405", "lng": "7.98519"}, {"country": "CH", "name": "Dachsen", "lat": "47.66515", "lng": "8.6179"}, {"country": "CH", "name": "Dietlikon / Eichwiesen", "lat": "47.4191", "lng": "8.62078"}, {"country": "CH", "name": "D\u00e4llikon / D\u00e4llikon (Dorf)", "lat": "47.43983", "lng": "8.43813"}, {"country": "CH", "name": "Dorf", "lat": "47.239", "lng": "8.73567"}, {"country": "CH", "name": "D\u00fcbendorf / Vogelquartier", "lat": "47.39502", "lng": "8.61184"}, {"country": "CH", "name": "D\u00fcbendorf / Wasserfurren", "lat": "47.39352", "lng": "8.6085"}, {"country": "CH", "name": "D\u00fcbendorf / Sonnenberg", "lat": "47.39469", "lng": "8.63162"}, {"country": "CH", "name": "D\u00fcbendorf / Kunklerstrasse", "lat": "47.40109", "lng": "8.62724"}, {"country": "CH", "name": "Dietikon / Vorstadt", "lat": "47.40819", "lng": "8.39719"}, {"country": "CH", "name": "Dietikon / Almend", "lat": "47.40477", "lng": "8.39168"}, {"country": "CH", "name": "Dietikon / Oberdorf", "lat": "47.40065", "lng": "8.39416"}, {"country": "CH", "name": "Dietikon / Kreuzacker", "lat": "47.39919", "lng": "8.40146"}, {"country": "CH", "name": "Dietikon / Guggenb\u00fchl", "lat": "47.40009", "lng": "8.40818"}, {"country": "CH", "name": "Dietikon / Hofacker", "lat": "47.39718", "lng": "8.41609"}, {"country": "CH", "name": "Dietikon / Sch\u00f6nenwerd", "lat": "47.39706", "lng": "8.42576"}, {"country": "CH", "name": "D\u00e4nikon", "lat": "47.44674", "lng": "8.40648"}, {"country": "CH", "name": "Donat", "lat": "46.62843", "lng": "9.4297"}, {"country": "CI", "name": "Dianra", "lat": "8.94333", "lng": "-6.2549"}, {"country": "CI", "name": "Duekou\u00e9", "lat": "6.74202", "lng": "-7.34918"}, {"country": "CI", "name": "Divo", "lat": "5.83739", "lng": "-5.35723"}, {"country": "CI", "name": "Dimbokro", "lat": "6.64678", "lng": "-4.70519"}, {"country": "CI", "name": "Dikodougou", "lat": "9.06757", "lng": "-5.77222"}, {"country": "CI", "name": "Dj\u00e9kanou", "lat": "6.48389", "lng": "-5.11553"}, {"country": "CI", "name": "Didi\u00e9vi", "lat": "7.12866", "lng": "-4.89804"}, {"country": "CI", "name": "Daoukro", "lat": "7.0591", "lng": "-3.9631"}, {"country": "CI", "name": "Danan\u00e9", "lat": "7.25957", "lng": "-8.15498"}, {"country": "CI", "name": "Daloa", "lat": "6.87735", "lng": "-6.45022"}, {"country": "CI", "name": "Dabou", "lat": "5.32556", "lng": "-4.37685"}, {"country": "CI", "name": "Dabakala", "lat": "8.36321", "lng": "-4.42863"}, {"country": "CL", "name": "Diego de Almagro", "lat": "-26.36667", "lng": "-70.05"}, {"country": "CM", "name": "Dschang", "lat": "5.44397", "lng": "10.05332"}, {"country": "CM", "name": "Doum\u00e9", "lat": "4.23333", "lng": "13.45"}, {"country": "CM", "name": "Douala", "lat": "4.04827", "lng": "9.70428"}, {"country": "CM", "name": "Djohong", "lat": "6.83333", "lng": "14.7"}, {"country": "CM", "name": "Dizangu\u00e9", "lat": "3.76667", "lng": "9.98333"}, {"country": "CM", "name": "Dimako", "lat": "4.38333", "lng": "13.56667"}, {"country": "CM", "name": "Dibombari", "lat": "4.1787", "lng": "9.6561"}, {"country": "CM", "name": "Diang", "lat": "4.25", "lng": "10.01667"}, {"country": "CN", "name": "Dianyang", "lat": "24.70261", "lng": "99.15919"}, {"country": "CN", "name": "Domartang", "lat": "30.93902", "lng": "94.68908"}, {"country": "CN", "name": "D\u00eaq\u00ean", "lat": "29.96178", "lng": "90.71875"}, {"country": "CN", "name": "Delingha", "lat": "37.376", "lng": "97.37457"}, {"country": "CN", "name": "Dedang", "lat": "24.0118", "lng": "99.23964"}, {"country": "CN", "name": "Dartang", "lat": "31.93333", "lng": "94"}, {"country": "CN", "name": "Dangchengwan", "lat": "39.50011", "lng": "95.04081"}, {"country": "CN", "name": "Dushanzi", "lat": "44.33333", "lng": "84.85"}, {"country": "CN", "name": "Dabancheng", "lat": "43.35833", "lng": "88.32004"}, {"country": "CN", "name": "Danzhu", "lat": "36.1245", "lng": "112.86101"}, {"country": "CN", "name": "Dongyang", "lat": "29.26778", "lng": "120.22528"}, {"country": "CN", "name": "Dongsheng", "lat": "30.57383", "lng": "103.92127"}, {"country": "CN", "name": "Dongcheng", "lat": "33.41235", "lng": "115.08091"}, {"country": "CN", "name": "Dingchang", "lat": "36.76306", "lng": "112.68722"}, {"country": "CN", "name": "Dadukou", "lat": "26.5479", "lng": "101.70539"}, {"country": "CN", "name": "Duji", "lat": "33.99765", "lng": "116.8284"}, {"country": "CN", "name": "Daxing", "lat": "22.96916", "lng": "102.40611"}, {"country": "CN", "name": "Dongta", "lat": "38.0814", "lng": "106.34444"}, {"country": "CN", "name": "Daqinglu", "lat": "34.89927", "lng": "112.58314"}, {"country": "CN", "name": "Donglai", "lat": "37.64707", "lng": "120.5227"}, {"country": "CN", "name": "Dasha", "lat": "23.11037", "lng": "113.4418"}, {"country": "CN", "name": "Daxing", "lat": "39.74025", "lng": "116.32693"}, {"country": "CN", "name": "Dingcheng", "lat": "32.12722", "lng": "115.03944"}, {"country": "CN", "name": "Dahuaishu", "lat": "36.26556", "lng": "111.67528"}, {"country": "CN", "name": "Donghe", "lat": "32.23341", "lng": "106.30126"}, {"country": "CN", "name": "Dawu Chengguanzhen", "lat": "31.60965", "lng": "114.11806"}, {"country": "CN", "name": "Duyun", "lat": "26.26667", "lng": "107.51667"}, {"country": "CN", "name": "Duru", "lat": "28.5255", "lng": "107.887"}, {"country": "CN", "name": "Duobao", "lat": "30.67", "lng": "112.68952"}, {"country": "CN", "name": "Dunhou", "lat": "27.05", "lng": "114.9"}, {"country": "CN", "name": "Doucun", "lat": "34.74809", "lng": "109.17968"}, {"country": "CN", "name": "Ducheng", "lat": "23.24212", "lng": "111.5284"}, {"country": "CN", "name": "Duchang", "lat": "29.266", "lng": "116.18631"}, {"country": "CN", "name": "Douhudi", "lat": "30.06056", "lng": "112.22417"}, {"country": "CN", "name": "Dongzhaogezhuang", "lat": "39.94889", "lng": "117.37"}, {"country": "CN", "name": "Dongyuan", "lat": "24.91738", "lng": "118.75236"}, {"country": "CN", "name": "Donglan", "lat": "24.55018", "lng": "107.38289"}, {"country": "CN", "name": "Dongxi", "lat": "32.06577", "lng": "106.24843"}, {"country": "CN", "name": "Dongxi", "lat": "28.76139", "lng": "106.66111"}, {"country": "CN", "name": "Dongtai", "lat": "32.85231", "lng": "120.30947"}, {"country": "CN", "name": "Dongtazhuang", "lat": "39.89389", "lng": "117.33722"}, {"country": "CN", "name": "Dongsheng", "lat": "39.81609", "lng": "109.97763"}, {"country": "CN", "name": "Dongshan", "lat": "31.95568", "lng": "118.83269"}, {"country": "CN", "name": "Dongshan Dongzuxiang", "lat": "26.595", "lng": "109.89667"}, {"country": "CN", "name": "Dongshan", "lat": "25.79389", "lng": "114.54256"}, {"country": "CN", "name": "Dongping", "lat": "28.38017", "lng": "111.20586"}, {"country": "CN", "name": "Dongnigu", "lat": "39.01655", "lng": "117.44396"}, {"country": "CN", "name": "Dongming Chengguanzhen", "lat": "35.29145", "lng": "115.09019"}, {"country": "CN", "name": "Dongmen", "lat": "24.79198", "lng": "108.9"}, {"country": "CN", "name": "Dongling", "lat": "24.98271", "lng": "118.8979"}, {"country": "CN", "name": "Dongkou", "lat": "27.05272", "lng": "110.5361"}, {"country": "CN", "name": "Dongkan", "lat": "33.99972", "lng": "119.83083"}, {"country": "CN", "name": "Dongjituo", "lat": "39.42194", "lng": "117.57417"}, {"country": "CN", "name": "Donghuang", "lat": "28.33297", "lng": "106.21557"}, {"country": "CN", "name": "Donghua", "lat": "35.2152", "lng": "106.653"}, {"country": "CN", "name": "Donghai", "lat": "22.94593", "lng": "115.64204"}, {"country": "CN", "name": "Dongguang", "lat": "37.88509", "lng": "116.53283"}, {"country": "CN", "name": "Dongguan", "lat": "39.01732", "lng": "111.12674"}, {"country": "CN", "name": "Dongguan", "lat": "23.01797", "lng": "113.74866"}, {"country": "CN", "name": "Dong\u2019erying", "lat": "39.9575", "lng": "117.27917"}, {"country": "CN", "name": "Dongdu", "lat": "35.85", "lng": "117.7"}, {"country": "CN", "name": "Dongditou", "lat": "39.26641", "lng": "117.37273"}, {"country": "CN", "name": "Dongdai", "lat": "26.24366", "lng": "119.61566"}, {"country": "CN", "name": "Dongcun", "lat": "38.29442", "lng": "111.70352"}, {"country": "CN", "name": "Dongcun", "lat": "36.77667", "lng": "121.15972"}, {"country": "CN", "name": "Dongchuan", "lat": "25.47655", "lng": "101.28468"}, {"country": "CN", "name": "Dongchong", "lat": "26.54001", "lng": "119.83257"}, {"country": "CN", "name": "Dingzhou", "lat": "38.51306", "lng": "114.99556"}, {"country": "CN", "name": "Dingxi", "lat": "35.57088", "lng": "104.62303"}, {"country": "CN", "name": "Dingtao", "lat": "35.07436", "lng": "115.56582"}, {"country": "CN", "name": "Dingping", "lat": "30.33862", "lng": "106.927"}, {"country": "CN", "name": "Dinghai", "lat": "26.28022", "lng": "119.78964"}, {"country": "CN", "name": "Dingcheng", "lat": "32.51609", "lng": "117.65952"}, {"country": "CN", "name": "Dingbian", "lat": "37.59266", "lng": "107.59428"}, {"country": "CN", "name": "Dingcheng", "lat": "19.67914", "lng": "110.36231"}, {"country": "CN", "name": "Dianbu", "lat": "31.87308", "lng": "117.45803"}, {"country": "CN", "name": "Dezhou", "lat": "37.45127", "lng": "116.31046"}, {"country": "CN", "name": "Dezhou", "lat": "27.40809", "lng": "102.18001"}, {"country": "CN", "name": "Deyang", "lat": "31.13019", "lng": "104.38198"}, {"country": "CN", "name": "Deqing", "lat": "30.54485", "lng": "119.9599"}, {"country": "CN", "name": "Decheng", "lat": "23.14263", "lng": "111.77737"}, {"country": "CN", "name": "Dengzhou", "lat": "37.80822", "lng": "120.75908"}, {"country": "CN", "name": "Dengjiapu", "lat": "26.90444", "lng": "110.92"}, {"country": "CN", "name": "Debao Chengguanzhen", "lat": "23.38471", "lng": "106.57352"}, {"country": "CN", "name": "Dazuo", "lat": "24.88616", "lng": "118.96433"}, {"country": "CN", "name": "Dazhongzhuang", "lat": "39.68083", "lng": "117.56417"}, {"country": "CN", "name": "Dazhong", "lat": "33.19973", "lng": "120.4578"}, {"country": "CN", "name": "Dazhe", "lat": "24.57556", "lng": "115.89184"}, {"country": "CN", "name": "Daying", "lat": "34.72177", "lng": "111.10295"}, {"country": "CN", "name": "Daye", "lat": "30.08333", "lng": "114.95"}, {"country": "CN", "name": "Dayanggezhuang", "lat": "39.81889", "lng": "117.42361"}, {"country": "CN", "name": "Daxing", "lat": "27.26369", "lng": "100.86387"}, {"country": "CN", "name": "Dazhou", "lat": "31.21592", "lng": "107.50092"}, {"country": "CN", "name": "Dawukou", "lat": "39.04194", "lng": "106.39583"}, {"country": "CN", "name": "Dawu", "lat": "34.46623", "lng": "100.22993"}, {"country": "CN", "name": "Dawangtai", "lat": "39.27504", "lng": "117.48502"}, {"country": "CN", "name": "Datong", "lat": "32.62082", "lng": "117.06319"}, {"country": "CN", "name": "Datianzhuang", "lat": "39.2725", "lng": "117.75361"}, {"country": "CN", "name": "Datangzhuang", "lat": "39.39944", "lng": "117.43417"}, {"country": "CN", "name": "Dasi", "lat": "39.01821", "lng": "117.23768"}, {"country": "CN", "name": "Dashentang", "lat": "39.21722", "lng": "117.9525"}, {"country": "CN", "name": "Darong", "lat": "25.785", "lng": "108.864"}, {"country": "CN", "name": "Darenzhuang", "lat": "39.03889", "lng": "117.25194"}, {"country": "CN", "name": "Daqiao", "lat": "26.615", "lng": "118.90639"}, {"country": "CN", "name": "Dabaozi", "lat": "26.69556", "lng": "109.44778"}, {"country": "CN", "name": "Daokou", "lat": "35.56389", "lng": "114.50583"}, {"country": "CN", "name": "Daojiang", "lat": "25.49603", "lng": "111.55146"}, {"country": "CN", "name": "Danyang", "lat": "26.35102", "lng": "119.4803"}, {"country": "CN", "name": "Danshui", "lat": "22.7984", "lng": "114.46716"}, {"country": "CN", "name": "Danjiangkou", "lat": "32.54278", "lng": "111.50861"}, {"country": "CN", "name": "Dangcheng", "lat": "34.42787", "lng": "116.37657"}, {"country": "CN", "name": "Dangchang Chengguanzhen", "lat": "34.04462", "lng": "104.39464"}, {"country": "CN", "name": "Danfeng", "lat": "24.83054", "lng": "104.0082"}, {"country": "CN", "name": "Danxi", "lat": "29.47472", "lng": "121.86556"}, {"country": "CN", "name": "Daming", "lat": "36.28608", "lng": "115.14356"}, {"country": "CN", "name": "Daliang", "lat": "39.53944", "lng": "117.095"}, {"country": "CN", "name": "Daliang", "lat": "22.84067", "lng": "113.2503"}, {"country": "CN", "name": "Dalian", "lat": "38.91222", "lng": "121.60222"}, {"country": "CN", "name": "Dali", "lat": "34.79586", "lng": "109.93895"}, {"country": "CN", "name": "Dali", "lat": "25.58474", "lng": "100.21229"}, {"country": "CN", "name": "Dakoutun", "lat": "39.58333", "lng": "117.22889"}, {"country": "CN", "name": "Dajie", "lat": "24.29623", "lng": "102.75064"}, {"country": "CN", "name": "Dajianchang", "lat": "39.47778", "lng": "117.08306"}, {"country": "CN", "name": "Daiyue", "lat": "39.52038", "lng": "112.81684"}, {"country": "CN", "name": "Daixi", "lat": "26.8125", "lng": "119.11417"}, {"country": "CN", "name": "Daishan", "lat": "30.24589", "lng": "122.19895"}, {"country": "CN", "name": "Dahuangpu", "lat": "39.44111", "lng": "117.27778"}, {"country": "CN", "name": "Dahua", "lat": "23.76798", "lng": "107.9841"}, {"country": "CN", "name": "Dazhasi", "lat": "33.57795", "lng": "102.96412"}, {"country": "CN", "name": "Dafeng", "lat": "23.43422", "lng": "108.59825"}, {"country": "CN", "name": "Dadunqiu", "lat": "39.40611", "lng": "117.03306"}, {"country": "CN", "name": "Dadeng", "lat": "24.54386", "lng": "118.32753"}, {"country": "CN", "name": "Dabu", "lat": "24.66739", "lng": "109.23547"}, {"country": "CN", "name": "Dabizhuang", "lat": "39.19306", "lng": "117.25583"}, {"country": "CN", "name": "Dabao\u2019anzhen", "lat": "39.89944", "lng": "117.47639"}, {"country": "CN", "name": "Dabaizhuang", "lat": "39.44472", "lng": "117.38028"}, {"country": "CN", "name": "Dabachang", "lat": "27.7425", "lng": "108.34333"}, {"country": "CN", "name": "Dundong", "lat": "26.0119", "lng": "109.141"}, {"country": "CN", "name": "Dianjun", "lat": "30.70154", "lng": "111.25991"}, {"country": "CN", "name": "Dongcheng", "lat": "21.882", "lng": "112.01022"}, {"country": "CN", "name": "Duohu", "lat": "29.0937", "lng": "119.68511"}, {"country": "CN", "name": "Dadonghai", "lat": "18.22056", "lng": "109.51028"}, {"country": "CN", "name": "Dalianwan", "lat": "39.02861", "lng": "121.695"}, {"country": "CN", "name": "Dengying", "lat": "36.13889", "lng": "120.57417"}, {"country": "CN", "name": "Donghu", "lat": "26.23453", "lng": "119.5143"}, {"country": "CN", "name": "Dingtou", "lat": "26.83977", "lng": "119.66111"}, {"country": "CN", "name": "Dengyuantai", "lat": "26.68806", "lng": "110.54222"}, {"country": "CN", "name": "Dazhai", "lat": "25.8098", "lng": "110.15"}, {"country": "CN", "name": "Daihai", "lat": "40.52111", "lng": "112.49306"}, {"country": "CN", "name": "Duolun", "lat": "42.18712", "lng": "116.48909"}, {"country": "CN", "name": "Dunhua", "lat": "43.3725", "lng": "128.2425"}, {"country": "CN", "name": "Dongning", "lat": "44.06219", "lng": "131.12075"}, {"country": "CN", "name": "Dongling", "lat": "41.81444", "lng": "123.57583"}, {"country": "CN", "name": "Dongfeng", "lat": "42.64031", "lng": "125.51176"}, {"country": "CN", "name": "Dongxing", "lat": "45.36088", "lng": "130.78679"}, {"country": "CN", "name": "Dehui", "lat": "44.53333", "lng": "125.7"}, {"country": "CN", "name": "Dawa", "lat": "40.99373", "lng": "122.06804"}, {"country": "CN", "name": "Datong", "lat": "46.03376", "lng": "124.81064"}, {"country": "CN", "name": "Datong", "lat": "40.09361", "lng": "113.29139"}, {"country": "CN", "name": "Dashitou", "lat": "43.30667", "lng": "128.51139"}, {"country": "CN", "name": "Dashiqiao", "lat": "40.63732", "lng": "122.50251"}, {"country": "CN", "name": "Daqin Tal", "lat": "42.88719", "lng": "120.67466"}, {"country": "CN", "name": "Daqing", "lat": "46.58333", "lng": "125"}, {"country": "CN", "name": "Dandong", "lat": "40.12917", "lng": "124.39472"}, {"country": "CN", "name": "Dalain Hob", "lat": "41.96528", "lng": "101.06389"}, {"country": "CN", "name": "Dalai", "lat": "45.5", "lng": "124.3"}, {"country": "CN", "name": "Dailing", "lat": "47.02389", "lng": "129.01904"}, {"country": "CN", "name": "Dage", "lat": "41.19889", "lng": "116.64417"}, {"country": "CN", "name": "Daban", "lat": "43.53333", "lng": "118.66667"}, {"country": "CN", "name": "Dingcheng", "lat": "29.01937", "lng": "111.67976"}, {"country": "CN", "name": "Dongzhen", "lat": "22.37971", "lng": "110.93885"}, {"country": "CN", "name": "Dehang", "lat": "28.3071", "lng": "109.79668"}, {"country": "CN", "name": "Dianga", "lat": "34.06363", "lng": "103.21358"}, {"country": "CN", "name": "Dingqing", "lat": "31.41153", "lng": "95.58418"}, {"country": "CN", "name": "Dabagou", "lat": "46.06946", "lng": "121.91632"}, {"country": "CN", "name": "Dongqu", "lat": "37.92021", "lng": "112.20018"}, {"country": "CN", "name": "Dongjie", "lat": "26.08823", "lng": "119.29449"}, {"country": "CN", "name": "Dayu", "lat": "39.9375", "lng": "116.09669"}, {"country": "CN", "name": "Dongcheng", "lat": "28.89381", "lng": "120.04024"}, {"country": "CN", "name": "Dongcheng", "lat": "28.6473", "lng": "121.27106"}, {"country": "CN", "name": "Dawangzhuang", "lat": "39.12703", "lng": "117.21618"}, {"country": "CN", "name": "Dayingmen", "lat": "39.10734", "lng": "117.20958"}, {"country": "CN", "name": "Dong\u2019an", "lat": "46.59405", "lng": "125.07878"}, {"country": "CN", "name": "Dayou", "lat": "46.63616", "lng": "126.98753"}, {"country": "CN", "name": "Dongshan", "lat": "47.34277", "lng": "130.31222"}, {"country": "CN", "name": "Dongcheng", "lat": "29.15201", "lng": "107.10335"}, {"country": "CN", "name": "Dongtundu", "lat": "28.18371", "lng": "113.03209"}, {"country": "CN", "name": "Damatou", "lat": "28.61751", "lng": "112.33695"}, {"country": "CN", "name": "Dongdajie", "lat": "37.92686", "lng": "102.6343"}, {"country": "CN", "name": "Dongping", "lat": "36.499", "lng": "117.996"}, {"country": "CN", "name": "Dizhuang", "lat": "33.56452", "lng": "114.06965"}, {"country": "CO", "name": "Durania", "lat": "7.71307", "lng": "-72.65759"}, {"country": "CO", "name": "Duitama", "lat": "5.8245", "lng": "-73.03408"}, {"country": "CO", "name": "Dos Quebradas", "lat": "4.83916", "lng": "-75.66727"}, {"country": "CO", "name": "Don Mat\u00edas", "lat": "6.48569", "lng": "-75.39496"}, {"country": "CO", "name": "Distracci\u00f3n", "lat": "10.89693", "lng": "-72.8861"}, {"country": "CO", "name": "Dibulla", "lat": "11.27251", "lng": "-73.30911"}, {"country": "CO", "name": "Dagua", "lat": "3.65685", "lng": "-76.68859"}, {"country": "CO", "name": "Dabeiba", "lat": "7.00017", "lng": "-76.26915"}, {"country": "CR", "name": "Desamparados", "lat": "9.94727", "lng": "-84.50626"}, {"country": "CR", "name": "Daniel Flores", "lat": "9.33554", "lng": "-83.6694"}, {"country": "CR", "name": "Dulce Nombre de Jesus", "lat": "10.15144", "lng": "-83.97748"}, {"country": "CU", "name": "Diez de Octubre", "lat": "23.0881", "lng": "-82.3597"}, {"country": "CW", "name": "Dorp Soto", "lat": "12.27749", "lng": "-69.1125"}, {"country": "CY", "name": "Dhromolaxia", "lat": "34.87551", "lng": "33.58684"}, {"country": "CY", "name": "Der\u00fdneia", "lat": "35.06484", "lng": "33.96083"}, {"country": "CY", "name": "D\u00e1li", "lat": "35.02294", "lng": "33.42195"}, {"country": "CZ", "name": "Dv\u016fr Kr\u00e1lov\u00e9 nad Labem", "lat": "50.43172", "lng": "15.81402"}, {"country": "CZ", "name": "D\u00fd\u0161ina", "lat": "49.77735", "lng": "13.4915"}, {"country": "CZ", "name": "Dvorce", "lat": "49.83332", "lng": "17.54762"}, {"country": "CZ", "name": "Duchcov", "lat": "50.60376", "lng": "13.74621"}, {"country": "CZ", "name": "Dubn\u00e9", "lat": "48.97619", "lng": "14.36038"}, {"country": "CZ", "name": "Dub\u0148any", "lat": "48.91694", "lng": "17.09004"}, {"country": "CZ", "name": "Dub nad Moravou", "lat": "49.48249", "lng": "17.27723"}, {"country": "CZ", "name": "Dubicko", "lat": "49.82806", "lng": "16.96266"}, {"country": "CZ", "name": "Dub\u00ed", "lat": "50.68558", "lng": "13.78561"}, {"country": "CZ", "name": "Dub\u00e1", "lat": "50.54034", "lng": "14.54023"}, {"country": "CZ", "name": "Drnovice", "lat": "49.46931", "lng": "16.54223"}, {"country": "CZ", "name": "Drnovice", "lat": "49.2763", "lng": "16.95146"}, {"country": "CZ", "name": "Drnholec", "lat": "48.85746", "lng": "16.48586"}, {"country": "CZ", "name": "D\u0159ite\u0148", "lat": "49.1428", "lng": "14.34596"}, {"country": "CZ", "name": "D\u0159evohostice", "lat": "49.42594", "lng": "17.59204"}, {"country": "CZ", "name": "Dr\u00e1sov", "lat": "49.33183", "lng": "16.47798"}, {"country": "CZ", "name": "Drahanovice", "lat": "49.57856", "lng": "17.07701"}, {"country": "CZ", "name": "Doudleby nad Orlic\u00ed", "lat": "50.10742", "lng": "16.26131"}, {"country": "CZ", "name": "Doubravice nad Svitavou", "lat": "49.43664", "lng": "16.62937"}, {"country": "CZ", "name": "Doubrava", "lat": "49.85873", "lng": "18.48018"}, {"country": "CZ", "name": "Doma\u017elice", "lat": "49.44049", "lng": "12.92976"}, {"country": "CZ", "name": "Doman\u00edn", "lat": "49.00167", "lng": "17.28476"}, {"country": "CZ", "name": "Doloplazy", "lat": "49.56876", "lng": "17.41393"}, {"country": "CZ", "name": "Doln\u00ed \u017divotice", "lat": "49.89732", "lng": "17.77969"}, {"country": "CZ", "name": "Doln\u00ed \u017dandov", "lat": "50.01794", "lng": "12.55101"}, {"country": "CZ", "name": "Doln\u00ed \u00dajezd", "lat": "49.82562", "lng": "16.25461"}, {"country": "CZ", "name": "Doln\u00ed \u00dajezd", "lat": "49.54597", "lng": "17.53547"}, {"country": "CZ", "name": "Doln\u00ed Stud\u00e9nky", "lat": "49.93506", "lng": "16.97107"}, {"country": "CZ", "name": "Doln\u00ed Sloupnice", "lat": "49.92721", "lng": "16.29401"}, {"country": "CZ", "name": "Doln\u00ed Rychnov", "lat": "50.16462", "lng": "12.64507"}, {"country": "CZ", "name": "Doln\u00ed Rove\u0148", "lat": "50.02927", "lng": "15.96774"}, {"country": "CZ", "name": "Doln\u00ed Poustevna", "lat": "50.98251", "lng": "14.28684"}, {"country": "CZ", "name": "Doln\u00ed Podlu\u017e\u00ed", "lat": "50.87988", "lng": "14.59503"}, {"country": "CZ", "name": "Doln\u00ed Po\u010dernice", "lat": "50.0876", "lng": "14.57199"}, {"country": "CZ", "name": "Doln\u00ed N\u011bm\u010d\u00ed", "lat": "48.96837", "lng": "17.58585"}, {"country": "CZ", "name": "Doln\u00ed Lutyn\u011b", "lat": "49.89876", "lng": "18.42815"}, {"country": "CZ", "name": "Doln\u00ed Lou\u0107ky", "lat": "49.36099", "lng": "16.35871"}, {"country": "CZ", "name": "Doln\u00ed Libina", "lat": "49.85821", "lng": "17.10729"}, {"country": "CZ", "name": "Doln\u00ed Lhota", "lat": "49.84236", "lng": "18.09241"}, {"country": "CZ", "name": "Doln\u00ed Kounice", "lat": "49.07011", "lng": "16.46492"}, {"country": "CZ", "name": "Doln\u00ed Dvo\u0159i\u0161t\u011b", "lat": "48.65642", "lng": "14.45221"}, {"country": "CZ", "name": "Doln\u00ed Dunajovice", "lat": "48.85447", "lng": "16.59283"}, {"country": "CZ", "name": "Doln\u00ed Dobrou\u010d", "lat": "49.99273", "lng": "16.49766"}, {"country": "CZ", "name": "Doln\u00ed \u010cernilov", "lat": "50.2611", "lng": "15.96107"}, {"country": "CZ", "name": "Doln\u00ed \u010cermn\u00e1", "lat": "49.97954", "lng": "16.56475"}, {"country": "CZ", "name": "Doln\u00ed Cerekev", "lat": "49.34449", "lng": "15.45655"}, {"country": "CZ", "name": "Doln\u00ed Bukovsko", "lat": "49.17086", "lng": "14.58127"}, {"country": "CZ", "name": "Doln\u00ed B\u0159e\u017eany", "lat": "49.96321", "lng": "14.4585"}, {"country": "CZ", "name": "Doln\u00ed Bousov", "lat": "50.43825", "lng": "15.12812"}, {"country": "CZ", "name": "Doln\u00ed Bojanovice", "lat": "48.85861", "lng": "17.02859"}, {"country": "CZ", "name": "Doln\u00ed Bohd\u00edkov", "lat": "50.00996", "lng": "16.90433"}, {"country": "CZ", "name": "Doln\u00ed Be\u0159kovice", "lat": "50.39313", "lng": "14.45024"}, {"country": "CZ", "name": "Doln\u00ed Bene\u0161ov", "lat": "49.92101", "lng": "18.10835"}, {"country": "CZ", "name": "Doln\u00ed Be\u010dva", "lat": "49.45498", "lng": "18.19419"}, {"country": "CZ", "name": "Dolany", "lat": "49.64987", "lng": "17.3224"}, {"country": "CZ", "name": "Doksy", "lat": "50.56471", "lng": "14.65553"}, {"country": "CZ", "name": "Doksy", "lat": "50.119", "lng": "14.04782"}, {"country": "CZ", "name": "Dob\u0161ice", "lat": "48.84834", "lng": "16.08218"}, {"country": "CZ", "name": "Dobru\u0161ka", "lat": "50.29201", "lng": "16.16001"}, {"country": "CZ", "name": "Dobrovice", "lat": "50.36933", "lng": "14.96233"}, {"country": "CZ", "name": "Dobron\u00edn", "lat": "49.47833", "lng": "15.64992"}, {"country": "CZ", "name": "Dobrom\u011b\u0159ice", "lat": "50.37009", "lng": "13.79473"}, {"country": "CZ", "name": "Dob\u0159\u00edv", "lat": "49.71566", "lng": "13.68681"}, {"country": "CZ", "name": "Dob\u0159\u00ed\u0161", "lat": "49.78113", "lng": "14.16717"}, {"country": "CZ", "name": "Dob\u0159ichovice", "lat": "49.92749", "lng": "14.27469"}, {"country": "CZ", "name": "Dobratice", "lat": "49.66039", "lng": "18.49226"}, {"country": "CZ", "name": "Dob\u0159any", "lat": "49.65482", "lng": "13.29307"}, {"country": "CZ", "name": "Dobr\u00e1", "lat": "49.67383", "lng": "18.41393"}, {"country": "CZ", "name": "Dlouh\u00e1 T\u0159ebov\u00e1", "lat": "49.9404", "lng": "16.42329"}, {"country": "CZ", "name": "Divi\u0161ov", "lat": "49.78849", "lng": "14.87579"}, {"country": "CZ", "name": "D\u011btmarovice", "lat": "49.89412", "lng": "18.46079"}, {"country": "CZ", "name": "Desn\u00e1", "lat": "50.75987", "lng": "15.30284"}, {"country": "CZ", "name": "D\u011b\u010d\u00edn", "lat": "50.78215", "lng": "14.21478"}, {"country": "CZ", "name": "Davle", "lat": "49.89218", "lng": "14.40037"}, {"country": "CZ", "name": "Da\u0161ice", "lat": "50.02844", "lng": "15.91244"}, {"country": "CZ", "name": "Darkovice", "lat": "49.93592", "lng": "18.22213"}, {"country": "CZ", "name": "Dambo\u0159ice", "lat": "49.03828", "lng": "16.91757"}, {"country": "CZ", "name": "Dalovice", "lat": "50.24779", "lng": "12.89581"}, {"country": "CZ", "name": "Da\u010dice", "lat": "49.08154", "lng": "15.43727"}, {"country": "DE", "name": "Duvenstedt", "lat": "53.70806", "lng": "10.10444"}, {"country": "DE", "name": "Du\u00dflingen", "lat": "48.45357", "lng": "9.05552"}, {"country": "DE", "name": "D\u00fcsseldorf", "lat": "51.22172", "lng": "6.77616"}, {"country": "DE", "name": "D\u00fcrrwangen", "lat": "49.10778", "lng": "10.385"}, {"country": "DE", "name": "D\u00fcrrr\u00f6hrsdorf", "lat": "51.03395", "lng": "13.99718"}, {"country": "DE", "name": "D\u00fcrrlauingen", "lat": "48.46666", "lng": "10.4286"}, {"country": "DE", "name": "D\u00fcrrhennersdorf", "lat": "51.04863", "lng": "14.60383"}, {"country": "DE", "name": "D\u00fcrnau", "lat": "48.64079", "lng": "9.63544"}, {"country": "DE", "name": "Durmersheim", "lat": "48.93333", "lng": "8.26667"}, {"country": "DE", "name": "D\u00fcrmentingen", "lat": "48.11667", "lng": "9.53333"}, {"country": "DE", "name": "Durlangen", "lat": "48.85632", "lng": "9.79654"}, {"country": "DE", "name": "D\u00fcren", "lat": "50.80434", "lng": "6.49299"}, {"country": "DE", "name": "D\u00fcrbheim", "lat": "48.05623", "lng": "8.79344"}, {"country": "DE", "name": "Durbach", "lat": "48.49352", "lng": "8.01736"}, {"country": "DE", "name": "Durach", "lat": "47.6944", "lng": "10.34449"}, {"country": "DE", "name": "Dunum", "lat": "53.6", "lng": "7.65"}, {"country": "DE", "name": "D\u00fcnsen", "lat": "52.92749", "lng": "8.64191"}, {"country": "DE", "name": "Dunningen", "lat": "48.21242", "lng": "8.50619"}, {"country": "DE", "name": "D\u00fcngenheim", "lat": "50.26062", "lng": "7.16523"}, {"country": "DE", "name": "Dummerstorf", "lat": "54.01484", "lng": "12.22821"}, {"country": "DE", "name": "D\u00fcmmer", "lat": "53.57629", "lng": "11.20497"}, {"country": "DE", "name": "D\u00fclmen", "lat": "51.83149", "lng": "7.28075"}, {"country": "DE", "name": "Duisburg", "lat": "51.43247", "lng": "6.76516"}, {"country": "DE", "name": "Duingen", "lat": "52.00449", "lng": "9.69578"}, {"country": "DE", "name": "Duggendorf", "lat": "49.11667", "lng": "11.91667"}, {"country": "DE", "name": "Duderstadt", "lat": "51.51312", "lng": "10.25951"}, {"country": "DE", "name": "Dudenhofen", "lat": "49.31861", "lng": "8.38861"}, {"country": "DE", "name": "Dudeldorf", "lat": "49.97494", "lng": "6.63724"}, {"country": "DE", "name": "Ducherow", "lat": "53.76436", "lng": "13.78216"}, {"country": "DE", "name": "Dr\u00fcbeck", "lat": "51.8582", "lng": "10.71839"}, {"country": "DE", "name": "Droy\u00dfig", "lat": "51.04247", "lng": "12.0259"}, {"country": "DE", "name": "Drolshagen", "lat": "51.02358", "lng": "7.77355"}, {"country": "DE", "name": "Drochtersen", "lat": "53.71015", "lng": "9.38463"}, {"country": "DE", "name": "Driedorf", "lat": "50.63333", "lng": "8.18333"}, {"country": "DE", "name": "Dresden", "lat": "51.05089", "lng": "13.73832"}, {"country": "DE", "name": "Drentwede", "lat": "52.74388", "lng": "8.56504"}, {"country": "DE", "name": "Drensteinfurt", "lat": "51.79535", "lng": "7.73815"}, {"country": "DE", "name": "Drelsdorf", "lat": "54.60548", "lng": "9.04449"}, {"country": "DE", "name": "Dreisen", "lat": "49.60333", "lng": "8.01056"}, {"country": "DE", "name": "Dreis", "lat": "49.9409", "lng": "6.81845"}, {"country": "DE", "name": "Dreierwalde", "lat": "52.33194", "lng": "7.50333"}, {"country": "DE", "name": "Dreieich", "lat": "50.01997", "lng": "8.69611"}, {"country": "DE", "name": "Dreetz", "lat": "52.80297", "lng": "12.45961"}, {"country": "DE", "name": "Drebkau", "lat": "51.65412", "lng": "14.22316"}, {"country": "DE", "name": "Drebach", "lat": "50.67583", "lng": "13.0162"}, {"country": "DE", "name": "Dranske", "lat": "54.63118", "lng": "13.22831"}, {"country": "DE", "name": "Dransfeld", "lat": "51.4991", "lng": "9.76179"}, {"country": "DE", "name": "Drangstedt", "lat": "53.61359", "lng": "8.75576"}, {"country": "DE", "name": "Drakenburg", "lat": "52.68689", "lng": "9.21083"}, {"country": "DE", "name": "Drage", "lat": "53.41667", "lng": "10.26667"}, {"country": "DE", "name": "Drachselsried", "lat": "49.10759", "lng": "13.01185"}, {"country": "DE", "name": "Dotternhausen", "lat": "48.22848", "lng": "8.79228"}, {"country": "DE", "name": "D\u00f6tlingen", "lat": "52.93333", "lng": "8.38333"}, {"country": "DE", "name": "Dossenheim", "lat": "49.45028", "lng": "8.67472"}, {"country": "DE", "name": "D\u00f6rzbach", "lat": "49.38355", "lng": "9.70732"}, {"country": "DE", "name": "D\u00f6rverden", "lat": "52.85", "lng": "9.23333"}, {"country": "DE", "name": "Dorum", "lat": "53.6879", "lng": "8.56734"}, {"country": "DE", "name": "Dortmund", "lat": "51.51494", "lng": "7.466"}, {"country": "DE", "name": "Dorsten", "lat": "51.66166", "lng": "6.96514"}, {"country": "DE", "name": "D\u00f6rrenbach", "lat": "49.08972", "lng": "7.9614"}, {"country": "DE", "name": "D\u00f6rpen", "lat": "52.96469", "lng": "7.32273"}, {"country": "DE", "name": "Dornum", "lat": "53.64648", "lng": "7.42957"}, {"country": "DE", "name": "Dornstetten", "lat": "48.47198", "lng": "8.49817"}, {"country": "DE", "name": "Dornstadt", "lat": "48.46697", "lng": "9.94434"}, {"country": "DE", "name": "Dornhan", "lat": "48.35008", "lng": "8.50901"}, {"country": "DE", "name": "Dorndorf", "lat": "50.83472", "lng": "10.08921"}, {"country": "DE", "name": "Dormitz", "lat": "49.59786", "lng": "11.11765"}, {"country": "DE", "name": "Dormettingen", "lat": "48.23688", "lng": "8.77327"}, {"country": "DE", "name": "Dormagen", "lat": "51.09683", "lng": "6.83167"}, {"country": "DE", "name": "Dorfprozelten", "lat": "49.78056", "lng": "9.38028"}, {"country": "DE", "name": "Dorfhain", "lat": "50.93333", "lng": "13.56667"}, {"country": "DE", "name": "Dorfen", "lat": "48.27037", "lng": "12.16056"}, {"country": "DE", "name": "Dorfchemnitz", "lat": "50.66363", "lng": "12.83651"}, {"country": "DE", "name": "D\u00f6rentrup", "lat": "52.04109", "lng": "9.00278"}, {"country": "DE", "name": "Donzdorf", "lat": "48.68544", "lng": "9.81053"}, {"country": "DE", "name": "Donnersdorf", "lat": "49.96667", "lng": "10.41667"}, {"country": "DE", "name": "Donauw\u00f6rth", "lat": "48.71804", "lng": "10.7793"}, {"country": "DE", "name": "Donaustauf", "lat": "49.03258", "lng": "12.20459"}, {"country": "DE", "name": "Donaueschingen", "lat": "47.95514", "lng": "8.49707"}, {"country": "DE", "name": "Doms\u00fchl", "lat": "53.48723", "lng": "11.77099"}, {"country": "DE", "name": "Dommitzsch", "lat": "51.64071", "lng": "12.8794"}, {"country": "DE", "name": "Dommershausen", "lat": "50.15", "lng": "7.4"}, {"country": "DE", "name": "D\u00f6mitz", "lat": "53.1408", "lng": "11.25017"}, {"country": "DE", "name": "Domersleben", "lat": "52.09199", "lng": "11.43757"}, {"country": "DE", "name": "Domb\u00fchl", "lat": "49.25349", "lng": "10.28542"}, {"country": "DE", "name": "D\u00f6llst\u00e4dt", "lat": "51.08333", "lng": "10.81667"}, {"country": "DE", "name": "D\u00f6llnitz", "lat": "51.40777", "lng": "12.02831"}, {"country": "DE", "name": "Dollerup", "lat": "54.77798", "lng": "9.67981"}, {"country": "DE", "name": "Dollern", "lat": "53.53333", "lng": "9.55"}, {"country": "DE", "name": "Dollbergen", "lat": "52.40671", "lng": "10.18098"}, {"country": "DE", "name": "D\u00f6lbau", "lat": "51.46701", "lng": "12.05735"}, {"country": "DE", "name": "Dohna", "lat": "50.95621", "lng": "13.85839"}, {"country": "DE", "name": "Dohma", "lat": "50.91667", "lng": "13.93333"}, {"country": "DE", "name": "D\u00f6hlau", "lat": "50.28333", "lng": "11.95"}, {"country": "DE", "name": "Dogern", "lat": "47.60952", "lng": "8.16713"}, {"country": "DE", "name": "Dobersdorf", "lat": "54.31893", "lng": "10.28011"}, {"country": "DE", "name": "Dobersch\u00fctz", "lat": "51.4987", "lng": "12.74792"}, {"country": "DE", "name": "D\u00f6bernitz", "lat": "51.51241", "lng": "12.34753"}, {"country": "DE", "name": "Doberlug-Kirchhain", "lat": "51.62578", "lng": "13.56232"}, {"country": "DE", "name": "D\u00f6beln", "lat": "51.1221", "lng": "13.11027"}, {"country": "DE", "name": "Dobel", "lat": "48.8", "lng": "8.5"}, {"country": "DE", "name": "Dobbertin", "lat": "53.62306", "lng": "12.07466"}, {"country": "DE", "name": "Ditzingen", "lat": "48.82672", "lng": "9.06703"}, {"country": "DE", "name": "Dittenheim", "lat": "49.05536", "lng": "10.79201"}, {"country": "DE", "name": "Dittelbrunn", "lat": "50.07212", "lng": "10.21974"}, {"country": "DE", "name": "Ditfurt", "lat": "51.83333", "lng": "11.2"}, {"country": "DE", "name": "Dissen", "lat": "52.11591", "lng": "8.19956"}, {"country": "DE", "name": "Dischingen", "lat": "48.7", "lng": "10.36667"}, {"country": "DE", "name": "Dirmstein", "lat": "49.56333", "lng": "8.24472"}, {"country": "DE", "name": "Dirlewang", "lat": "48.00195", "lng": "10.50306"}, {"country": "DE", "name": "Dippoldiswalde", "lat": "50.89621", "lng": "13.66905"}, {"country": "DE", "name": "Dipperz", "lat": "50.54333", "lng": "9.79586"}, {"country": "DE", "name": "Dippach", "lat": "50.91959", "lng": "10.04236"}, {"country": "DE", "name": "Dinslaken", "lat": "51.56227", "lng": "6.7434"}, {"country": "DE", "name": "Dinklage", "lat": "52.66223", "lng": "8.1244"}, {"country": "DE", "name": "Dinkelscherben", "lat": "48.34826", "lng": "10.58893"}, {"country": "DE", "name": "Dinkelsb\u00fchl", "lat": "49.06942", "lng": "10.31985"}, {"country": "DE", "name": "Dingolshausen", "lat": "49.9071", "lng": "10.39032"}, {"country": "DE", "name": "Dingolfing", "lat": "48.64244", "lng": "12.49283"}, {"country": "DE", "name": "Dingelst\u00e4dt", "lat": "51.31529", "lng": "10.3174"}, {"country": "DE", "name": "Dillingen an der Donau", "lat": "48.58153", "lng": "10.49527"}, {"country": "DE", "name": "Dillingen", "lat": "49.35557", "lng": "6.72781"}, {"country": "DE", "name": "Dillenburg", "lat": "50.74114", "lng": "8.28699"}, {"country": "DE", "name": "Diez", "lat": "50.37419", "lng": "8.00735"}, {"country": "DE", "name": "Dietzenbach", "lat": "50.00976", "lng": "8.77783"}, {"country": "DE", "name": "Dietramszell", "lat": "47.84871", "lng": "11.5953"}, {"country": "DE", "name": "Dietmannsried", "lat": "47.80787", "lng": "10.28948"}, {"country": "DE", "name": "Dietingen", "lat": "48.2048", "lng": "8.64864"}, {"country": "DE", "name": "Dietfurt", "lat": "49.03578", "lng": "11.58624"}, {"country": "DE", "name": "Dieterskirchen", "lat": "49.41667", "lng": "12.41667"}, {"country": "DE", "name": "Dietersheim", "lat": "49.55631", "lng": "10.54074"}, {"country": "DE", "name": "Dietersburg", "lat": "48.49249", "lng": "12.92499"}, {"country": "DE", "name": "Dietenhofen", "lat": "49.39997", "lng": "10.68975"}, {"country": "DE", "name": "Dietenheim", "lat": "48.21072", "lng": "10.07163"}, {"country": "DE", "name": "Die\u00dfen am Ammersee", "lat": "47.95085", "lng": "11.10306"}, {"country": "DE", "name": "Diespeck", "lat": "49.6", "lng": "10.63333"}, {"country": "DE", "name": "Dieskau", "lat": "51.43553", "lng": "12.04035"}, {"country": "DE", "name": "Diesdorf", "lat": "52.13075", "lng": "11.56483"}, {"country": "DE", "name": "Dierdorf", "lat": "50.54647", "lng": "7.65271"}, {"country": "DE", "name": "Diepholz", "lat": "52.60783", "lng": "8.37005"}, {"country": "DE", "name": "Dienheim", "lat": "49.83722", "lng": "8.34972"}, {"country": "DE", "name": "Dielheim", "lat": "49.28417", "lng": "8.73806"}, {"country": "DE", "name": "Diekholzen", "lat": "52.09617", "lng": "9.91945"}, {"country": "DE", "name": "Diedorf", "lat": "48.3532", "lng": "10.78206"}, {"country": "DE", "name": "Dieburg", "lat": "49.89738", "lng": "8.84613"}, {"country": "DE", "name": "Dieblich", "lat": "50.31396", "lng": "7.47185"}, {"country": "DE", "name": "Diebach", "lat": "49.30912", "lng": "10.19188"}, {"country": "DE", "name": "Didderse", "lat": "52.38042", "lng": "10.40294"}, {"country": "DE", "name": "Dexheim", "lat": "49.84722", "lng": "8.31667"}, {"country": "DE", "name": "Deutzen", "lat": "51.11217", "lng": "12.42541"}, {"country": "DE", "name": "Deutz", "lat": "50.93463", "lng": "6.97495"}, {"country": "DE", "name": "Deutsch Evern", "lat": "53.2", "lng": "10.43333"}, {"country": "DE", "name": "Deuna", "lat": "51.3545", "lng": "10.47439"}, {"country": "DE", "name": "Deuerling", "lat": "49.0372", "lng": "11.91045"}, {"country": "DE", "name": "Deuben", "lat": "51.10968", "lng": "12.07259"}, {"country": "DE", "name": "Dettum", "lat": "52.17246", "lng": "10.66807"}, {"country": "DE", "name": "Dettingen unter Teck", "lat": "48.61667", "lng": "9.45"}, {"country": "DE", "name": "Dettingen an der Erms", "lat": "48.53077", "lng": "9.34458"}, {"country": "DE", "name": "Dettingen", "lat": "48.26246", "lng": "9.72161"}, {"country": "DE", "name": "Dettighofen", "lat": "47.62333", "lng": "8.48512"}, {"country": "DE", "name": "Dettenhausen", "lat": "48.60758", "lng": "9.10041"}, {"country": "DE", "name": "Dettelbach", "lat": "49.80295", "lng": "10.16519"}, {"country": "DE", "name": "Detmold", "lat": "51.93855", "lng": "8.87318"}, {"country": "DE", "name": "Detmerode", "lat": "52.39016", "lng": "10.7448"}, {"country": "DE", "name": "Detern", "lat": "53.20927", "lng": "7.67395"}, {"country": "DE", "name": "Dessau", "lat": "51.83864", "lng": "12.24555"}, {"country": "DE", "name": "Dersum", "lat": "52.96112", "lng": "7.27394"}, {"country": "DE", "name": "Dersekow", "lat": "54.04583", "lng": "13.29243"}, {"country": "DE", "name": "Derschen", "lat": "50.71667", "lng": "7.98333"}, {"country": "DE", "name": "Dernbach", "lat": "50.55", "lng": "7.6"}, {"country": "DE", "name": "Dernbach", "lat": "50.45551", "lng": "7.79003"}, {"country": "DE", "name": "Dernau", "lat": "50.53333", "lng": "7.05"}, {"country": "DE", "name": "Dermbach", "lat": "50.71383", "lng": "10.11839"}, {"country": "DE", "name": "Derenburg", "lat": "51.87086", "lng": "10.91029"}, {"country": "DE", "name": "Denzlingen", "lat": "48.06667", "lng": "7.88333"}, {"country": "DE", "name": "Dentlein am Forst", "lat": "49.14772", "lng": "10.42309"}, {"country": "DE", "name": "Dennheritz", "lat": "50.81412", "lng": "12.46519"}, {"country": "DE", "name": "Denklingen", "lat": "47.91667", "lng": "10.85"}, {"country": "DE", "name": "Denkingen", "lat": "48.1111", "lng": "8.7382"}, {"country": "DE", "name": "Denkendorf", "lat": "48.69555", "lng": "9.31675"}, {"country": "DE", "name": "Demmin", "lat": "53.90762", "lng": "13.03142"}, {"country": "DE", "name": "Demitz-Thumitz", "lat": "51.14149", "lng": "14.24719"}, {"country": "DE", "name": "Demen", "lat": "53.62967", "lng": "11.76639"}, {"country": "DE", "name": "Delmenhorst", "lat": "53.0511", "lng": "8.63091"}, {"country": "DE", "name": "Delligsen", "lat": "51.9412", "lng": "9.80272"}, {"country": "DE", "name": "Dellfeld", "lat": "49.23397", "lng": "7.47399"}, {"country": "DE", "name": "Delitzsch", "lat": "51.52546", "lng": "12.34284"}, {"country": "DE", "name": "Delingsdorf", "lat": "53.7", "lng": "10.25"}, {"country": "DE", "name": "Delbr\u00fcck", "lat": "51.76503", "lng": "8.56223"}, {"country": "DE", "name": "Deizisau", "lat": "48.7122", "lng": "9.3861"}, {"country": "DE", "name": "Dei\u00dflingen", "lat": "48.1123", "lng": "8.60736"}, {"country": "DE", "name": "Deisenhausen", "lat": "48.25554", "lng": "10.32698"}, {"country": "DE", "name": "Deinste", "lat": "53.52903", "lng": "9.44376"}, {"country": "DE", "name": "Deiningen", "lat": "48.86667", "lng": "10.56667"}, {"country": "DE", "name": "Deining", "lat": "49.22556", "lng": "11.53968"}, {"country": "DE", "name": "Deilingen", "lat": "48.1741", "lng": "8.78533"}, {"country": "DE", "name": "Deidesheim", "lat": "49.40782", "lng": "8.18445"}, {"country": "DE", "name": "Dehrn", "lat": "50.42049", "lng": "8.09846"}, {"country": "DE", "name": "Deggingen", "lat": "48.5971", "lng": "9.71891"}, {"country": "DE", "name": "Deggendorf", "lat": "48.84085", "lng": "12.96068"}, {"country": "DE", "name": "Deensen", "lat": "51.86053", "lng": "9.59322"}, {"country": "DE", "name": "Dedelstorf", "lat": "52.7", "lng": "10.5"}, {"country": "DE", "name": "Deckenpfronn", "lat": "48.65128", "lng": "8.82417"}, {"country": "DE", "name": "Dausenau", "lat": "50.33333", "lng": "7.76667"}, {"country": "DE", "name": "Daun", "lat": "50.19716", "lng": "6.82942"}, {"country": "DE", "name": "Dauchingen", "lat": "48.08993", "lng": "8.55011"}, {"country": "DE", "name": "Dattenberg", "lat": "50.55362", "lng": "7.29393"}, {"country": "DE", "name": "Datteln", "lat": "51.65598", "lng": "7.3453"}, {"country": "DE", "name": "Dassow", "lat": "53.91096", "lng": "10.97551"}, {"country": "DE", "name": "Dassendorf", "lat": "53.49532", "lng": "10.35987"}, {"country": "DE", "name": "Dassel", "lat": "51.80179", "lng": "9.68904"}, {"country": "DE", "name": "Dasing", "lat": "48.38482", "lng": "11.04667"}, {"country": "DE", "name": "Darmstadt", "lat": "49.87167", "lng": "8.65027"}, {"country": "DE", "name": "Darlingerode", "lat": "51.84712", "lng": "10.73097"}, {"country": "DE", "name": "Dargun", "lat": "53.9009", "lng": "12.85014"}, {"country": "DE", "name": "Dannewerk", "lat": "54.48333", "lng": "9.5"}, {"country": "DE", "name": "Dannenberg", "lat": "53.0967", "lng": "11.09001"}, {"country": "DE", "name": "Danndorf", "lat": "52.42472", "lng": "10.91286"}, {"country": "DE", "name": "Dankmarshausen", "lat": "50.92527", "lng": "10.01601"}, {"country": "DE", "name": "D\u00e4nischenhagen", "lat": "54.42775", "lng": "10.12596"}, {"country": "DE", "name": "Damp", "lat": "54.58333", "lng": "9.98333"}, {"country": "DE", "name": "Damme", "lat": "52.52157", "lng": "8.19793"}, {"country": "DE", "name": "Dalheim", "lat": "49.82667", "lng": "8.29528"}, {"country": "DE", "name": "Daisendorf", "lat": "47.71265", "lng": "9.26783"}, {"country": "DE", "name": "Dahn", "lat": "49.15098", "lng": "7.77843"}, {"country": "DE", "name": "Dahme", "lat": "54.21667", "lng": "11.08333"}, {"country": "DE", "name": "Dahme", "lat": "51.87008", "lng": "13.42743"}, {"country": "DE", "name": "Dahlenwarsleben", "lat": "52.19519", "lng": "11.53736"}, {"country": "DE", "name": "Dahlenburg", "lat": "53.18767", "lng": "10.7365"}, {"country": "DE", "name": "Dahlen", "lat": "51.36495", "lng": "12.99881"}, {"country": "DE", "name": "Dahlem", "lat": "52.4581", "lng": "13.28702"}, {"country": "DE", "name": "Dahlem", "lat": "50.38607", "lng": "6.54768"}, {"country": "DE", "name": "D\u00e4geling", "lat": "53.88333", "lng": "9.53333"}, {"country": "DE", "name": "Dachwig", "lat": "51.0777", "lng": "10.85479"}, {"country": "DE", "name": "Dachsenhausen", "lat": "50.25415", "lng": "7.72725"}, {"country": "DE", "name": "Dachau", "lat": "48.26", "lng": "11.43402"}, {"country": "DE", "name": "Dabel", "lat": "53.66112", "lng": "11.90025"}, {"country": "DE", "name": "Daaden", "lat": "50.73333", "lng": "7.96667"}, {"country": "DE", "name": "Dreikirchen", "lat": "50.43333", "lng": "7.95"}, {"country": "DE", "name": "Dohren", "lat": "52.65", "lng": "7.58333"}, {"country": "DE", "name": "Dannstadt-Schauernheim", "lat": "49.44028", "lng": "8.30861"}, {"country": "DE", "name": "Dittelsheim-He\u00dfloch", "lat": "49.74389", "lng": "8.23694"}, {"country": "DE", "name": "Dallgow-D\u00f6beritz", "lat": "52.54269", "lng": "13.05837"}, {"country": "DE", "name": "Dierkow-Neu", "lat": "54.10571", "lng": "12.16753"}, {"country": "DE", "name": "Dierkow-West", "lat": "54.10608", "lng": "12.15041"}, {"country": "DE", "name": "D\u00fcsseldorf-Pempelfort", "lat": "51.23812", "lng": "6.78678"}, {"country": "DJ", "name": "Dorra", "lat": "12.15028", "lng": "42.47624"}, {"country": "DJ", "name": "Djibouti", "lat": "11.58901", "lng": "43.14503"}, {"country": "DJ", "name": "Dikhil", "lat": "11.10861", "lng": "42.37389"}, {"country": "DK", "name": "Dybb\u00f8l", "lat": "54.91079", "lng": "9.73601"}, {"country": "DK", "name": "Dronninglund", "lat": "57.16035", "lng": "10.29287"}, {"country": "DK", "name": "Drag\u00f8r", "lat": "55.5928", "lng": "12.67221"}, {"country": "DK", "name": "Dianalund", "lat": "55.53133", "lng": "11.4925"}, {"country": "DO", "name": "Duverg\u00e9", "lat": "18.37839", "lng": "-71.52469"}, {"country": "DO", "name": "Don Juan", "lat": "18.82774", "lng": "-69.94629"}, {"country": "DO", "name": "Dajab\u00f3n", "lat": "19.54878", "lng": "-71.70829"}, {"country": "DZ", "name": "Djidiouia", "lat": "35.92989", "lng": "0.82871"}, {"country": "DZ", "name": "Drean", "lat": "36.68482", "lng": "7.75111"}, {"country": "DZ", "name": "Draa el Mizan", "lat": "36.53628", "lng": "3.8334"}, {"country": "DZ", "name": "Draa Ben Khedda", "lat": "36.73436", "lng": "3.96223"}, {"country": "DZ", "name": "Douera", "lat": "36.67", "lng": "2.94444"}, {"country": "DZ", "name": "Djelfa", "lat": "34.67279", "lng": "3.263"}, {"country": "DZ", "name": "Djamaa", "lat": "33.53388", "lng": "5.99306"}, {"country": "DZ", "name": "Didouche Mourad", "lat": "36.4525", "lng": "6.63639"}, {"country": "DZ", "name": "Dellys", "lat": "36.91716", "lng": "3.91311"}, {"country": "DZ", "name": "Debila", "lat": "33.51667", "lng": "6.95"}, {"country": "DZ", "name": "Dar el Be\u00efda", "lat": "36.71333", "lng": "3.2125"}, {"country": "DZ", "name": "Dar Chioukh", "lat": "34.89638", "lng": "3.48543"}, {"country": "DZ", "name": "Djebilet Rosfa", "lat": "34.86375", "lng": "0.83496"}, {"country": "EG", "name": "Damietta", "lat": "31.41648", "lng": "31.81332"}, {"country": "EG", "name": "Diyarb Najm", "lat": "30.75438", "lng": "31.44016"}, {"country": "EG", "name": "Dis\u016bq", "lat": "31.13259", "lng": "30.64784"}, {"country": "EG", "name": "Dishn\u0101", "lat": "26.12467", "lng": "32.47598"}, {"country": "EG", "name": "Dikirnis", "lat": "31.08898", "lng": "31.59478"}, {"country": "EG", "name": "Dahab", "lat": "28.48208", "lng": "34.49505"}, {"country": "EG", "name": "Dayr\u016b\u0163", "lat": "27.55602", "lng": "30.80764"}, {"country": "EG", "name": "Dayr Maw\u0101s", "lat": "27.64176", "lng": "30.84662"}, {"country": "EG", "name": "Damanh\u016br", "lat": "31.03408", "lng": "30.46823"}, {"country": "EH", "name": "Dakhla", "lat": "23.68477", "lng": "-15.95798"}, {"country": "ER", "name": "Dek\u2019emh\u0101re", "lat": "15.07", "lng": "39.0475"}, {"country": "ES", "name": "D\u00farcal", "lat": "36.98788", "lng": "-3.56601"}, {"country": "ES", "name": "D\u00fadar", "lat": "37.18579", "lng": "-3.48347"}, {"country": "ES", "name": "Dos Torres", "lat": "38.45", "lng": "-4.9"}, {"country": "ES", "name": "Dos Hermanas", "lat": "37.28287", "lng": "-5.92088"}, {"country": "ES", "name": "Dosbarrios", "lat": "39.88199", "lng": "-3.48419"}, {"country": "ES", "name": "Dos Aguas", "lat": "39.28333", "lng": "-0.8"}, {"country": "ES", "name": "Don Benito", "lat": "38.95627", "lng": "-5.86162"}, {"country": "ES", "name": "Do\u00f1a Menc\u00eda", "lat": "37.55346", "lng": "-4.35602"}, {"country": "ES", "name": "Don \u00c1lvaro", "lat": "38.84837", "lng": "-6.27475"}, {"country": "ES", "name": "Domingo P\u00e9rez", "lat": "39.97661", "lng": "-4.50554"}, {"country": "ES", "name": "Domingo P\u00e9rez", "lat": "37.49591", "lng": "-3.50929"}, {"country": "ES", "name": "Dome\u00f1o", "lat": "39.66115", "lng": "-0.67077"}, {"country": "ES", "name": "Dolores", "lat": "38.14002", "lng": "-0.77088"}, {"country": "ES", "name": "D\u00edlar", "lat": "37.07282", "lng": "-3.60134"}, {"country": "ES", "name": "Diezma", "lat": "37.31982", "lng": "-3.33256"}, {"country": "ES", "name": "Dei\u00e0", "lat": "39.74806", "lng": "2.64823"}, {"country": "ES", "name": "Denia", "lat": "38.84078", "lng": "0.10574"}, {"country": "ES", "name": "Deleitosa", "lat": "39.64359", "lng": "-5.64576"}, {"country": "ES", "name": "Deifontes", "lat": "37.3262", "lng": "-3.59568"}, {"country": "ES", "name": "Dehesas Viejas", "lat": "37.47414", "lng": "-3.55225"}, {"country": "ES", "name": "Dehesas de Guadix", "lat": "37.58876", "lng": "-3.10317"}, {"country": "ES", "name": "Daya Vieja", "lat": "38.1048", "lng": "-0.73804"}, {"country": "ES", "name": "Daya Nueva", "lat": "38.11313", "lng": "-0.76028"}, {"country": "ES", "name": "Darro", "lat": "37.34987", "lng": "-3.29465"}, {"country": "ES", "name": "Dal\u00edas", "lat": "36.82179", "lng": "-2.87138"}, {"country": "ES", "name": "Daim\u00fas", "lat": "38.96667", "lng": "-0.15"}, {"country": "ES", "name": "Daimiel", "lat": "39.07004", "lng": "-3.61498"}, {"country": "ES", "name": "Doneztebe", "lat": "43.13333", "lng": "-1.66667"}, {"country": "ES", "name": "Donostia / San Sebasti\u00e1n", "lat": "43.31283", "lng": "-1.97499"}, {"country": "ES", "name": "Duruelo de la Sierra", "lat": "41.95448", "lng": "-2.93086"}, {"country": "ES", "name": "Duruelo", "lat": "41.23622", "lng": "-3.64914"}, {"country": "ES", "name": "Dur\u00f3n", "lat": "40.6253", "lng": "-2.72662"}, {"country": "ES", "name": "Durango", "lat": "43.17124", "lng": "-2.6338"}, {"country": "ES", "name": "Dumbr\u00eda", "lat": "43.00836", "lng": "-9.11328"}, {"country": "ES", "name": "Due\u00f1as", "lat": "41.87717", "lng": "-4.54714"}, {"country": "ES", "name": "Driebes", "lat": "40.24498", "lng": "-3.04165"}, {"country": "ES", "name": "Doz\u00f3n", "lat": "42.58333", "lng": "-8.01667"}, {"country": "ES", "name": "Dosrius", "lat": "41.58333", "lng": "2.41667"}, {"country": "ES", "name": "Duesaig\u00fces", "lat": "41.15", "lng": "0.93333"}, {"country": "ES", "name": "Donvidas", "lat": "41.08954", "lng": "-4.80634"}, {"country": "ES", "name": "Donjimeno", "lat": "40.95978", "lng": "-4.84627"}, {"country": "ES", "name": "Do\u00f1inos de Salamanca", "lat": "40.95978", "lng": "-5.74349"}, {"country": "ES", "name": "Do\u00f1inos de Ledesma", "lat": "41.01251", "lng": "-6.03412"}, {"country": "ES", "name": "Donhierro", "lat": "41.11642", "lng": "-4.6967"}, {"country": "ES", "name": "Domingo Garc\u00eda", "lat": "41.11528", "lng": "-4.37927"}, {"country": "ES", "name": "Dios le Guarde", "lat": "40.64283", "lng": "-6.31511"}, {"country": "ES", "name": "Dicastillo", "lat": "42.59647", "lng": "-2.02666"}, {"country": "ES", "name": "Deza", "lat": "41.46373", "lng": "-2.02046"}, {"country": "ES", "name": "Deba", "lat": "43.29571", "lng": "-2.35213"}, {"country": "ES", "name": "Destriana", "lat": "42.32729", "lng": "-6.09573"}, {"country": "ES", "name": "Desojo", "lat": "42.5879", "lng": "-2.27438"}, {"country": "ES", "name": "Descargamar\u00eda", "lat": "40.30446", "lng": "-6.48666"}, {"country": "ES", "name": "Derio", "lat": "43.30544", "lng": "-2.88116"}, {"country": "ES", "name": "Dehesa de Romanos", "lat": "42.63876", "lng": "-4.43518"}, {"country": "ES", "name": "Dehesa de Montejo", "lat": "42.81939", "lng": "-4.51019"}, {"country": "ES", "name": "Dega\u00f1a", "lat": "42.93969", "lng": "-6.56935"}, {"country": "ES", "name": "Das", "lat": "42.36143", "lng": "1.87051"}, {"country": "ES", "name": "Daroca", "lat": "41.11475", "lng": "-1.41492"}, {"country": "ES", "name": "Darnius", "lat": "42.36667", "lng": "2.83333"}, {"country": "ES", "name": "Daganzo de Arriba", "lat": "40.54293", "lng": "-3.45457"}, {"country": "ES", "name": "Deltebre", "lat": "40.71944", "lng": "0.70835"}, {"country": "ES", "name": "Delicias", "lat": "41.64928", "lng": "-0.90757"}, {"country": "ES", "name": "Dreta de l'Eixample", "lat": "41.39606", "lng": "2.16688"}, {"country": "ES", "name": "Diagonal Mar", "lat": "41.40897", "lng": "2.21615"}, {"country": "ES", "name": "Daroca de Rioja", "lat": "42.37115", "lng": "-2.58187"}, {"country": "ET", "name": "Dubti", "lat": "11.73292", "lng": "41.082"}, {"country": "ET", "name": "Dodola", "lat": "6.98333", "lng": "39.18333"}, {"country": "ET", "name": "Dire Dawa", "lat": "9.59306", "lng": "41.86611"}, {"country": "ET", "name": "D\u012bla", "lat": "6.41667", "lng": "38.31667"}, {"country": "ET", "name": "Des\u0113", "lat": "11.13333", "lng": "39.63333"}, {"country": "ET", "name": "Demb\u012b Dolo", "lat": "8.53333", "lng": "34.8"}, {"country": "ET", "name": "Dejen", "lat": "10.16667", "lng": "38.13333"}, {"country": "ET", "name": "Deder", "lat": "9.31168", "lng": "41.44301"}, {"country": "ET", "name": "Debre Werk\u2019", "lat": "10.66667", "lng": "38.16667"}, {"country": "ET", "name": "Debre Tabor", "lat": "11.85", "lng": "38.01667"}, {"country": "ET", "name": "Debre S\u012bna", "lat": "9.84752", "lng": "39.76027"}, {"country": "ET", "name": "Debre Mark\u2019os", "lat": "10.35", "lng": "37.73333"}, {"country": "ET", "name": "Debre Birhan", "lat": "9.67954", "lng": "39.53262"}, {"country": "ET", "name": "Debark\u2019", "lat": "13.15611", "lng": "37.89806"}, {"country": "ET", "name": "Dabat", "lat": "12.98417", "lng": "37.765"}, {"country": "FI", "name": "Dragsfj\u00e4rd", "lat": "60.06667", "lng": "22.48333"}, {"country": "FR", "name": "Descartes", "lat": "46.96667", "lng": "0.7"}, {"country": "FR", "name": "Duttlenheim", "lat": "48.52553", "lng": "7.56572"}, {"country": "FR", "name": "Durtol", "lat": "45.79622", "lng": "3.05264"}, {"country": "FR", "name": "Durtal", "lat": "47.67247", "lng": "-0.23393"}, {"country": "FR", "name": "Durrenbach", "lat": "48.89748", "lng": "7.76733"}, {"country": "FR", "name": "Durdat-Larequille", "lat": "46.25173", "lng": "2.70112"}, {"country": "FR", "name": "Duras", "lat": "44.67618", "lng": "0.18247"}, {"country": "FR", "name": "Duppigheim", "lat": "48.52866", "lng": "7.59421"}, {"country": "FR", "name": "Dun-sur-Auron", "lat": "46.8849", "lng": "2.57345"}, {"country": "FR", "name": "Dun-le-Palestel", "lat": "46.3", "lng": "1.66667"}, {"country": "FR", "name": "Dunkerque", "lat": "51.03297", "lng": "2.377"}, {"country": "FR", "name": "Duni\u00e8res", "lat": "45.21598", "lng": "4.34579"}, {"country": "FR", "name": "Duisans", "lat": "50.30633", "lng": "2.68653"}, {"country": "FR", "name": "Dugny-sur-Meuse", "lat": "49.10953", "lng": "5.3855"}, {"country": "FR", "name": "Dugny", "lat": "48.95371", "lng": "2.41734"}, {"country": "FR", "name": "Duclair", "lat": "49.48385", "lng": "0.87617"}, {"country": "FR", "name": "Ducey", "lat": "48.61843", "lng": "-1.29052"}, {"country": "FR", "name": "Dry", "lat": "47.79612", "lng": "1.7133"}, {"country": "FR", "name": "Drusenheim", "lat": "48.76428", "lng": "7.95053"}, {"country": "FR", "name": "Drumettaz-Clarafond", "lat": "45.66037", "lng": "5.92145"}, {"country": "FR", "name": "Drulingen", "lat": "48.86834", "lng": "7.18761"}, {"country": "FR", "name": "Druelle", "lat": "44.36006", "lng": "2.50505"}, {"country": "FR", "name": "Droue-sur-Drouette", "lat": "48.60053", "lng": "1.70113"}, {"country": "FR", "name": "Drou\u00e9", "lat": "48.04023", "lng": "1.07534"}, {"country": "FR", "name": "Drocourt", "lat": "50.39002", "lng": "2.92425"}, {"country": "FR", "name": "Dreux", "lat": "48.73333", "lng": "1.36667"}, {"country": "FR", "name": "Dreuil-l\u00e8s-Amiens", "lat": "49.91483", "lng": "2.22893"}, {"country": "FR", "name": "Dreslincourt", "lat": "49.52809", "lng": "2.92699"}, {"country": "FR", "name": "Dr\u00e9mil-Lafage", "lat": "43.59624", "lng": "1.60117"}, {"country": "FR", "name": "Dreff\u00e9ac", "lat": "47.47464", "lng": "-2.05774"}, {"country": "FR", "name": "Draveil", "lat": "48.68466", "lng": "2.41418"}, {"country": "FR", "name": "Drap", "lat": "43.75614", "lng": "7.32059"}, {"country": "FR", "name": "Drancy", "lat": "48.92578", "lng": "2.44533"}, {"country": "FR", "name": "Drain", "lat": "47.33655", "lng": "-1.20773"}, {"country": "FR", "name": "Draguignan", "lat": "43.53333", "lng": "6.46667"}, {"country": "FR", "name": "Dracy-le-Fort", "lat": "46.7975", "lng": "4.76215"}, {"country": "FR", "name": "Dozul\u00e9", "lat": "49.23132", "lng": "-0.04454"}, {"country": "FR", "name": "Doyet", "lat": "46.33476", "lng": "2.79707"}, {"country": "FR", "name": "Douzy", "lat": "49.6708", "lng": "5.04156"}, {"country": "FR", "name": "Douvrin", "lat": "50.50916", "lng": "2.83053"}, {"country": "FR", "name": "Douvres-la-D\u00e9livrande", "lat": "49.29472", "lng": "-0.38039"}, {"country": "FR", "name": "Douvaine", "lat": "46.30544", "lng": "6.30375"}, {"country": "FR", "name": "Doussard", "lat": "45.77556", "lng": "6.21941"}, {"country": "FR", "name": "Dourgne", "lat": "43.48381", "lng": "2.13989"}, {"country": "FR", "name": "Dourges", "lat": "50.43636", "lng": "2.98589"}, {"country": "FR", "name": "Dourdan", "lat": "48.52772", "lng": "2.01113"}, {"country": "FR", "name": "Doullens", "lat": "50.15724", "lng": "2.34019"}, {"country": "FR", "name": "Doulaincourt-Saucourt", "lat": "48.31667", "lng": "5.2"}, {"country": "FR", "name": "Dou\u00e9-la-Fontaine", "lat": "47.19372", "lng": "-0.27492"}, {"country": "FR", "name": "Doue", "lat": "48.86641", "lng": "3.16269"}, {"country": "FR", "name": "Doudeville", "lat": "49.72268", "lng": "0.78479"}, {"country": "FR", "name": "Douchy-les-Mines", "lat": "50.3008", "lng": "3.3927"}, {"country": "FR", "name": "Douchy", "lat": "47.94282", "lng": "3.05392"}, {"country": "FR", "name": "Doubs", "lat": "46.92788", "lng": "6.35104"}, {"country": "FR", "name": "Douarnenez", "lat": "48.09542", "lng": "-4.32904"}, {"country": "FR", "name": "Douai", "lat": "50.36667", "lng": "3.06667"}, {"country": "FR", "name": "Dossenheim-sur-Zinsel", "lat": "48.8059", "lng": "7.40273"}, {"country": "FR", "name": "Dortan", "lat": "46.31973", "lng": "5.66028"}, {"country": "FR", "name": "Dornes", "lat": "46.716", "lng": "3.35343"}, {"country": "FR", "name": "Dormans", "lat": "49.07392", "lng": "3.63819"}, {"country": "FR", "name": "Dorlisheim", "lat": "48.52485", "lng": "7.48624"}, {"country": "FR", "name": "Dordives", "lat": "48.14253", "lng": "2.76775"}, {"country": "FR", "name": "Donzy", "lat": "47.37066", "lng": "3.12548"}, {"country": "FR", "name": "Donz\u00e8re", "lat": "44.44089", "lng": "4.71179"}, {"country": "FR", "name": "Donzenac", "lat": "45.22795", "lng": "1.52375"}, {"country": "FR", "name": "Donville-les-Bains", "lat": "48.84608", "lng": "-1.58315"}, {"country": "FR", "name": "Donnery", "lat": "47.91486", "lng": "2.10299"}, {"country": "FR", "name": "Donnemarie-Dontilly", "lat": "48.47719", "lng": "3.13162"}, {"country": "FR", "name": "Donges", "lat": "47.31824", "lng": "-2.07538"}, {"country": "FR", "name": "Doncourt-l\u00e8s-Conflans", "lat": "49.1436", "lng": "5.93382"}, {"country": "FR", "name": "Donchery", "lat": "49.69584", "lng": "4.87417"}, {"country": "FR", "name": "Don", "lat": "50.54912", "lng": "2.91817"}, {"country": "FR", "name": "Dompierre-sur-Yon", "lat": "46.73857", "lng": "-1.38463"}, {"country": "FR", "name": "Dompierre-sur-Veyle", "lat": "46.07179", "lng": "5.20573"}, {"country": "FR", "name": "Dompierre-sur-Mer", "lat": "46.18817", "lng": "-1.06351"}, {"country": "FR", "name": "Dompierre-sur-Besbre", "lat": "46.51962", "lng": "3.69905"}, {"country": "FR", "name": "Domont", "lat": "49.02782", "lng": "2.32638"}, {"country": "FR", "name": "Domme", "lat": "44.80218", "lng": "1.21459"}, {"country": "FR", "name": "Dommartin-l\u00e8s-Toul", "lat": "48.66981", "lng": "5.90998"}, {"country": "FR", "name": "Dommartin-l\u00e8s-Remiremont", "lat": "47.99902", "lng": "6.64048"}, {"country": "FR", "name": "Dom-le-Mesnil", "lat": "49.69012", "lng": "4.80363"}, {"country": "FR", "name": "Domgermain", "lat": "48.64292", "lng": "5.82582"}, {"country": "FR", "name": "Domfront", "lat": "48.59208", "lng": "-0.64588"}, {"country": "FR", "name": "Domessin", "lat": "45.5343", "lng": "5.70077"}, {"country": "FR", "name": "Dom\u00e9rat", "lat": "46.36064", "lng": "2.53426"}, {"country": "FR", "name": "Dom\u00e8ne", "lat": "45.20345", "lng": "5.83905"}, {"country": "FR", "name": "Dombasle-sur-Meurthe", "lat": "48.6252", "lng": "6.34967"}, {"country": "FR", "name": "Domart-en-Ponthieu", "lat": "50.07437", "lng": "2.12596"}, {"country": "FR", "name": "Domarin", "lat": "45.58555", "lng": "5.24308"}, {"country": "FR", "name": "Domancy", "lat": "45.91418", "lng": "6.64741"}, {"country": "FR", "name": "Domalain", "lat": "47.99617", "lng": "-1.2425"}, {"country": "FR", "name": "Domagn\u00e9", "lat": "48.07081", "lng": "-1.39291"}, {"country": "FR", "name": "Dolus-d'Ol\u00e9ron", "lat": "45.91667", "lng": "-1.26667"}, {"country": "FR", "name": "Dolomieu", "lat": "45.61328", "lng": "5.50016"}, {"country": "FR", "name": "Dollon", "lat": "48.03879", "lng": "0.58686"}, {"country": "FR", "name": "Dole", "lat": "47.1", "lng": "5.5"}, {"country": "FR", "name": "Dol-de-Bretagne", "lat": "48.54765", "lng": "-1.75018"}, {"country": "FR", "name": "Doingt", "lat": "49.92113", "lng": "2.96766"}, {"country": "FR", "name": "Dogneville", "lat": "48.22251", "lng": "6.45944"}, {"country": "FR", "name": "Docelles", "lat": "48.14475", "lng": "6.61289"}, {"country": "FR", "name": "Dizy", "lat": "49.06667", "lng": "3.96667"}, {"country": "FR", "name": "Divonne-les-Bains", "lat": "46.35938", "lng": "6.13574"}, {"country": "FR", "name": "Divion", "lat": "50.47169", "lng": "2.50546"}, {"country": "FR", "name": "Dives-sur-Mer", "lat": "49.28176", "lng": "-0.10125"}, {"country": "FR", "name": "Distroff", "lat": "49.33304", "lng": "6.26448"}, {"country": "FR", "name": "Distr\u00e9", "lat": "47.22281", "lng": "-0.11071"}, {"country": "FR", "name": "Dissay", "lat": "46.70007", "lng": "0.43311"}, {"country": "FR", "name": "Dirinon", "lat": "48.39775", "lng": "-4.27017"}, {"country": "FR", "name": "Dirac", "lat": "45.6", "lng": "0.25"}, {"country": "FR", "name": "Diou", "lat": "46.53333", "lng": "3.75"}, {"country": "FR", "name": "Dinsheim-sur-Bruche", "lat": "48.54258", "lng": "7.42727"}, {"country": "FR", "name": "Dingy-Saint-Clair", "lat": "45.90806", "lng": "6.22452"}, {"country": "FR", "name": "Dingsheim", "lat": "48.63053", "lng": "7.66932"}, {"country": "FR", "name": "Ding\u00e9", "lat": "48.35702", "lng": "-1.71489"}, {"country": "FR", "name": "Din\u00e9ault", "lat": "48.21922", "lng": "-4.16411"}, {"country": "FR", "name": "Dinard", "lat": "48.63143", "lng": "-2.06144"}, {"country": "FR", "name": "Dinan", "lat": "48.45", "lng": "-2.03333"}, {"country": "FR", "name": "Dijon", "lat": "47.31667", "lng": "5.01667"}, {"country": "FR", "name": "Digosville", "lat": "49.63104", "lng": "-1.52627"}, {"country": "FR", "name": "Digoin", "lat": "46.48124", "lng": "3.97946"}, {"country": "FR", "name": "Digne-les-Bains", "lat": "44.09252", "lng": "6.23199"}, {"country": "FR", "name": "Dignac", "lat": "45.55", "lng": "0.28333"}, {"country": "FR", "name": "Diges", "lat": "47.72862", "lng": "3.39786"}, {"country": "FR", "name": "Dieuze", "lat": "48.81263", "lng": "6.7178"}, {"country": "FR", "name": "Dieulouard", "lat": "48.8414", "lng": "6.06808"}, {"country": "FR", "name": "Dieulefit", "lat": "44.52341", "lng": "5.06425"}, {"country": "FR", "name": "Dieue-sur-Meuse", "lat": "49.072", "lng": "5.42248"}, {"country": "FR", "name": "Dietwiller", "lat": "47.69259", "lng": "7.40222"}, {"country": "FR", "name": "Diesen", "lat": "49.178", "lng": "6.68035"}, {"country": "FR", "name": "Dieppe", "lat": "49.93333", "lng": "1.08333"}, {"country": "FR", "name": "Di\u00e9moz", "lat": "45.58651", "lng": "5.09397"}, {"country": "FR", "name": "Diemeringen", "lat": "48.93968", "lng": "7.18555"}, {"country": "FR", "name": "Diebling", "lat": "49.10918", "lng": "6.94034"}, {"country": "FR", "name": "Die", "lat": "44.75", "lng": "5.36667"}, {"country": "FR", "name": "Didenheim", "lat": "47.71737", "lng": "7.3022"}, {"country": "FR", "name": "Dhuizon", "lat": "47.58723", "lng": "1.65809"}, {"country": "FR", "name": "Deyvillers", "lat": "48.20013", "lng": "6.51533"}, {"country": "FR", "name": "D\u00e9ville-l\u00e8s-Rouen", "lat": "49.46942", "lng": "1.05214"}, {"country": "FR", "name": "Deville", "lat": "49.87893", "lng": "4.7061"}, {"country": "FR", "name": "Devecey", "lat": "47.32169", "lng": "6.019"}, {"country": "FR", "name": "De\u00fbl\u00e9mont", "lat": "50.73333", "lng": "2.95"}, {"country": "FR", "name": "Deuil-la-Barre", "lat": "48.97674", "lng": "2.32722"}, {"country": "FR", "name": "Dettwiller", "lat": "48.75415", "lng": "7.46633"}, {"country": "FR", "name": "Desvres", "lat": "50.66884", "lng": "1.83478"}, {"country": "FR", "name": "Dessenheim", "lat": "47.9763", "lng": "7.48886"}, {"country": "FR", "name": "D\u00e9sertines", "lat": "46.35521", "lng": "2.62074"}, {"country": "FR", "name": "D\u00e9saignes", "lat": "44.99544", "lng": "4.51413"}, {"country": "FR", "name": "Derval", "lat": "47.66724", "lng": "-1.6699"}, {"country": "FR", "name": "D\u00e9ols", "lat": "46.82934", "lng": "1.70428"}, {"country": "FR", "name": "Denic\u00e9", "lat": "46.00141", "lng": "4.64523"}, {"country": "FR", "name": "Denguin", "lat": "43.36667", "lng": "-0.5"}, {"country": "FR", "name": "Den\u00e9e", "lat": "47.37885", "lng": "-0.60816"}, {"country": "FR", "name": "Denain", "lat": "50.3293", "lng": "3.3943"}, {"country": "FR", "name": "D\u00e9mouville", "lat": "49.18001", "lng": "-0.26947"}, {"country": "FR", "name": "Demigny", "lat": "46.93048", "lng": "4.83381"}, {"country": "FR", "name": "Delle", "lat": "47.51048", "lng": "6.99963"}, {"country": "FR", "name": "Decize", "lat": "46.82852", "lng": "3.46192"}, {"country": "FR", "name": "D\u00e9cines-Charpieu", "lat": "45.76899", "lng": "4.97277"}, {"country": "FR", "name": "Dechy", "lat": "50.35", "lng": "3.11667"}, {"country": "FR", "name": "Decazeville", "lat": "44.56045", "lng": "2.25091"}, {"country": "FR", "name": "Deauville", "lat": "49.357", "lng": "0.06995"}, {"country": "FR", "name": "Dax", "lat": "43.71032", "lng": "-1.05366"}, {"country": "FR", "name": "Dav\u00e9zieux", "lat": "45.25732", "lng": "4.70875"}, {"country": "FR", "name": "Daux", "lat": "43.69506", "lng": "1.26892"}, {"country": "FR", "name": "Daumeray", "lat": "47.7007", "lng": "-0.36119"}, {"country": "FR", "name": "Dauendorf", "lat": "48.82987", "lng": "7.65532"}, {"country": "FR", "name": "Dasle", "lat": "47.47843", "lng": "6.89728"}, {"country": "FR", "name": "Darvoy", "lat": "47.85839", "lng": "2.10033"}, {"country": "FR", "name": "Darnieulles", "lat": "48.1995", "lng": "6.34929"}, {"country": "FR", "name": "Darney", "lat": "48.0866", "lng": "6.04917"}, {"country": "FR", "name": "Darn\u00e9tal", "lat": "49.44533", "lng": "1.15144"}, {"country": "FR", "name": "Dargnies", "lat": "50.04144", "lng": "1.52526"}, {"country": "FR", "name": "Dardilly", "lat": "45.80506", "lng": "4.75342"}, {"country": "FR", "name": "Daoulas", "lat": "48.36089", "lng": "-4.25977"}, {"country": "FR", "name": "Dannes", "lat": "50.58799", "lng": "1.61381"}, {"country": "FR", "name": "Dannemarie-sur-Cr\u00eate", "lat": "47.20488", "lng": "5.87018"}, {"country": "FR", "name": "Dannemarie", "lat": "47.63031", "lng": "7.12237"}, {"country": "FR", "name": "Danjoutin", "lat": "47.6156", "lng": "6.86637"}, {"country": "FR", "name": "Dang\u00e9-Saint-Romain", "lat": "46.93333", "lng": "0.6"}, {"country": "FR", "name": "Damville", "lat": "48.8693", "lng": "1.07458"}, {"country": "FR", "name": "Damprichard", "lat": "47.24413", "lng": "6.88121"}, {"country": "FR", "name": "Dampmart", "lat": "48.88854", "lng": "2.74095"}, {"country": "FR", "name": "Dampierre-sur-Salon", "lat": "47.55719", "lng": "5.6797"}, {"country": "FR", "name": "Dampierre-les-Bois", "lat": "47.50639", "lng": "6.91279"}, {"country": "FR", "name": "Dampierre-en-Burly", "lat": "47.76143", "lng": "2.51962"}, {"country": "FR", "name": "Dampierre-en-Yvelines", "lat": "48.7", "lng": "1.98333"}, {"country": "FR", "name": "Dampierre", "lat": "47.15498", "lng": "5.74167"}, {"country": "FR", "name": "Damparis", "lat": "47.07556", "lng": "5.41398"}, {"country": "FR", "name": "Dammartin-en-Go\u00eble", "lat": "49.05423", "lng": "2.67777"}, {"country": "FR", "name": "Dammarie-les-Lys", "lat": "48.51667", "lng": "2.65"}, {"country": "FR", "name": "Dammarie", "lat": "48.34314", "lng": "1.49444"}, {"country": "FR", "name": "Damigny", "lat": "48.45", "lng": "0.06667"}, {"country": "FR", "name": "Damgan", "lat": "47.51799", "lng": "-2.57698"}, {"country": "FR", "name": "Damery", "lat": "49.07238", "lng": "3.88036"}, {"country": "FR", "name": "Damelevi\u00e8res", "lat": "48.55736", "lng": "6.38611"}, {"country": "FR", "name": "Dambach-la-Ville", "lat": "48.32379", "lng": "7.42547"}, {"country": "FR", "name": "Damazan", "lat": "44.29068", "lng": "0.27694"}, {"country": "FR", "name": "Dallet", "lat": "45.77039", "lng": "3.23906"}, {"country": "FR", "name": "Daix", "lat": "47.35081", "lng": "5.00052"}, {"country": "FR", "name": "Dainville", "lat": "50.28097", "lng": "2.72603"}, {"country": "FR", "name": "Dagneux", "lat": "45.8514", "lng": "5.0778"}, {"country": "FR", "name": "Dadonville", "lat": "48.15776", "lng": "2.2715"}, {"country": "FR", "name": "Dachstein", "lat": "48.56127", "lng": "7.53233"}, {"country": "FR", "name": "Dabo", "lat": "48.65371", "lng": "7.23636"}, {"country": "GB", "name": "Derry", "lat": "54.9981", "lng": "-7.30934"}, {"country": "GB", "name": "Driffield", "lat": "54.00613", "lng": "-0.44495"}, {"country": "GB", "name": "Dyserth", "lat": "53.30032", "lng": "-3.41262"}, {"country": "GB", "name": "Dymchurch", "lat": "51.02544", "lng": "0.99392"}, {"country": "GB", "name": "Dyce", "lat": "57.20522", "lng": "-2.17676"},