[{"country": "AF", "name": "Fayzabad", "lat": "37.11664", "lng": "70.58002"}, {"country": "AF", "name": "Fa\u012b\u1e95\u0101b\u0101d", "lat": "36.82091", "lng": "66.45921"}, {"country": "AF", "name": "Fay\u1e95\u0101b\u0101d", "lat": "36.29111", "lng": "64.86222"}, {"country": "AF", "name": "Farkh\u0101r", "lat": "36.57288", "lng": "69.85783"}, {"country": "AF", "name": "Farah", "lat": "32.37451", "lng": "62.11638"}, {"country": "AF", "name": "Fayr\u014dz K\u014dh", "lat": "34.51952", "lng": "65.25093"}, {"country": "AG", "name": "Falmouth", "lat": "17.02741", "lng": "-61.78136"}, {"country": "AI", "name": "Farrington", "lat": "18.215", "lng": "-63.02238"}, {"country": "AL", "name": "Finiq", "lat": "39.90639", "lng": "20.05833"}, {"country": "AL", "name": "Fush\u00eb-Muhurr", "lat": "41.67972", "lng": "20.33139"}, {"country": "AL", "name": "Fush\u00eb-Lur\u00eb", "lat": "41.80611", "lng": "20.23194"}, {"country": "AL", "name": "Fush\u00eb-\u00c7idhn\u00eb", "lat": "41.76056", "lng": "20.34111"}, {"country": "AL", "name": "Fush\u00eb-Bulqiz\u00eb", "lat": "41.52194", "lng": "20.28222"}, {"country": "AL", "name": "Fush\u00eb-Arr\u00ebz", "lat": "42.06222", "lng": "20.01667"}, {"country": "AL", "name": "Frash\u00ebr", "lat": "40.36889", "lng": "20.42444"}, {"country": "AL", "name": "Fierz\u00eb", "lat": "42.26056", "lng": "20.01694"}, {"country": "AL", "name": "Fajz\u00eb", "lat": "42.16694", "lng": "20.35083"}, {"country": "AL", "name": "Funar\u00eb", "lat": "41.19639", "lng": "20.05972"}, {"country": "AL", "name": "Fush\u00ebkuqe", "lat": "41.65028", "lng": "19.62"}, {"country": "AL", "name": "Fush\u00eb-Kruj\u00eb", "lat": "41.47833", "lng": "19.71778"}, {"country": "AL", "name": "Fratar", "lat": "40.5", "lng": "19.81667"}, {"country": "AL", "name": "Frakulla e Madhe", "lat": "40.65583", "lng": "19.5025"}, {"country": "AL", "name": "Fier-Shegan", "lat": "40.86722", "lng": "19.78528"}, {"country": "AL", "name": "Fier-\u00c7if\u00e7i", "lat": "40.71667", "lng": "19.56667"}, {"country": "AL", "name": "Fier", "lat": "40.72389", "lng": "19.55611"}, {"country": "AL", "name": "Farka e Madhe", "lat": "41.30556", "lng": "19.86694"}, {"country": "AL", "name": "Fierz\u00eb", "lat": "40.92056", "lng": "19.84694"}, {"country": "AM", "name": "Fantan", "lat": "40.39447", "lng": "44.6861"}, {"country": "AM", "name": "Fioletovo", "lat": "40.72241", "lng": "44.71769"}, {"country": "AR", "name": "Formosa", "lat": "-26.17753", "lng": "-58.17814"}, {"country": "AR", "name": "Fontana", "lat": "-27.41813", "lng": "-59.02392"}, {"country": "AR", "name": "Florentino Ameghino", "lat": "-27.56667", "lng": "-55.13333"}, {"country": "AR", "name": "Florencio Varela", "lat": "-34.82722", "lng": "-58.39556"}, {"country": "AR", "name": "Felipe Yofr\u00e9", "lat": "-29.10226", "lng": "-58.33772"}, {"country": "AR", "name": "Federal", "lat": "-30.95465", "lng": "-58.78326"}, {"country": "AR", "name": "Federaci\u00f3n", "lat": "-31.00621", "lng": "-57.89962"}, {"country": "AR", "name": "Funes", "lat": "-32.91568", "lng": "-60.80995"}, {"country": "AR", "name": "Fr\u00edas", "lat": "-28.63593", "lng": "-65.13102"}, {"country": "AR", "name": "Fray Luis Beltr\u00e1n", "lat": "-39.31667", "lng": "-65.76667"}, {"country": "AR", "name": "Fray Luis A. Beltr\u00e1n", "lat": "-32.79122", "lng": "-60.72819"}, {"country": "AR", "name": "Fraile Pintado", "lat": "-23.94079", "lng": "-64.79943"}, {"country": "AR", "name": "Firmat", "lat": "-33.45937", "lng": "-61.4832"}, {"country": "AR", "name": "Fiambal\u00e1", "lat": "-27.68705", "lng": "-67.6149"}, {"country": "AR", "name": "Fern\u00e1ndez", "lat": "-27.92037", "lng": "-63.89349"}, {"country": "AR", "name": "Famatina", "lat": "-28.92322", "lng": "-67.52253"}, {"country": "AR", "name": "Famaill\u00e1", "lat": "-27.05413", "lng": "-65.40329"}, {"country": "AR", "name": "Florentino Ameghino", "lat": "-34.84405", "lng": "-62.46701"}, {"country": "AS", "name": "Faleniu", "lat": "-14.3325", "lng": "-170.74444"}, {"country": "AS", "name": "Fagatogo", "lat": "-14.2825", "lng": "-170.69"}, {"country": "AS", "name": "Fale\u0101sao", "lat": "-14.2222", "lng": "-169.51278"}, {"country": "AT", "name": "Fu\u00dfach", "lat": "47.47933", "lng": "9.66278"}, {"country": "AT", "name": "Fuschl am See", "lat": "47.8", "lng": "13.3"}, {"country": "AT", "name": "Furth an der Triesting", "lat": "47.97326", "lng": "15.97326"}, {"country": "AT", "name": "F\u00fcrstenfeld", "lat": "47.05", "lng": "16.08333"}, {"country": "AT", "name": "Fulpmes", "lat": "47.15202", "lng": "11.34922"}, {"country": "AT", "name": "F\u00fcgenberg", "lat": "47.3521", "lng": "11.84173"}, {"country": "AT", "name": "F\u00fcgen", "lat": "47.347", "lng": "11.84939"}, {"country": "AT", "name": "Frohnleiten", "lat": "47.26667", "lng": "15.31667"}, {"country": "AT", "name": "Fritzens", "lat": "47.3", "lng": "11.58333"}, {"country": "AT", "name": "Friesach", "lat": "46.95528", "lng": "14.40583"}, {"country": "AT", "name": "Friedberg", "lat": "47.43333", "lng": "16.05"}, {"country": "AT", "name": "Fresach", "lat": "46.71556", "lng": "13.69083"}, {"country": "AT", "name": "Freistadt", "lat": "48.51103", "lng": "14.50453"}, {"country": "AT", "name": "Freiland bei Deutschlandsberg", "lat": "46.83333", "lng": "15.13333"}, {"country": "AT", "name": "Fraxern", "lat": "47.31498", "lng": "9.67391"}, {"country": "AT", "name": "Frauenkirchen", "lat": "47.83678", "lng": "16.92581"}, {"country": "AT", "name": "Frauenberg", "lat": "47.42855", "lng": "15.34206"}, {"country": "AT", "name": "Frannach", "lat": "46.91306", "lng": "15.63361"}, {"country": "AT", "name": "Frankenmarkt", "lat": "47.98333", "lng": "13.41667"}, {"country": "AT", "name": "Frankenfels", "lat": "47.98234", "lng": "15.32593"}, {"country": "AT", "name": "Frankenburg", "lat": "48.06844", "lng": "13.49065"}, {"country": "AT", "name": "Forstau", "lat": "47.37842", "lng": "13.55558"}, {"country": "AT", "name": "Fornach", "lat": "48.02277", "lng": "13.42941"}, {"country": "AT", "name": "Forchach", "lat": "47.41667", "lng": "10.58333"}, {"country": "AT", "name": "Fohnsdorf", "lat": "47.2", "lng": "14.68333"}, {"country": "AT", "name": "Floing", "lat": "47.26356", "lng": "15.7465"}, {"country": "AT", "name": "Flirsch", "lat": "47.15", "lng": "10.4"}, {"country": "AT", "name": "Flaurling", "lat": "47.29143", "lng": "11.12319"}, {"country": "AT", "name": "Flattach", "lat": "46.93861", "lng": "13.13444"}, {"country": "AT", "name": "Flatschach", "lat": "47.21667", "lng": "14.75"}, {"country": "AT", "name": "Fladnitz im Raabtal", "lat": "46.99167", "lng": "15.78528"}, {"country": "AT", "name": "Flachau", "lat": "47.34406", "lng": "13.39148"}, {"country": "AT", "name": "Fiss", "lat": "47.05714", "lng": "10.61747"}, {"country": "AT", "name": "Fischbach", "lat": "47.44234", "lng": "15.64972"}, {"country": "AT", "name": "Fischamend Dorf", "lat": "48.11884", "lng": "16.61287"}, {"country": "AT", "name": "Filzmoos", "lat": "47.43333", "lng": "13.51667"}, {"country": "AT", "name": "Fieberbrunn", "lat": "47.47626", "lng": "12.54347"}, {"country": "AT", "name": "Ferschnitz", "lat": "48.09419", "lng": "14.98454"}, {"country": "AT", "name": "Fernitz", "lat": "46.97389", "lng": "15.50111"}, {"country": "AT", "name": "Ferndorf", "lat": "46.73651", "lng": "13.62661"}, {"country": "AT", "name": "Ferlach", "lat": "46.52694", "lng": "14.30194"}, {"country": "AT", "name": "Fendels", "lat": "47.0539", "lng": "10.67777"}, {"country": "AT", "name": "Fels am Wagram", "lat": "48.43333", "lng": "15.81667"}, {"country": "AT", "name": "Felixdorf", "lat": "47.88159", "lng": "16.24208"}, {"country": "AT", "name": "Feldkirchen in K\u00e4rnten", "lat": "46.72368", "lng": "14.0958"}, {"country": "AT", "name": "Feldkirchen bei Graz", "lat": "47.01667", "lng": "15.45"}, {"country": "AT", "name": "Feldkirchen an der Donau", "lat": "48.34524", "lng": "14.05134"}, {"country": "AT", "name": "Feldkirch", "lat": "47.23306", "lng": "9.6"}, {"country": "AT", "name": "Feldbach", "lat": "46.95306", "lng": "15.88833"}, {"country": "AT", "name": "Feld am See", "lat": "46.77639", "lng": "13.74778"}, {"country": "AT", "name": "Feistritz ob Bleiburg", "lat": "46.55", "lng": "14.76667"}, {"country": "AT", "name": "Feistritz im Rosental", "lat": "46.51667", "lng": "14.16667"}, {"country": "AT", "name": "Feistritz bei Knittelfeld", "lat": "47.26802", "lng": "14.89334"}, {"country": "AT", "name": "Feistritz an der Gail", "lat": "46.5775", "lng": "13.60667"}, {"country": "AT", "name": "Feistritz am Wechsel", "lat": "47.6", "lng": "16.05"}, {"country": "AT", "name": "Fehring", "lat": "46.94", "lng": "16.00806"}, {"country": "AT", "name": "Fallbach", "lat": "48.65", "lng": "16.41667"}, {"country": "AT", "name": "Falkenstein", "lat": "48.71667", "lng": "16.58333"}, {"country": "AT", "name": "Faistenau", "lat": "47.77767", "lng": "13.23393"}, {"country": "AT", "name": "Finkenstein am Faaker See", "lat": "46.57904", "lng": "13.93496"}, {"country": "AT", "name": "Frauenstein", "lat": "46.81417", "lng": "14.29417"}, {"country": "AT", "name": "Fresen", "lat": "46.70516", "lng": "14.04513"}, {"country": "AU", "name": "Fremantle", "lat": "-32.05632", "lng": "115.74557"}, {"country": "AU", "name": "Freeling", "lat": "-34.45407", "lng": "138.80868"}, {"country": "AU", "name": "Findon", "lat": "-34.9", "lng": "138.53333"}, {"country": "AU", "name": "Fannie Bay", "lat": "-12.42275", "lng": "130.83627"}, {"country": "AU", "name": "Frederickton", "lat": "-31.03749", "lng": "152.8753"}, {"country": "AU", "name": "Frankston East", "lat": "-38.13333", "lng": "145.13333"}, {"country": "AU", "name": "Frankston", "lat": "-38.14458", "lng": "145.12291"}, {"country": "AU", "name": "Franklin", "lat": "-43.08884", "lng": "147.00906"}, {"country": "AU", "name": "Forster", "lat": "-32.18136", "lng": "152.51715"}, {"country": "AU", "name": "Forest Hill", "lat": "-35.1481", "lng": "147.46707"}, {"country": "AU", "name": "Forest Hill", "lat": "-37.83333", "lng": "145.18333"}, {"country": "AU", "name": "Forbes", "lat": "-33.38436", "lng": "148.0076"}, {"country": "AU", "name": "Footscray", "lat": "-37.8", "lng": "144.9"}, {"country": "AU", "name": "Fitzroy", "lat": "-37.79839", "lng": "144.97833"}, {"country": "AU", "name": "Finley", "lat": "-35.65498", "lng": "145.57106"}, {"country": "AU", "name": "Ferny Creek", "lat": "-37.88333", "lng": "145.33333"}, {"country": "AU", "name": "Federal", "lat": "-28.6485", "lng": "153.4512"}, {"country": "AU", "name": "Fawkner", "lat": "-37.71667", "lng": "144.96667"}, {"country": "AU", "name": "Falls Creek", "lat": "-34.96667", "lng": "150.6"}, {"country": "AU", "name": "Fairfield", "lat": "-33.86667", "lng": "150.95"}, {"country": "AU", "name": "Fairy Meadow", "lat": "-34.39303", "lng": "150.89275"}, {"country": "AU", "name": "Forestville", "lat": "-33.76667", "lng": "151.20833"}, {"country": "AU", "name": "Flinders", "lat": "-34.58333", "lng": "150.85516"}, {"country": "AU", "name": "Freshwater", "lat": "-33.77867", "lng": "151.28569"}, {"country": "AU", "name": "Fortitude Valley", "lat": "-27.45706", "lng": "153.03178"}, {"country": "AU", "name": "Forresters Beach", "lat": "-33.407", "lng": "151.476"}, {"country": "AU", "name": "Ferntree Gully", "lat": "-37.88461", "lng": "145.29539"}, {"country": "AU", "name": "Fullarton", "lat": "-34.951", "lng": "138.629"}, {"country": "AU", "name": "Flinders View", "lat": "-27.65046", "lng": "152.77451"}, {"country": "AU", "name": "Forrest", "lat": "-35.31499", "lng": "149.12859"}, {"country": "AU", "name": "Forest Lake", "lat": "-27.62563", "lng": "152.96883"}, {"country": "AU", "name": "Ferny Hills", "lat": "-27.39594", "lng": "152.93737"}, {"country": "AU", "name": "Flemington", "lat": "-37.78825", "lng": "144.93001"}, {"country": "AU", "name": "Fairfield", "lat": "-37.77977", "lng": "145.01764"}, {"country": "AU", "name": "Frankston North", "lat": "-38.12352", "lng": "145.14836"}, {"country": "AU", "name": "Frankston South", "lat": "-38.16604", "lng": "145.13643"}, {"country": "AU", "name": "Fairfield East", "lat": "-33.86938", "lng": "150.97129"}, {"country": "AU", "name": "Fairfield Heights", "lat": "-33.86445", "lng": "150.93884"}, {"country": "AU", "name": "Fairlight", "lat": "-33.79575", "lng": "151.27346"}, {"country": "AU", "name": "Forestville", "lat": "-34.94946", "lng": "138.57845"}, {"country": "AU", "name": "Ferndale", "lat": "-32.03494", "lng": "115.92233"}, {"country": "AU", "name": "Fennell Bay", "lat": "-32.9922", "lng": "151.60008"}, {"country": "AU", "name": "Floraville", "lat": "-33.01116", "lng": "151.6648"}, {"country": "AX", "name": "F\u00f6gl\u00f6", "lat": "60.01667", "lng": "20.41667"}, {"country": "AX", "name": "Finstr\u00f6m", "lat": "60.26667", "lng": "19.93333"}, {"country": "AZ", "name": "Fizuli", "lat": "39.60094", "lng": "47.14529"}, {"country": "AZ", "name": "Faldarl\u0131", "lat": "41.46868", "lng": "46.51579"}, {"country": "BA", "name": "Fojnica", "lat": "43.95952", "lng": "17.90288"}, {"country": "BA", "name": "Fo\u010da", "lat": "43.50646", "lng": "18.77854"}, {"country": "BB", "name": "Four Cross Roads", "lat": "13.17018", "lng": "-59.52186"}, {"country": "BD", "name": "Feni", "lat": "23.0144", "lng": "91.3966"}, {"country": "BD", "name": "Far\u012bdpur", "lat": "23.60612", "lng": "89.84064"}, {"country": "BE", "name": "Froidchapelle", "lat": "50.15106", "lng": "4.32742"}, {"country": "BE", "name": "Frasnes-lez-Buissenal", "lat": "50.66783", "lng": "3.62047"}, {"country": "BE", "name": "Frameries", "lat": "50.40578", "lng": "3.89603"}, {"country": "BE", "name": "Fosses-la-Ville", "lat": "50.39517", "lng": "4.69623"}, {"country": "BE", "name": "Forville", "lat": "50.57424", "lng": "4.99861"}, {"country": "BE", "name": "Florenville", "lat": "49.69983", "lng": "5.3074"}, {"country": "BE", "name": "Florennes", "lat": "50.25127", "lng": "4.60636"}, {"country": "BE", "name": "Floreffe", "lat": "50.43452", "lng": "4.7596"}, {"country": "BE", "name": "Flobecq", "lat": "50.73733", "lng": "3.73876"}, {"country": "BE", "name": "Fleurus", "lat": "50.48351", "lng": "4.55006"}, {"country": "BE", "name": "Fl\u00e9ron", "lat": "50.61516", "lng": "5.68062"}, {"country": "BE", "name": "Fl\u00e9malle-Haute", "lat": "50.59994", "lng": "5.44471"}, {"country": "BE", "name": "Fexhe-le-Haut-Clocher", "lat": "50.6654", "lng": "5.39978"}, {"country": "BE", "name": "Ferri\u00e8res", "lat": "50.40157", "lng": "5.61092"}, {"country": "BE", "name": "Fauvillers", "lat": "49.85116", "lng": "5.66405"}, {"country": "BE", "name": "Farciennes", "lat": "50.43006", "lng": "4.54152"}, {"country": "BE", "name": "Faimes", "lat": "50.66252", "lng": "5.26005"}, {"country": "BF", "name": "Fada N'gourma", "lat": "12.06157", "lng": "0.35843"}, {"country": "BR", "name": "Fortuna", "lat": "-5.73333", "lng": "-44.15833"}, {"country": "BR", "name": "Fortaleza", "lat": "-3.71722", "lng": "-38.54306"}, {"country": "BR", "name": "Forquilha", "lat": "-3.79833", "lng": "-40.26056"}, {"country": "BR", "name": "Floriano", "lat": "-6.76694", "lng": "-43.0225"}, {"country": "BR", "name": "Floresta", "lat": "-8.60111", "lng": "-38.56861"}, {"country": "BR", "name": "Flores", "lat": "-7.86806", "lng": "-37.97472"}, {"country": "BR", "name": "Flexeiras", "lat": "-9.1975", "lng": "-35.78083"}, {"country": "BR", "name": "Feira Nova", "lat": "-7.95083", "lng": "-35.38917"}, {"country": "BR", "name": "Farias Brito", "lat": "-6.93056", "lng": "-39.56556"}, {"country": "BR", "name": "Fagundes", "lat": "-7.355", "lng": "-35.775"}, {"country": "BR", "name": "Fund\u00e3o", "lat": "-19.93408", "lng": "-40.40473"}, {"country": "BR", "name": "Frutal", "lat": "-20.02472", "lng": "-48.94056"}, {"country": "BR", "name": "Frei Paulo", "lat": "-10.54944", "lng": "-37.53444"}, {"country": "BR", "name": "Frederico Westphalen", "lat": "-27.35917", "lng": "-53.39444"}, {"country": "BR", "name": "Franco da Rocha", "lat": "-23.32167", "lng": "-46.72694"}, {"country": "BR", "name": "Francisco S\u00e1", "lat": "-16.47583", "lng": "-43.48833"}, {"country": "BR", "name": "Francisco Morato", "lat": "-23.28167", "lng": "-46.74528"}, {"country": "BR", "name": "Francisco Beltr\u00e3o", "lat": "-26.08111", "lng": "-53.055"}, {"country": "BR", "name": "Franca", "lat": "-20.53861", "lng": "-47.40083"}, {"country": "BR", "name": "Foz do Igua\u00e7u", "lat": "-25.54778", "lng": "-54.58806"}, {"country": "BR", "name": "Forquilhinha", "lat": "-28.7475", "lng": "-49.47222"}, {"country": "BR", "name": "Formosa do Rio Preto", "lat": "-11.04833", "lng": "-45.19306"}, {"country": "BR", "name": "Formosa", "lat": "-15.53722", "lng": "-47.33444"}, {"country": "BR", "name": "Formiga", "lat": "-20.46444", "lng": "-45.42639"}, {"country": "BR", "name": "Florian\u00f3polis", "lat": "-27.59667", "lng": "-48.54917"}, {"country": "BR", "name": "Florest\u00f3polis", "lat": "-22.86333", "lng": "-51.38722"}, {"country": "BR", "name": "Flores da Cunha", "lat": "-29.02889", "lng": "-51.18167"}, {"country": "BR", "name": "Firmin\u00f3polis", "lat": "-16.58194", "lng": "-50.305"}, {"country": "BR", "name": "Ferraz de Vasconcelos", "lat": "-23.54083", "lng": "-46.36861"}, {"country": "BR", "name": "Fernand\u00f3polis", "lat": "-20.28389", "lng": "-50.24639"}, {"country": "BR", "name": "Feira de Santana", "lat": "-12.26667", "lng": "-38.96667"}, {"country": "BR", "name": "Faxinal", "lat": "-24.00028", "lng": "-51.31944"}, {"country": "BR", "name": "Fartura", "lat": "-23.38833", "lng": "-49.51"}, {"country": "BR", "name": "Farroupilha", "lat": "-29.225", "lng": "-51.34778"}, {"country": "BR", "name": "Fonte Boa", "lat": "-2.51389", "lng": "-66.09167"}, {"country": "BR", "name": "Feij\u00f3", "lat": "-8.1654", "lng": "-70.35486"}, {"country": "BR", "name": "Fernando de Noronha (Distrito Estadual)", "lat": "-3.84028", "lng": "-32.41083"}, {"country": "BR", "name": "Freguesia do Ribeirao da Ilha", "lat": "-27.71773", "lng": "-48.56266"}, {"country": "BS", "name": "Freeport", "lat": "26.53333", "lng": "-78.7"}, {"country": "BW", "name": "Francistown", "lat": "-21.17", "lng": "27.50778"}, {"country": "BY", "name": "Fanipol", "lat": "53.74998", "lng": "27.33338"}, {"country": "CA", "name": "Fairview", "lat": "56.06675", "lng": "-118.38606"}, {"country": "CA", "name": "Falher", "lat": "55.73339", "lng": "-117.20262"}, {"country": "CA", "name": "Fall River", "lat": "44.81685", "lng": "-63.6154"}, {"country": "CA", "name": "Farnham", "lat": "45.28338", "lng": "-72.98244"}, {"country": "CA", "name": "Ferme-Neuve", "lat": "46.70011", "lng": "-75.44929"}, {"country": "CA", "name": "Fermont", "lat": "52.78345", "lng": "-67.08204"}, {"country": "CA", "name": "Fernie", "lat": "49.49996", "lng": "-115.06871"}, {"country": "CA", "name": "Flin Flon", "lat": "54.76703", "lng": "-101.87433"}, {"country": "CA", "name": "Foam Lake", "lat": "51.65001", "lng": "-103.53431"}, {"country": "CA", "name": "Fort-Coulonge", "lat": "45.85011", "lng": "-76.73272"}, {"country": "CA", "name": "Fort Erie", "lat": "42.90012", "lng": "-78.93286"}, {"country": "CA", "name": "Fort Frances", "lat": "48.61667", "lng": "-93.4003"}, {"country": "CA", "name": "Fort Macleod", "lat": "49.71671", "lng": "-113.41857"}, {"country": "CA", "name": "Fort McMurray", "lat": "56.72676", "lng": "-111.38103"}, {"country": "CA", "name": "Fort McPherson", "lat": "67.43863", "lng": "-134.88543"}, {"country": "CA", "name": "Fort Nelson", "lat": "58.80533", "lng": "-122.7002"}, {"country": "CA", "name": "Fort Saskatchewan", "lat": "53.71684", "lng": "-113.2187"}, {"country": "CA", "name": "Fort Smith", "lat": "60.00439", "lng": "-111.88871"}, {"country": "CA", "name": "Fort St. John", "lat": "56.24988", "lng": "-120.85292"}, {"country": "CA", "name": "Fox Creek", "lat": "54.40007", "lng": "-116.80238"}, {"country": "CA", "name": "Franklin", "lat": "45.03338", "lng": "-73.91591"}, {"country": "CA", "name": "Fredericton", "lat": "45.94541", "lng": "-66.66558"}, {"country": "CA", "name": "Fruitvale", "lat": "49.11654", "lng": "-117.55222"}, {"country": "CA", "name": "Forestville", "lat": "48.73808", "lng": "-69.08478"}, {"country": "CA", "name": "Fossambault-sur-lac", "lat": "46.87662", "lng": "-71.61541"}, {"country": "CA", "name": "Florenceville-Bristol", "lat": "46.44353", "lng": "-67.61536"}, {"country": "CA", "name": "Fogo Island", "lat": "49.71649", "lng": "-54.16981"}, {"country": "CH", "name": "Fully", "lat": "46.13851", "lng": "7.11468"}, {"country": "CH", "name": "F\u00fcllinsdorf", "lat": "47.50688", "lng": "7.73129"}, {"country": "CH", "name": "Fulenbach", "lat": "47.27103", "lng": "7.83136"}, {"country": "CH", "name": "Frutigen", "lat": "46.58723", "lng": "7.64945"}, {"country": "CH", "name": "Froideville", "lat": "46.60123", "lng": "6.68085"}, {"country": "CH", "name": "Frick", "lat": "47.51169", "lng": "8.02471"}, {"country": "CH", "name": "Fribourg", "lat": "46.80237", "lng": "7.15128"}, {"country": "CH", "name": "Frenkendorf", "lat": "47.50686", "lng": "7.71648"}, {"country": "CH", "name": "Freienbach", "lat": "47.20534", "lng": "8.75842"}, {"country": "CH", "name": "Frauenkappelen", "lat": "46.95425", "lng": "7.33835"}, {"country": "CH", "name": "Frauenfeld", "lat": "47.55776", "lng": "8.89893"}, {"country": "CH", "name": "Fraubrunnen", "lat": "47.0862", "lng": "7.52727"}, {"country": "CH", "name": "Founex", "lat": "46.33277", "lng": "6.19243"}, {"country": "CH", "name": "Fontenais", "lat": "47.40292", "lng": "7.08108"}, {"country": "CH", "name": "Fontainemelon", "lat": "47.05495", "lng": "6.8868"}, {"country": "CH", "name": "Flurlingen", "lat": "47.6839", "lng": "8.62995"}, {"country": "CH", "name": "Flums", "lat": "47.09058", "lng": "9.34301"}, {"country": "CH", "name": "Fl\u00fchli", "lat": "46.88391", "lng": "8.01558"}, {"country": "CH", "name": "Fl\u00fcelen", "lat": "46.90478", "lng": "8.62396"}, {"country": "CH", "name": "Flims", "lat": "46.83705", "lng": "9.28458"}, {"country": "CH", "name": "Fleurier", "lat": "46.90224", "lng": "6.58253"}, {"country": "CH", "name": "Flawil", "lat": "47.41301", "lng": "9.18324"}, {"country": "CH", "name": "Flamatt", "lat": "46.88994", "lng": "7.32204"}, {"country": "CH", "name": "Fischingen", "lat": "47.41422", "lng": "8.96862"}, {"country": "CH", "name": "Fiesch", "lat": "46.39981", "lng": "8.13533"}, {"country": "CH", "name": "Feusisberg", "lat": "47.18707", "lng": "8.74724"}, {"country": "CH", "name": "Feuerthalen", "lat": "47.69054", "lng": "8.64357"}, {"country": "CH", "name": "Ferenbalm", "lat": "46.9488", "lng": "7.21124"}, {"country": "CH", "name": "Felsberg", "lat": "46.84566", "lng": "9.47588"}, {"country": "CH", "name": "Feldmeilen", "lat": "47.27873", "lng": "8.62165"}, {"country": "CH", "name": "Fehraltorf", "lat": "47.38775", "lng": "8.75149"}, {"country": "CH", "name": "F\u00e4llanden", "lat": "47.37169", "lng": "8.63869"}, {"country": "CH", "name": "Faido", "lat": "46.477", "lng": "8.80125"}, {"country": "CH", "name": "Freienstein", "lat": "47.53307", "lng": "8.58455"}, {"country": "CH", "name": "Ferreyres", "lat": "46.65804", "lng": "6.4852"}, {"country": "CI", "name": "Fresco", "lat": "5.08226", "lng": "-5.56938"}, {"country": "CI", "name": "Ferkess\u00e9dougou", "lat": "9.5928", "lng": "-5.19449"}, {"country": "CI", "name": "Facobly", "lat": "7.3883", "lng": "-7.37644"}, {"country": "CL", "name": "Futaleuf\u00fa", "lat": "-43.18492", "lng": "-71.86722"}, {"country": "CL", "name": "Frutillar", "lat": "-41.12676", "lng": "-73.04372"}, {"country": "CL", "name": "Freire", "lat": "-38.95252", "lng": "-72.62653"}, {"country": "CM", "name": "Fundong", "lat": "6.25", "lng": "10.26667"}, {"country": "CM", "name": "Foumbot", "lat": "5.50803", "lng": "10.6325"}, {"country": "CM", "name": "Foumban", "lat": "5.72662", "lng": "10.89865"}, {"country": "CM", "name": "Fontem", "lat": "5.4685", "lng": "9.8818"}, {"country": "CN", "name": "Fengshan", "lat": "24.58333", "lng": "99.9"}, {"country": "CN", "name": "Funan Chengguanzhen", "lat": "32.63678", "lng": "115.61494"}, {"country": "CN", "name": "Feicheng", "lat": "36.24861", "lng": "116.76583"}, {"country": "CN", "name": "Fengzhou", "lat": "36.84278", "lng": "112.85417"}, {"country": "CN", "name": "Fengcheng", "lat": "37.43278", "lng": "112.02333"}, {"country": "CN", "name": "Fuding", "lat": "27.32734", "lng": "120.21399"}, {"country": "CN", "name": "Fuyu", "lat": "30.15", "lng": "116.11667"}, {"country": "CN", "name": "Fuqing", "lat": "25.725", "lng": "119.37944"}, {"country": "CN", "name": "Fenghuang", "lat": "38.9978", "lng": "112.29779"}, {"country": "CN", "name": "Fucheng", "lat": "35.3725", "lng": "103.70556"}, {"country": "CN", "name": "Fuzhuang", "lat": "39.26611", "lng": "117.93444"}, {"country": "CN", "name": "Fuzhou", "lat": "26.06139", "lng": "119.30611"}, {"country": "CN", "name": "Fuyang", "lat": "32.9", "lng": "115.81667"}, {"country": "CN", "name": "Fuyang", "lat": "30.05333", "lng": "119.95194"}, {"country": "CN", "name": "Fuyang", "lat": "24.83441", "lng": "111.25802"}, {"country": "CN", "name": "Furong", "lat": "26.45", "lng": "114.76667"}, {"country": "CN", "name": "Fuling", "lat": "29.706", "lng": "107.39575"}, {"country": "CN", "name": "Fuliang", "lat": "29.37639", "lng": "117.24667"}, {"country": "CN", "name": "Fushi", "lat": "29.18382", "lng": "105.00114"}, {"country": "CN", "name": "Fuji", "lat": "29.14819", "lng": "105.37391"}, {"country": "CN", "name": "Fugou Chengguanzhen", "lat": "34.06667", "lng": "114.38333"}, {"country": "CN", "name": "Fufeng", "lat": "34.36051", "lng": "107.87348"}, {"country": "CN", "name": "Fucheng", "lat": "37.86913", "lng": "116.15058"}, {"country": "CN", "name": "Fubao", "lat": "28.76905", "lng": "106.07667"}, {"country": "CN", "name": "Foshan", "lat": "23.02677", "lng": "113.13148"}, {"country": "CN", "name": "Fenyi", "lat": "27.81117", "lng": "114.66805"}, {"country": "CN", "name": "Fengzhou", "lat": "24.95762", "lng": "118.53365"}, {"country": "CN", "name": "Fengyi", "lat": "31.68412", "lng": "103.85382"}, {"country": "CN", "name": "Fengyi", "lat": "28.5537", "lng": "107.439"}, {"country": "CN", "name": "Fengyang Fuchengzhen", "lat": "32.87969", "lng": "117.54465"}, {"country": "CN", "name": "Fengxian", "lat": "34.70388", "lng": "116.58717"}, {"country": "CN", "name": "Fengtai", "lat": "39.55806", "lng": "117.74917"}, {"country": "CN", "name": "Fengtai", "lat": "39.84757", "lng": "116.27227"}, {"country": "CN", "name": "Fengtai Chengguanzhen", "lat": "32.70825", "lng": "116.72956"}, {"country": "CN", "name": "Fengshan", "lat": "30.88712", "lng": "115.42091"}, {"country": "CN", "name": "Fengshan", "lat": "26.48556", "lng": "119.54917"}, {"country": "CN", "name": "Fengcheng", "lat": "24.57117", "lng": "107.04243"}, {"country": "CN", "name": "Fengrun", "lat": "39.83333", "lng": "118.11667"}, {"country": "CN", "name": "Fengqiu Chengguanzhen", "lat": "35.02917", "lng": "114.41306"}, {"country": "CN", "name": "Fengpu", "lat": "26.68276", "lng": "118.76006"}, {"country": "CN", "name": "Fengming", "lat": "34.44139", "lng": "107.61778"}, {"country": "CN", "name": "Fenglu", "lat": "24.67652", "lng": "102.91129"}, {"country": "CN", "name": "Fengkou", "lat": "30.08268", "lng": "113.33346"}, {"country": "CN", "name": "Fenggang", "lat": "27.54566", "lng": "116.21456"}, {"country": "CN", "name": "Fengchuan", "lat": "28.7", "lng": "115.38333"}, {"country": "CN", "name": "Fengcheng", "lat": "26.19722", "lng": "119.53917"}, {"country": "CN", "name": "Fengcheng", "lat": "25.05697", "lng": "118.1829"}, {"country": "CN", "name": "Fengcheng", "lat": "24.72365", "lng": "116.72429"}, {"country": "CN", "name": "Feicheng", "lat": "35.26056", "lng": "117.9675"}, {"country": "CN", "name": "Feiluan", "lat": "26.5625", "lng": "119.5975"}, {"country": "CN", "name": "Fanshi", "lat": "39.18992", "lng": "113.26401"}, {"country": "CN", "name": "Fanzhuang", "lat": "39.19361", "lng": "117.335"}, {"country": "CN", "name": "Fangxian Chengguanzhen", "lat": "32.055", "lng": "110.73417"}, {"country": "CN", "name": "Fangting", "lat": "31.12766", "lng": "104.16649"}, {"country": "CN", "name": "Fangshan", "lat": "39.68699", "lng": "115.99658"}, {"country": "CN", "name": "Fangjiazhuang", "lat": "39.72972", "lng": "117.42056"}, {"country": "CN", "name": "Fangcheng Chengguanzhen", "lat": "33.25322", "lng": "113.0012"}, {"country": "CN", "name": "Fanyang", "lat": "31.08471", "lng": "118.19425"}, {"country": "CN", "name": "Fenghua", "lat": "29.65628", "lng": "121.4064"}, {"country": "CN", "name": "Fucheng", "lat": "36.14684", "lng": "112.23351"}, {"country": "CN", "name": "Fulilu", "lat": "36.10168", "lng": "103.61573"}, {"country": "CN", "name": "Fendou", "lat": "46.64142", "lng": "124.86283"}, {"country": "CN", "name": "Fendou", "lat": "47.40955", "lng": "129.42822"}, {"country": "CN", "name": "Fendou", "lat": "45.21235", "lng": "130.90254"}, {"country": "CN", "name": "Fuyuan", "lat": "48.36306", "lng": "134.28917"}, {"country": "CN", "name": "Fuyu", "lat": "47.79756", "lng": "124.45731"}, {"country": "CN", "name": "Fuyu", "lat": "45.18333", "lng": "124.81667"}, {"country": "CN", "name": "Fuxin", "lat": "42.05889", "lng": "121.745"}, {"country": "CN", "name": "Fuxin", "lat": "42.01556", "lng": "121.65889"}, {"country": "CN", "name": "Fusong", "lat": "42.32505", "lng": "127.27265"}, {"country": "CN", "name": "Fushun", "lat": "41.88669", "lng": "123.94363"}, {"country": "CN", "name": "Fuli", "lat": "46.72167", "lng": "131.13944"}, {"country": "CN", "name": "Fujin", "lat": "47.26", "lng": "132.03222"}, {"country": "CN", "name": "Fengxiang", "lat": "47.57549", "lng": "130.82306"}, {"country": "CN", "name": "Fengcheng", "lat": "40.45361", "lng": "124.07167"}, {"country": "CN", "name": "Fangzheng", "lat": "45.83881", "lng": "128.82757"}, {"country": "CN", "name": "Fenghuang", "lat": "27.93557", "lng": "109.59961"}, {"country": "CN", "name": "Fengxiang Chengguanzhen", "lat": "34.52301", "lng": "107.39127"}, {"country": "CN", "name": "Fangsong", "lat": "31.03285", "lng": "121.18943"}, {"country": "CN", "name": "Fuying", "lat": "28.8626", "lng": "120.7193"}, {"country": "CN", "name": "Fengcheng", "lat": "29.82811", "lng": "107.06379"}, {"country": "CN", "name": "Furong Beilu", "lat": "28.23707", "lng": "112.98076"}, {"country": "CN", "name": "Fan Xian Chengguanzhen", "lat": "35.85813", "lng": "115.50056"}, {"country": "CO", "name": "Francisco Pizarro", "lat": "2.10194", "lng": "-78.72167"}, {"country": "CO", "name": "Fusagasuga", "lat": "4.33646", "lng": "-74.36378"}, {"country": "CO", "name": "Funza", "lat": "4.71638", "lng": "-74.21195"}, {"country": "CO", "name": "Funes", "lat": "1.00266", "lng": "-77.45067"}, {"country": "CO", "name": "Fundaci\u00f3n", "lat": "10.52066", "lng": "-74.18504"}, {"country": "CO", "name": "Fuente de Oro", "lat": "3.46263", "lng": "-73.62162"}, {"country": "CO", "name": "Frontino", "lat": "6.77133", "lng": "-76.13324"}, {"country": "CO", "name": "Fresno", "lat": "5.15264", "lng": "-75.03624"}, {"country": "CO", "name": "Fosca", "lat": "4.33916", "lng": "-73.93852"}, {"country": "CO", "name": "Fortoul", "lat": "6.79261", "lng": "-71.77596"}, {"country": "CO", "name": "Fonseca", "lat": "10.88606", "lng": "-72.8487"}, {"country": "CO", "name": "F\u00f3meque", "lat": "4.48797", "lng": "-73.89749"}, {"country": "CO", "name": "Floridablanca", "lat": "7.06222", "lng": "-73.08644"}, {"country": "CO", "name": "Florida", "lat": "3.3223", "lng": "-76.2348"}, {"country": "CO", "name": "Flori\u00e1n", "lat": "5.80487", "lng": "-73.97029"}, {"country": "CO", "name": "Floresta", "lat": "5.85903", "lng": "-72.91882"}, {"country": "CO", "name": "Florencia", "lat": "1.68318", "lng": "-77.07331"}, {"country": "CO", "name": "Florencia", "lat": "1.61438", "lng": "-75.60623"}, {"country": "CO", "name": "Flandes", "lat": "4.29005", "lng": "-74.81612"}, {"country": "CO", "name": "Firavitoba", "lat": "5.66885", "lng": "-72.99289"}, {"country": "CO", "name": "Filandia", "lat": "4.67472", "lng": "-75.65833"}, {"country": "CO", "name": "Filadelfia", "lat": "5.29606", "lng": "-75.5612"}, {"country": "CO", "name": "Falan", "lat": "5.11564", "lng": "-74.94894"}, {"country": "CO", "name": "Facatativ\u00e1", "lat": "4.81367", "lng": "-74.35453"}, {"country": "CO", "name": "Fredonia", "lat": "5.92583", "lng": "-75.67056"}, {"country": "CR", "name": "Fortuna", "lat": "10.67384", "lng": "-85.19984"}, {"country": "CU", "name": "Fomento", "lat": "22.10475", "lng": "-79.72141"}, {"country": "CU", "name": "Florida", "lat": "21.52536", "lng": "-78.22579"}, {"country": "CU", "name": "Florencia", "lat": "22.1461", "lng": "-78.97328"}, {"country": "CX", "name": "Flying Fish Cove", "lat": "-10.42172", "lng": "105.67912"}, {"country": "CY", "name": "Fr\u00e9naros", "lat": "35.04121", "lng": "33.92242"}, {"country": "CY", "name": "Famagusta", "lat": "35.12054", "lng": "33.93894"}, {"country": "CZ", "name": "Fulnek", "lat": "49.71238", "lng": "17.90319"}, {"country": "CZ", "name": "Fry\u0161t\u00e1k", "lat": "49.2852", "lng": "17.68346"}, {"country": "CZ", "name": "Frymburk", "lat": "48.66094", "lng": "14.16564"}, {"country": "CZ", "name": "Fr\u00fddlant nad Ostravic\u00ed", "lat": "49.5928", "lng": "18.35967"}, {"country": "CZ", "name": "Fr\u00fddlant", "lat": "50.92139", "lng": "15.07974"}, {"country": "CZ", "name": "Fr\u00fddek-M\u00edstek", "lat": "49.68333", "lng": "18.35"}, {"country": "CZ", "name": "Fry\u010dovice", "lat": "49.66677", "lng": "18.22321"}, {"country": "CZ", "name": "Fren\u0161t\u00e1t pod Radho\u0161t\u011bm", "lat": "49.54835", "lng": "18.21078"}, {"country": "CZ", "name": "Franti\u0161kovy L\u00e1zn\u011b", "lat": "50.12033", "lng": "12.35174"}, {"country": "CZ", "name": "Francova Lhota", "lat": "49.20174", "lng": "18.11175"}, {"country": "DE", "name": "Fu\u00dfg\u00f6nheim", "lat": "49.46111", "lng": "8.29222"}, {"country": "DE", "name": "F\u00fcssen", "lat": "47.57143", "lng": "10.70171"}, {"country": "DE", "name": "Furtwangen im Schwarzwald", "lat": "48.05156", "lng": "8.20715"}, {"country": "DE", "name": "Furth im Wald", "lat": "49.30955", "lng": "12.84156"}, {"country": "DE", "name": "F\u00fcrthen", "lat": "50.78333", "lng": "7.66667"}, {"country": "DE", "name": "F\u00fcrth", "lat": "49.65083", "lng": "8.78472"}, {"country": "DE", "name": "F\u00fcrth", "lat": "49.47593", "lng": "10.98856"}, {"country": "DE", "name": "Furth", "lat": "48.40616", "lng": "12.38121"}, {"country": "DE", "name": "F\u00fcrstenzell", "lat": "48.52163", "lng": "13.31749"}, {"country": "DE", "name": "F\u00fcrstenwalde", "lat": "52.36067", "lng": "14.06185"}, {"country": "DE", "name": "F\u00fcrstenstein", "lat": "48.71667", "lng": "13.33333"}, {"country": "DE", "name": "F\u00fcrstenhausen", "lat": "49.24075", "lng": "6.86817"}, {"country": "DE", "name": "F\u00fcrstenfeldbruck", "lat": "48.17904", "lng": "11.2547"}, {"country": "DE", "name": "F\u00fcrsteneck", "lat": "48.71667", "lng": "13.46667"}, {"country": "DE", "name": "F\u00fcrstenberg", "lat": "53.18427", "lng": "13.14442"}, {"country": "DE", "name": "F\u00fcrstenberg", "lat": "51.73333", "lng": "9.4"}, {"country": "DE", "name": "F\u00fcrstenau", "lat": "52.51667", "lng": "7.6767"}, {"country": "DE", "name": "F\u00fcrfeld", "lat": "49.77737", "lng": "7.89264"}, {"country": "DE", "name": "F\u00fcnfstetten", "lat": "48.83215", "lng": "10.7654"}, {"country": "DE", "name": "Fuldatal", "lat": "51.38333", "lng": "9.56667"}, {"country": "DE", "name": "Fulda", "lat": "50.55162", "lng": "9.67518"}, {"country": "DE", "name": "Fuhlsb\u00fcttel", "lat": "53.63459", "lng": "10.01608"}, {"country": "DE", "name": "Fuchsstadt", "lat": "50.10825", "lng": "9.9337"}, {"country": "DE", "name": "Fuchsm\u00fchl", "lat": "49.92265", "lng": "12.14582"}, {"country": "DE", "name": "Frose", "lat": "51.79581", "lng": "11.37914"}, {"country": "DE", "name": "Frontenhausen", "lat": "48.54628", "lng": "12.53118"}, {"country": "DE", "name": "Fronhausen", "lat": "50.7", "lng": "8.7"}, {"country": "DE", "name": "Fr\u00f6ndenberg", "lat": "51.47563", "lng": "7.76946"}, {"country": "DE", "name": "Frohnau", "lat": "52.63336", "lng": "13.29024"}, {"country": "DE", "name": "Frohburg", "lat": "51.05719", "lng": "12.55746"}, {"country": "DE", "name": "Fritzlar", "lat": "51.13181", "lng": "9.27557"}, {"country": "DE", "name": "Frittlingen", "lat": "48.12709", "lng": "8.70774"}, {"country": "DE", "name": "Friolzheim", "lat": "48.83333", "lng": "8.83333"}, {"country": "DE", "name": "Friesoythe", "lat": "53.0226", "lng": "7.85764"}, {"country": "DE", "name": "Friesenried", "lat": "47.87477", "lng": "10.53464"}, {"country": "DE", "name": "Friesenhagen", "lat": "50.90377", "lng": "7.80961"}, {"country": "DE", "name": "Friesack", "lat": "52.73764", "lng": "12.57969"}, {"country": "DE", "name": "Friemar", "lat": "50.97702", "lng": "10.78851"}, {"country": "DE", "name": "Frielendorf", "lat": "50.97073", "lng": "9.32269"}, {"country": "DE", "name": "Friedrichsthal", "lat": "49.32786", "lng": "7.09622"}, {"country": "DE", "name": "Friedrichstadt", "lat": "54.37566", "lng": "9.08672"}, {"country": "DE", "name": "Friedrichskoog", "lat": "54.01667", "lng": "8.91667"}, {"country": "DE", "name": "Friedrichshain", "lat": "52.51559", "lng": "13.45482"}, {"country": "DE", "name": "Friedrichshagen", "lat": "52.45052", "lng": "13.62463"}, {"country": "DE", "name": "Friedrichshafen", "lat": "47.65689", "lng": "9.47554"}, {"country": "DE", "name": "Friedrichsfelde", "lat": "52.50575", "lng": "13.50812"}, {"country": "DE", "name": "Friedrichsdorf", "lat": "50.24962", "lng": "8.64281"}, {"country": "DE", "name": "Friedrichsbrunn", "lat": "51.69028", "lng": "11.03737"}, {"country": "DE", "name": "Friedrichroda", "lat": "50.85754", "lng": "10.56507"}, {"country": "DE", "name": "Friedland", "lat": "53.67028", "lng": "13.554"}, {"country": "DE", "name": "Friedland", "lat": "52.10493", "lng": "14.26399"}, {"country": "DE", "name": "Friedewald", "lat": "50.88333", "lng": "9.86667"}, {"country": "DE", "name": "Friedewald", "lat": "50.71106", "lng": "7.9604"}, {"country": "DE", "name": "Friedersdorf", "lat": "51.64809", "lng": "12.36555"}, {"country": "DE", "name": "Friedersdorf", "lat": "51.02416", "lng": "14.56246"}, {"country": "DE", "name": "Friedenweiler", "lat": "47.91778", "lng": "8.25627"}, {"country": "DE", "name": "Friedenfels", "lat": "49.8826", "lng": "12.10124"}, {"country": "DE", "name": "Friedenau", "lat": "52.47133", "lng": "13.32813"}, {"country": "DE", "name": "Friedelsheim", "lat": "49.44694", "lng": "8.22306"}, {"country": "DE", "name": "Friedeburg", "lat": "53.45", "lng": "7.83333"}, {"country": "DE", "name": "Friedberg", "lat": "50.33739", "lng": "8.75591"}, {"country": "DE", "name": "Friedberg", "lat": "48.35693", "lng": "10.98461"}, {"country": "DE", "name": "Fridolfing", "lat": "47.99773", "lng": "12.82628"}, {"country": "DE", "name": "Fridingen an der Donau", "lat": "48.01955", "lng": "8.92322"}, {"country": "DE", "name": "Frickingen", "lat": "47.81438", "lng": "9.27349"}, {"country": "DE", "name": "Frickenhausen", "lat": "49.67089", "lng": "10.09268"}, {"country": "DE", "name": "Frickenhausen", "lat": "48.59353", "lng": "9.36005"}, {"country": "DE", "name": "Freyung", "lat": "48.80952", "lng": "13.54768"}, {"country": "DE", "name": "Freystadt", "lat": "49.20007", "lng": "11.33032"}, {"country": "DE", "name": "Freyburg", "lat": "51.21362", "lng": "11.76804"}, {"country": "DE", "name": "Freudental", "lat": "49.00972", "lng": "9.05917"}, {"country": "DE", "name": "Freudenstadt", "lat": "48.46695", "lng": "8.41371"}, {"country": "DE", "name": "Freudenburg", "lat": "49.54348", "lng": "6.53292"}, {"country": "DE", "name": "Freudenberg", "lat": "50.89741", "lng": "7.87415"}, {"country": "DE", "name": "Freudenberg", "lat": "49.75349", "lng": "9.32748"}, {"country": "DE", "name": "Freudenberg", "lat": "49.48333", "lng": "11.98333"}, {"country": "DE", "name": "Freren", "lat": "52.487", "lng": "7.54313"}, {"country": "DE", "name": "Frensdorf", "lat": "49.81667", "lng": "10.86667"}, {"country": "DE", "name": "Fremdingen", "lat": "48.97241", "lng": "10.45754"}, {"country": "DE", "name": "Freital", "lat": "51.00166", "lng": "13.6488"}, {"country": "DE", "name": "Freising", "lat": "48.40351", "lng": "11.74876"}, {"country": "DE", "name": "Freisen", "lat": "49.55", "lng": "7.25"}, {"country": "DE", "name": "Freisbach", "lat": "49.27167", "lng": "8.27194"}, {"country": "DE", "name": "Freinsheim", "lat": "49.50649", "lng": "8.21186"}, {"country": "DE", "name": "Frei-Laubersheim", "lat": "49.8", "lng": "7.9"}, {"country": "DE", "name": "Freilassing", "lat": "47.84085", "lng": "12.98114"}, {"country": "DE", "name": "Freihung", "lat": "49.62134", "lng": "11.90817"}, {"country": "DE", "name": "Freienwill", "lat": "54.72752", "lng": "9.49414"}, {"country": "DE", "name": "Freiensteinau", "lat": "50.42509", "lng": "9.40267"}, {"country": "DE", "name": "Freienbessingen", "lat": "51.23333", "lng": "10.76667"}, {"country": "DE", "name": "Freiburg", "lat": "47.9959", "lng": "7.85222"}, {"country": "DE", "name": "Freiburg", "lat": "53.82529", "lng": "9.28803"}, {"country": "DE", "name": "Freiberg am Neckar", "lat": "48.93196", "lng": "9.2024"}, {"country": "DE", "name": "Freiberg", "lat": "50.91089", "lng": "13.33881"}, {"country": "DE", "name": "Freden", "lat": "51.92771", "lng": "9.8935"}, {"country": "DE", "name": "Freckenfeld", "lat": "49.065", "lng": "8.11389"}, {"country": "DE", "name": "Frechen", "lat": "50.91485", "lng": "6.8118"}, {"country": "DE", "name": "Fraureuth", "lat": "50.7", "lng": "12.35"}, {"country": "DE", "name": "Fraunberg", "lat": "48.36667", "lng": "12"}, {"country": "DE", "name": "Frauenwald", "lat": "50.5843", "lng": "10.85841"}, {"country": "DE", "name": "Frauenstein", "lat": "50.80279", "lng": "13.5379"}, {"country": "DE", "name": "Frauenprie\u00dfnitz", "lat": "51.01667", "lng": "11.73333"}, {"country": "DE", "name": "Fraueneuharting", "lat": "48.03873", "lng": "12.0478"}, {"country": "DE", "name": "Frauenau", "lat": "48.98895", "lng": "13.30067"}, {"country": "DE", "name": "Frasdorf", "lat": "47.80376", "lng": "12.28512"}, {"country": "DE", "name": "Franzburg", "lat": "54.18501", "lng": "12.8821"}, {"country": "DE", "name": "Frankleben", "lat": "51.31144", "lng": "11.92932"}, {"country": "DE", "name": "Fr\u00e4nkisch-Crumbach", "lat": "49.74611", "lng": "8.85861"}, {"country": "DE", "name": "Frankfurt am Main", "lat": "50.11552", "lng": "8.68417"}, {"country": "DE", "name": "Frankfurt (Oder)", "lat": "52.34714", "lng": "14.55062"}, {"country": "DE", "name": "Frankenwinheim", "lat": "49.88733", "lng": "10.31432"}, {"country": "DE", "name": "Frankenthal", "lat": "51.13129", "lng": "14.10893"}, {"country": "DE", "name": "Frankenthal", "lat": "49.53414", "lng": "8.35357"}, {"country": "DE", "name": "Frankenstein", "lat": "50.90064", "lng": "13.20933"}, {"country": "DE", "name": "Frankenstein", "lat": "49.44015", "lng": "7.97744"}, {"country": "DE", "name": "Frankenheim", "lat": "50.54452", "lng": "10.06828"}, {"country": "DE", "name": "Frankenberg", "lat": "51.0589", "lng": "8.80077"}, {"country": "DE", "name": "Frankenberg", "lat": "50.91297", "lng": "13.04011"}, {"country": "DE", "name": "Frankenau", "lat": "51.09269", "lng": "8.93447"}, {"country": "DE", "name": "Frammersbach", "lat": "50.06468", "lng": "9.46888"}, {"country": "DE", "name": "Framersheim", "lat": "49.75806", "lng": "8.17417"}, {"country": "DE", "name": "Forstinning", "lat": "48.16866", "lng": "11.91244"}, {"country": "DE", "name": "Forst", "lat": "51.73544", "lng": "14.63971"}, {"country": "DE", "name": "Forst", "lat": "49.15861", "lng": "8.58083"}, {"country": "DE", "name": "F\u00f6ritz", "lat": "50.34174", "lng": "11.2318"}, {"country": "DE", "name": "F\u00f6rderstedt", "lat": "51.89717", "lng": "11.63349"}, {"country": "DE", "name": "Forchtenberg", "lat": "49.28867", "lng": "9.56026"}, {"country": "DE", "name": "Forchheim", "lat": "49.71754", "lng": "11.05877"}, {"country": "DE", "name": "Forchheim", "lat": "48.16667", "lng": "7.7"}, {"country": "DE", "name": "Forbach", "lat": "48.68333", "lng": "8.35"}, {"country": "DE", "name": "F\u00f6hren", "lat": "49.85929", "lng": "6.7648"}, {"country": "DE", "name": "Fockbek", "lat": "54.3", "lng": "9.6"}, {"country": "DE", "name": "Flossenb\u00fcrg", "lat": "49.73333", "lng": "12.35"}, {"country": "DE", "name": "Flo\u00df", "lat": "49.72395", "lng": "12.27593"}, {"country": "DE", "name": "Fl\u00f6rsheim", "lat": "50.01311", "lng": "8.42779"}, {"country": "DE", "name": "Flonheim", "lat": "49.785", "lng": "8.04"}, {"country": "DE", "name": "Flomborn", "lat": "49.69056", "lng": "8.14917"}, {"country": "DE", "name": "Fl\u00f6ha", "lat": "50.85613", "lng": "13.07407"}, {"country": "DE", "name": "Flintsbach", "lat": "47.72576", "lng": "12.12419"}, {"country": "DE", "name": "Flintbek", "lat": "54.25", "lng": "10.06667"}, {"country": "DE", "name": "Flieden", "lat": "50.42389", "lng": "9.5666"}, {"country": "DE", "name": "Flessau", "lat": "52.75996", "lng": "11.67093"}, {"country": "DE", "name": "Flensburg", "lat": "54.78431", "lng": "9.43961"}, {"country": "DE", "name": "Flein", "lat": "49.10306", "lng": "9.21083"}, {"country": "DE", "name": "Fleckeby", "lat": "54.48333", "lng": "9.7"}, {"country": "DE", "name": "Flechtingen", "lat": "52.33083", "lng": "11.24176"}, {"country": "DE", "name": "Flammersfeld", "lat": "50.64711", "lng": "7.52713"}, {"country": "DE", "name": "Fladungen", "lat": "50.52054", "lng": "10.14581"}, {"country": "DE", "name": "Flacht", "lat": "50.34528", "lng": "8.05028"}, {"country": "DE", "name": "Flachslanden", "lat": "49.39845", "lng": "10.51323"}, {"country": "DE", "name": "Fischerbach", "lat": "48.28687", "lng": "8.10959"}, {"country": "DE", "name": "Fischbachau", "lat": "47.71952", "lng": "11.95081"}, {"country": "DE", "name": "Fischbach", "lat": "49.08771", "lng": "7.7116"}, {"country": "DE", "name": "Fischach", "lat": "48.29047", "lng": "10.65592"}, {"country": "DE", "name": "Fintel", "lat": "53.17188", "lng": "9.66969"}, {"country": "DE", "name": "Finsterwalde", "lat": "51.63388", "lng": "13.70662"}, {"country": "DE", "name": "Finsterbergen", "lat": "50.83464", "lng": "10.58916"}, {"country": "DE", "name": "Finsing", "lat": "48.21615", "lng": "11.82412"}, {"country": "DE", "name": "Finnentrop", "lat": "51.168", "lng": "7.973"}, {"country": "DE", "name": "Filsum", "lat": "53.24213", "lng": "7.62785"}, {"country": "DE", "name": "Fichtenwalde", "lat": "52.28038", "lng": "12.88349"}, {"country": "DE", "name": "Fichtenberg", "lat": "48.98601", "lng": "9.71199"}, {"country": "DE", "name": "Fichtelberg", "lat": "50.00288", "lng": "11.85425"}, {"country": "DE", "name": "Feuchtwangen", "lat": "49.16287", "lng": "10.3385"}, {"country": "DE", "name": "Feucht", "lat": "49.37597", "lng": "11.21433"}, {"country": "DE", "name": "Ferdinandshof", "lat": "53.66124", "lng": "13.88724"}, {"country": "DE", "name": "Felsberg", "lat": "51.13763", "lng": "9.42139"}, {"country": "DE", "name": "Felm", "lat": "54.41667", "lng": "10.05"}, {"country": "DE", "name": "Fellheim", "lat": "48.0728", "lng": "10.15224"}, {"country": "DE", "name": "Fellbach", "lat": "48.80912", "lng": "9.27697"}, {"country": "DE", "name": "Fell", "lat": "49.76667", "lng": "6.78333"}, {"country": "DE", "name": "Feldkirchen-Westerham", "lat": "47.90748", "lng": "11.84266"}, {"country": "DE", "name": "Feldkirchen", "lat": "48.14811", "lng": "11.731"}, {"country": "DE", "name": "Felde", "lat": "54.3", "lng": "9.93333"}, {"country": "DE", "name": "Feldberg", "lat": "47.77435", "lng": "7.64142"}, {"country": "DE", "name": "Feldafing", "lat": "47.94602", "lng": "11.29326"}, {"country": "DE", "name": "Feilitzsch", "lat": "50.36667", "lng": "11.93333"}, {"country": "DE", "name": "Feilbingert", "lat": "49.76667", "lng": "7.8"}, {"country": "DE", "name": "Fehrbellin", "lat": "52.8135", "lng": "12.7644"}, {"country": "DE", "name": "Fedderwarden", "lat": "53.56142", "lng": "8.04371"}, {"country": "DE", "name": "Faulbach", "lat": "49.78528", "lng": "9.44417"}, {"country": "DE", "name": "Fa\u00dfberg", "lat": "52.9", "lng": "10.16667"}, {"country": "DE", "name": "Farnst\u00e4dt", "lat": "51.43333", "lng": "11.56667"}, {"country": "DE", "name": "Farchant", "lat": "47.53036", "lng": "11.11151"}, {"country": "DE", "name": "Fambach", "lat": "50.73333", "lng": "10.36667"}, {"country": "DE", "name": "Falkenstein", "lat": "50.47788", "lng": "12.37129"}, {"country": "DE", "name": "Falkenstein", "lat": "49.0975", "lng": "12.48802"}, {"country": "DE", "name": "Falkensee", "lat": "52.56014", "lng": "13.0927"}, {"country": "DE", "name": "Falkenhain", "lat": "51.39888", "lng": "12.87083"}, {"country": "DE", "name": "Falkenfels", "lat": "49.00415", "lng": "12.5948"}, {"country": "DE", "name": "Falkenberg", "lat": "52.568", "lng": "13.54597"}, {"country": "DE", "name": "Falkenberg", "lat": "52.8051", "lng": "13.95804"}, {"country": "DE", "name": "Falkenberg", "lat": "51.58557", "lng": "13.24347"}, {"country": "DE", "name": "Falkenberg", "lat": "48.46154", "lng": "12.73049"}, {"country": "DE", "name": "Falkenau", "lat": "50.85559", "lng": "13.11718"}, {"country": "DE", "name": "Faid", "lat": "50.14454", "lng": "7.11951"}, {"country": "DE", "name": "Fahrenzhausen", "lat": "48.35317", "lng": "11.55521"}, {"country": "DE", "name": "Fahrenkrug", "lat": "53.95", "lng": "10.25"}, {"country": "DE", "name": "Fahrenbach", "lat": "49.43139", "lng": "9.15056"}, {"country": "DE", "name": "Fahrdorf", "lat": "54.5", "lng": "9.6"}, {"country": "DE", "name": "Fachbach", "lat": "50.33333", "lng": "7.68333"}, {"country": "DE", "name": "Franz\u00f6sisch Buchholz", "lat": "52.60242", "lng": "13.43019"}, {"country": "DE", "name": "Florstadt", "lat": "50.31667", "lng": "8.86667"}, {"country": "DE", "name": "Finningen", "lat": "48.65452", "lng": "10.49864"}, {"country": "DE", "name": "Fl\u00f6the", "lat": "52.08333", "lng": "10.48333"}, {"country": "DE", "name": "Filderstadt", "lat": "48.65698", "lng": "9.22049"}, {"country": "DE", "name": "Feldstadt", "lat": "53.62331", "lng": "11.40673"}, {"country": "DE", "name": "Farmsen-Berne", "lat": "53.60639", "lng": "10.11972"}, {"country": "DE", "name": "Fehmarn", "lat": "54.4378", "lng": "11.19352"}, {"country": "DE", "name": "Falkenhagener Feld", "lat": "52.55191", "lng": "13.16802"}, {"country": "DE", "name": "Fennpfuhl", "lat": "52.52921", "lng": "13.47267"}, {"country": "DE", "name": "Fronreute", "lat": "47.87053", "lng": "9.56944"}, {"country": "DK", "name": "Fuglebjerg", "lat": "55.30604", "lng": "11.54766"}, {"country": "DK", "name": "Frejlev", "lat": "57.00623", "lng": "9.81711"}, {"country": "DK", "name": "Frederiksv\u00e6rk", "lat": "55.97073", "lng": "12.0225"}, {"country": "DK", "name": "Frederikssund", "lat": "55.83956", "lng": "12.06896"}, {"country": "DK", "name": "Frederikshavn", "lat": "57.44073", "lng": "10.53661"}, {"country": "DK", "name": "Frederiksberg", "lat": "55.67938", "lng": "12.53463"}, {"country": "DK", "name": "Frederiksberg", "lat": "55.41618", "lng": "11.56934"}, {"country": "DK", "name": "Fredericia", "lat": "55.56568", "lng": "9.75257"}, {"country": "DK", "name": "Fredensborg", "lat": "55.97558", "lng": "12.40314"}, {"country": "DK", "name": "Framlev", "lat": "56.15664", "lng": "10.01318"}, {"country": "DK", "name": "Forlev", "lat": "55.37445", "lng": "11.25966"}, {"country": "DK", "name": "Fl\u00f8ng", "lat": "55.66212", "lng": "12.18698"}, {"country": "DK", "name": "Fjerritslev", "lat": "57.08822", "lng": "9.26622"}, {"country": "DK", "name": "Fensmark", "lat": "55.27919", "lng": "11.80382"}, {"country": "DK", "name": "Farum", "lat": "55.80858", "lng": "12.36066"}, {"country": "DK", "name": "Fars\u00f8", "lat": "56.77276", "lng": "9.33925"}, {"country": "DK", "name": "Faxe Ladeplads", "lat": "55.21981", "lng": "12.17013"}, {"country": "DK", "name": "Faxe", "lat": "55.25561", "lng": "12.11926"}, {"country": "DK", "name": "Faaborg", "lat": "55.0951", "lng": "10.24226"}, {"country": "DO", "name": "Fundaci\u00f3n", "lat": "18.28668", "lng": "-71.18147"}, {"country": "DO", "name": "Fantino", "lat": "19.12148", "lng": "-70.29972"}, {"country": "DZ", "name": "Frenda", "lat": "35.06544", "lng": "1.04945"}, {"country": "DZ", "name": "Freha", "lat": "36.75234", "lng": "4.3155"}, {"country": "DZ", "name": "Feraoun", "lat": "36.56041", "lng": "4.85454"}, {"country": "EG", "name": "Fuwwah", "lat": "31.20365", "lng": "30.54908"}, {"country": "EG", "name": "Farsh\u016b\u0163", "lat": "26.05494", "lng": "32.16329"}, {"country": "EG", "name": "F\u0101rask\u016br", "lat": "31.32977", "lng": "31.71507"}, {"country": "EG", "name": "F\u0101q\u016bs", "lat": "30.72816", "lng": "31.79697"}, {"country": "ES", "name": "Fuerte del Rey", "lat": "37.87492", "lng": "-3.88389"}, {"country": "ES", "name": "Fuente Vaqueros", "lat": "37.22019", "lng": "-3.78294"}, {"country": "ES", "name": "Fuente-T\u00f3jar", "lat": "37.51095", "lng": "-4.14631"}, {"country": "ES", "name": "Fuentes de Le\u00f3n", "lat": "38.06866", "lng": "-6.53884"}, {"country": "ES", "name": "Fuentes de Andaluc\u00eda", "lat": "37.46409", "lng": "-5.34615"}, {"country": "ES", "name": "Fuentes", "lat": "39.96667", "lng": "-2.01667"}, {"country": "ES", "name": "Fuenterrobles", "lat": "39.58333", "lng": "-1.35"}, {"country": "ES", "name": "Fuente Palmera", "lat": "37.70494", "lng": "-5.09965"}, {"country": "ES", "name": "Fuente Obejuna", "lat": "38.26667", "lng": "-5.41667"}, {"country": "ES", "name": "Fuentelespino de Moya", "lat": "39.91667", "lng": "-1.46667"}, {"country": "ES", "name": "Fuentelespino de Haro", "lat": "39.68934", "lng": "-2.66869"}, {"country": "ES", "name": "Fuente la Lancha", "lat": "38.41667", "lng": "-5.03333"}, {"country": "ES", "name": "Fuenteheridos", "lat": "37.90545", "lng": "-6.66108"}, {"country": "ES", "name": "Fuente el Fresno", "lat": "39.22839", "lng": "-3.77487"}, {"country": "ES", "name": "Fuente de Piedra", "lat": "37.13526", "lng": "-4.73"}, {"country": "ES", "name": "Fuente de Pedro Naharro", "lat": "39.92438", "lng": "-3.00916"}, {"country": "ES", "name": "Fuente del Maestre", "lat": "38.52656", "lng": "-6.44782"}, {"country": "ES", "name": "Fuente de Cantos", "lat": "38.25", "lng": "-6.3"}, {"country": "ES", "name": "Fuentealbilla", "lat": "39.26667", "lng": "-1.55"}, {"country": "ES", "name": "Fuente-\u00c1lamo de Murcia", "lat": "37.7", "lng": "-1.1"}, {"country": "ES", "name": "Fuente-\u00c1lamo", "lat": "38.69288", "lng": "-1.43158"}, {"country": "ES", "name": "Fuensanta de Martos", "lat": "37.64756", "lng": "-3.90846"}, {"country": "ES", "name": "Fuensanta", "lat": "39.23333", "lng": "-2.06667"}, {"country": "ES", "name": "Fuenllana", "lat": "38.7559", "lng": "-2.95814"}, {"country": "ES", "name": "Fuenlabrada de los Montes", "lat": "39.13288", "lng": "-4.93513"}, {"country": "ES", "name": "Fuengirola", "lat": "36.53998", "lng": "-4.62473"}, {"country": "ES", "name": "Fuencaliente de la Palma", "lat": "28.49236", "lng": "-17.84529"}, {"country": "ES", "name": "Fuencaliente", "lat": "39.18624", "lng": "-4.02576"}, {"country": "ES", "name": "Fuencaliente", "lat": "38.40602", "lng": "-4.30492"}, {"country": "ES", "name": "Frontera", "lat": "27.75404", "lng": "-18.00367"}, {"country": "ES", "name": "Frigiliana", "lat": "36.78747", "lng": "-3.89441"}, {"country": "ES", "name": "Fresnedoso de Ibor", "lat": "39.68418", "lng": "-5.50899"}, {"country": "ES", "name": "Fresneda de Altarejos", "lat": "39.92577", "lng": "-2.31498"}, {"country": "ES", "name": "Freila", "lat": "37.5299", "lng": "-2.90828"}, {"country": "ES", "name": "Fregenal de la Sierra", "lat": "38.16922", "lng": "-6.6537"}, {"country": "ES", "name": "Frailes", "lat": "37.48617", "lng": "-3.83743"}, {"country": "ES", "name": "Foios", "lat": "39.53333", "lng": "-0.35"}, {"country": "ES", "name": "Fortuna", "lat": "38.1814", "lng": "-1.1259"}, {"country": "ES", "name": "Fortaleny", "lat": "39.18333", "lng": "-0.3"}, {"country": "ES", "name": "Fornalutx", "lat": "39.78232", "lng": "2.74107"}, {"country": "ES", "name": "Formentera de Segura", "lat": "38.08509", "lng": "-0.74604"}, {"country": "ES", "name": "Fontanars dels Alforins", "lat": "38.78423", "lng": "-0.78667"}, {"country": "ES", "name": "Fontanarejo", "lat": "39.22014", "lng": "-4.51753"}, {"country": "ES", "name": "Fonelas", "lat": "37.41042", "lng": "-3.17158"}, {"country": "ES", "name": "Fond\u00f3n", "lat": "36.9802", "lng": "-2.85957"}, {"country": "ES", "name": "Firgas", "lat": "28.10711", "lng": "-15.56299"}, {"country": "ES", "name": "Finestrat", "lat": "38.56737", "lng": "-0.21235"}, {"country": "ES", "name": "Fines", "lat": "37.36074", "lng": "-2.2581"}, {"country": "ES", "name": "Fi\u00f1ana", "lat": "37.1715", "lng": "-2.84011"}, {"country": "ES", "name": "Ferreries", "lat": "39.98324", "lng": "4.01181"}, {"country": "ES", "name": "Ferreira", "lat": "37.17247", "lng": "-3.03539"}, {"country": "ES", "name": "Fern\u00e1n-N\u00fa\u00f1ez", "lat": "37.67044", "lng": "-4.7264"}, {"country": "ES", "name": "Feria", "lat": "38.51151", "lng": "-6.56416"}, {"country": "ES", "name": "F\u00e9rez", "lat": "38.35", "lng": "-2"}, {"country": "ES", "name": "Felanitx", "lat": "39.4696", "lng": "3.14831"}, {"country": "ES", "name": "Favara", "lat": "39.11667", "lng": "-0.28333"}, {"country": "ES", "name": "Faura", "lat": "39.71667", "lng": "-0.25"}, {"country": "ES", "name": "Fasnia", "lat": "28.23638", "lng": "-16.43886"}, {"country": "ES", "name": "Faraj\u00e1n", "lat": "36.61695", "lng": "-5.18839"}, {"country": "ES", "name": "Famorca", "lat": "38.73101", "lng": "-0.24726"}, {"country": "ES", "name": "Facheca", "lat": "38.73501", "lng": "-0.26766"}, {"country": "ES", "name": "Fusti\u00f1ana", "lat": "42.02087", "lng": "-1.48526"}, {"country": "ES", "name": "Funes", "lat": "42.31562", "lng": "-1.80017"}, {"country": "ES", "name": "Fulleda", "lat": "41.46334", "lng": "1.02395"}, {"country": "ES", "name": "Fuertescusa", "lat": "40.47552", "lng": "-2.1762"}, {"country": "ES", "name": "Fuentidue\u00f1a de Tajo", "lat": "40.11574", "lng": "-3.15718"}, {"country": "ES", "name": "Fuentidue\u00f1a", "lat": "41.44226", "lng": "-3.97899"}, {"country": "ES", "name": "Fuentestr\u00fan", "lat": "41.87466", "lng": "-2.08283"}, {"country": "ES", "name": "Fuentespreadas", "lat": "41.32627", "lng": "-5.62798"}, {"country": "ES", "name": "Fuentespina", "lat": "41.63079", "lng": "-3.68475"}, {"country": "ES", "name": "Fuentespalda", "lat": "40.80666", "lng": "0.06517"}, {"country": "ES", "name": "Fuentesoto", "lat": "41.45664", "lng": "-3.91835"}, {"country": "ES", "name": "Fuentesecas", "lat": "41.63077", "lng": "-5.47252"}, {"country": "ES", "name": "Fuentes de Valdepero", "lat": "42.07532", "lng": "-4.5005"}, {"country": "ES", "name": "Fuentes de Rubielos", "lat": "40.16667", "lng": "-0.61667"}, {"country": "ES", "name": "Fuentes de Ropel", "lat": "42.00377", "lng": "-5.54532"}, {"country": "ES", "name": "Fuentes de O\u00f1oro", "lat": "40.59102", "lng": "-6.81144"}, {"country": "ES", "name": "Fuentes de Nava", "lat": "42.08333", "lng": "-4.78333"}, {"country": "ES", "name": "Fuentes de Maga\u00f1a", "lat": "41.93521", "lng": "-2.1795"}, {"country": "ES", "name": "Fuentes de Jiloca", "lat": "41.22859", "lng": "-1.53616"}, {"country": "ES", "name": "Fuentes de Ebro", "lat": "41.5125", "lng": "-0.63159"}, {"country": "ES", "name": "Fuentes de Carbajal", "lat": "42.17776", "lng": "-5.44606"}, {"country": "ES", "name": "Fuentes de B\u00e9jar", "lat": "40.50815", "lng": "-5.6927"}, {"country": "ES", "name": "Fuentes de Ay\u00f3dar", "lat": "40.03333", "lng": "-0.41667"}, {"country": "ES", "name": "Fuentes de A\u00f1o", "lat": "41.01769", "lng": "-4.89907"}, {"country": "ES", "name": "Fuentes Claras", "lat": "40.86375", "lng": "-1.32266"}, {"country": "ES", "name": "Fuentes Calientes", "lat": "40.7", "lng": "-0.96667"}, {"country": "ES", "name": "Fuentesa\u00faco de Fuentidue\u00f1a", "lat": "41.42445", "lng": "-4.06215"}, {"country": "ES", "name": "Fuentesa\u00faco", "lat": "41.23043", "lng": "-5.49722"}, {"country": "ES", "name": "Fuenterroble de Salvatierra", "lat": "40.56466", "lng": "-5.73379"}, {"country": "ES", "name": "Fuentepinilla", "lat": "41.56683", "lng": "-2.76288"}, {"country": "ES", "name": "Fuentepi\u00f1el", "lat": "41.39892", "lng": "-4.04295"}, {"country": "ES", "name": "Fuentepelayo", "lat": "41.22249", "lng": "-4.1757"}, {"country": "ES", "name": "Fuentenovilla", "lat": "40.36248", "lng": "-3.09102"}, {"country": "ES", "name": "Fuentenebro", "lat": "41.52873", "lng": "-3.75449"}, {"country": "ES", "name": "Fuentemolinos", "lat": "41.60477", "lng": "-3.85005"}, {"country": "ES", "name": "Fuentelviejo", "lat": "40.52637", "lng": "-2.9843"}, {"country": "ES", "name": "Fuentelsaz de Soria", "lat": "41.86586", "lng": "-2.41525"}, {"country": "ES", "name": "Fuentelsaz", "lat": "41.07359", "lng": "-1.83108"}, {"country": "ES", "name": "Fuentelisendo", "lat": "41.62274", "lng": "-3.90129"}, {"country": "ES", "name": "Fuentelencina", "lat": "40.51781", "lng": "-2.88226"}, {"country": "ES", "name": "Fuentelc\u00e9sped", "lat": "41.59162", "lng": "-3.64064"}, {"country": "ES", "name": "Fuente la Reina", "lat": "40.06667", "lng": "-0.6"}, {"country": "ES", "name": "Fuentelape\u00f1a", "lat": "41.25144", "lng": "-5.38325"}, {"country": "ES", "name": "Fuentelahiguera de Albatages", "lat": "40.78312", "lng": "-3.30492"}, {"country": "ES", "name": "Fuenteguinaldo", "lat": "40.42876", "lng": "-6.67528"}, {"country": "ES", "name": "Fuente Encalada", "lat": "42.11011", "lng": "-5.99622"}, {"country": "ES", "name": "Fuente el Sol", "lat": "41.17603", "lng": "-4.9343"}, {"country": "ES", "name": "Fuente el Saz", "lat": "40.63215", "lng": "-3.51146"}, {"country": "ES", "name": "Fuente el Olmo de Fuentidue\u00f1a", "lat": "41.37929", "lng": "-4.00086"}, {"country": "ES", "name": "Fuente de Santa Cruz", "lat": "41.20972", "lng": "-4.6353"}, {"country": "ES", "name": "Fuentec\u00e9n", "lat": "41.62852", "lng": "-3.86867"}, {"country": "ES", "name": "Fuentecantos", "lat": "41.84929", "lng": "-2.42846"}, {"country": "ES", "name": "Fuentecambr\u00f3n", "lat": "41.50579", "lng": "-3.32872"}, {"country": "ES", "name": "Fuentebureba", "lat": "42.634", "lng": "-3.2351"}, {"country": "ES", "name": "Fuentearmegil", "lat": "41.71496", "lng": "-3.18362"}, {"country": "ES", "name": "Fuensalida", "lat": "40.05288", "lng": "-4.20718"}, {"country": "ES", "name": "Fuensalda\u00f1a", "lat": "41.70617", "lng": "-4.76547"}, {"country": "ES", "name": "Fuenmayor", "lat": "42.46729", "lng": "-2.56153"}, {"country": "ES", "name": "Fuenlabrada", "lat": "40.28419", "lng": "-3.79415"}, {"country": "ES", "name": "Fuenferrada", "lat": "40.86923", "lng": "-1.01179"}, {"country": "ES", "name": "Fuendetodos", "lat": "41.34245", "lng": "-0.95988"}, {"country": "ES", "name": "Fuendejal\u00f3n", "lat": "41.7605", "lng": "-1.47213"}, {"country": "ES", "name": "Fuencemill\u00e1n", "lat": "40.92063", "lng": "-3.09818"}, {"country": "ES", "name": "Fuembellida", "lat": "40.75589", "lng": "-1.99861"}, {"country": "ES", "name": "Frumales", "lat": "41.38333", "lng": "-4.18631"}, {"country": "ES", "name": "Fr\u00f3mista", "lat": "42.26667", "lng": "-4.40546"}, {"country": "ES", "name": "Friol", "lat": "43.03213", "lng": "-7.79514"}, {"country": "ES", "name": "Friera de Valverde", "lat": "41.91214", "lng": "-5.84153"}, {"country": "ES", "name": "Fr\u00edas de Albarrac\u00edn", "lat": "40.33754", "lng": "-1.6147"}, {"country": "ES", "name": "Fr\u00edas", "lat": "42.76225", "lng": "-3.29394"}, {"country": "ES", "name": "Fresno El Viejo", "lat": "41.19752", "lng": "-5.14413"}, {"country": "ES", "name": "Fresno de Torote", "lat": "40.5904", "lng": "-3.41003"}, {"country": "ES", "name": "Fresno de Sayago", "lat": "41.31848", "lng": "-5.97129"}, {"country": "ES", "name": "Fresno de Rodilla", "lat": "42.42054", "lng": "-3.48507"}, {"country": "ES", "name": "Fresno del R\u00edo", "lat": "42.68176", "lng": "-4.81734"}, {"country": "ES", "name": "Fresno de la Vega", "lat": "42.34545", "lng": "-5.53587"}, {"country": "ES", "name": "Fresno de la Ribera", "lat": "41.52926", "lng": "-5.56658"}, {"country": "ES", "name": "Fresno de la Polvorosa", "lat": "42.0831", "lng": "-5.76969"}, {"country": "ES", "name": "Fresno de la Fuente", "lat": "41.39243", "lng": "-3.64491"}, {"country": "ES", "name": "Fresno de Caracena", "lat": "41.45247", "lng": "-3.09123"}, {"country": "ES", "name": "Fresno de Cantespino", "lat": "41.3682", "lng": "-3.4995"}, {"country": "ES", "name": "Fresnillo de las Due\u00f1as", "lat": "41.647", "lng": "-3.64558"}, {"country": "ES", "name": "Fresne\u00f1a", "lat": "42.41366", "lng": "-3.13453"}, {"country": "ES", "name": "Fresnedoso", "lat": "40.43619", "lng": "-5.70969"}, {"country": "ES", "name": "Fresnedillas", "lat": "40.48704", "lng": "-4.17146"}, {"country": "ES", "name": "Fresnedilla", "lat": "40.23233", "lng": "-4.62201"}, {"country": "ES", "name": "Fresneda de la Sierra Tir\u00f3n", "lat": "42.31535", "lng": "-3.13596"}, {"country": "ES", "name": "Fresneda de la Sierra", "lat": "40.39101", "lng": "-2.14233"}, {"country": "ES", "name": "Fresneda de Cu\u00e9llar", "lat": "41.31905", "lng": "-4.44938"}, {"country": "ES", "name": "Fr\u00e9scano", "lat": "41.88333", "lng": "-1.45"}, {"country": "ES", "name": "Frechilla de Almaz\u00e1n", "lat": "41.42656", "lng": "-2.51444"}, {"country": "ES", "name": "Frechilla", "lat": "42.13768", "lng": "-4.84112"}, {"country": "ES", "name": "Frandov\u00ednez", "lat": "42.31032", "lng": "-3.83783"}, {"country": "ES", "name": "Fraga", "lat": "41.52294", "lng": "0.34894"}, {"country": "ES", "name": "Frades de la Sierra", "lat": "40.65687", "lng": "-5.78223"}, {"country": "ES", "name": "Frades", "lat": "43.05011", "lng": "-8.29391"}, {"country": "ES", "name": "Foz-Calanda", "lat": "40.92208", "lng": "-0.26483"}, {"country": "ES", "name": "Foz", "lat": "43.5692", "lng": "-7.25441"}, {"country": "ES", "name": "Forua", "lat": "43.33343", "lng": "-2.67504"}, {"country": "ES", "name": "Forti\u00e0", "lat": "42.2432", "lng": "3.03881"}, {"country": "ES", "name": "Fortanete", "lat": "40.50533", "lng": "-0.52283"}, {"country": "ES", "name": "F\u00f3rnoles", "lat": "40.89359", "lng": "-0.00383"}, {"country": "ES", "name": "Fornelos de Montes", "lat": "42.34126", "lng": "-8.45291"}, {"country": "ES", "name": "Fornells de la Selva", "lat": "41.93159", "lng": "2.80907"}, {"country": "ES", "name": "Formiche Alto", "lat": "40.32367", "lng": "-0.89241"}, {"country": "ES", "name": "Forfoleda", "lat": "41.09779", "lng": "-5.74979"}, {"country": "ES", "name": "For\u00e8s", "lat": "41.48333", "lng": "1.23333"}, {"country": "ES", "name": "Forcall", "lat": "40.64542", "lng": "-0.19992"}, {"country": "ES", "name": "Fonzaleche", "lat": "42.58114", "lng": "-3.01218"}, {"country": "ES", "name": "Fonz", "lat": "42.01015", "lng": "0.25878"}, {"country": "ES", "name": "Fontiveros", "lat": "40.92997", "lng": "-4.96445"}, {"country": "ES", "name": "Fontioso", "lat": "41.94273", "lng": "-3.73872"}, {"country": "ES", "name": "Fontihoyuelo", "lat": "42.16192", "lng": "-5.05791"}, {"country": "ES", "name": "Fontellas", "lat": "42.02694", "lng": "-1.57648"}, {"country": "ES", "name": "Fontcoberta", "lat": "42.13333", "lng": "2.8"}, {"country": "ES", "name": "Fontanilles", "lat": "42.01117", "lng": "3.10776"}, {"country": "ES", "name": "Fontanar", "lat": "40.72466", "lng": "-3.17309"}, {"country": "ES", "name": "Fonsagrada", "lat": "43.12398", "lng": "-7.0679"}, {"country": "ES", "name": "Fonollosa", "lat": "41.76303", "lng": "1.66867"}, {"country": "ES", "name": "Fonfr\u00eda", "lat": "41.63493", "lng": "-6.14081"}, {"country": "ES", "name": "Fonfr\u00eda", "lat": "40.99566", "lng": "-1.08475"}, {"country": "ES", "name": "Foncea", "lat": "42.61529", "lng": "-3.03897"}, {"country": "ES", "name": "Fompedraza", "lat": "41.53541", "lng": "-4.14483"}, {"country": "ES", "name": "Fombuena", "lat": "41.14442", "lng": "-1.19266"}, {"country": "ES", "name": "Fombellida", "lat": "41.76693", "lng": "-4.18409"}, {"country": "ES", "name": "Folgoso de la Ribera", "lat": "42.64693", "lng": "-6.32035"}, {"country": "ES", "name": "Foix\u00e0", "lat": "42.03626", "lng": "3.00021"}, {"country": "ES", "name": "Fogars de Montcl\u00fas", "lat": "41.73333", "lng": "2.45"}, {"country": "ES", "name": "Florida de Li\u00e9bana", "lat": "41.02361", "lng": "-5.76252"}, {"country": "ES", "name": "Flores de \u00c1vila", "lat": "40.93358", "lng": "-5.07914"}, {"country": "ES", "name": "Flix", "lat": "41.23074", "lng": "0.55008"}, {"country": "ES", "name": "Fla\u00e7\u00e0", "lat": "42.06667", "lng": "2.96667"}, {"country": "ES", "name": "Fitero", "lat": "42.0577", "lng": "-1.85756"}, {"country": "ES", "name": "Fiscal", "lat": "42.49561", "lng": "-0.12094"}, {"country": "ES", "name": "Fisterra", "lat": "42.90492", "lng": "-9.26289"}, {"country": "ES", "name": "Figueruelas", "lat": "41.76651", "lng": "-1.17473"}, {"country": "ES", "name": "Figueruela de Arriba", "lat": "41.86867", "lng": "-6.44454"}, {"country": "ES", "name": "Figueroles", "lat": "40.11667", "lng": "-0.23333"}, {"country": "ES", "name": "Figueras", "lat": "43.53943", "lng": "-7.02559"}, {"country": "ES", "name": "Figueres", "lat": "42.26645", "lng": "2.96163"}, {"country": "ES", "name": "Ferreruela de Huerva", "lat": "41.06325", "lng": "-1.2335"}, {"country": "ES", "name": "Ferreruela", "lat": "41.76673", "lng": "-6.07215"}, {"country": "ES", "name": "Ferreras de Arriba", "lat": "41.89878", "lng": "-6.19461"}, {"country": "ES", "name": "Ferreras de Abajo", "lat": "41.89651", "lng": "-6.07904"}, {"country": "ES", "name": "Fermoselle", "lat": "41.31738", "lng": "-6.39584"}, {"country": "ES", "name": "Fene", "lat": "43.45", "lng": "-8.15"}, {"country": "ES", "name": "Fay\u00f3n", "lat": "41.23851", "lng": "0.33302"}, {"country": "ES", "name": "Farrera", "lat": "42.49654", "lng": "1.27216"}, {"country": "ES", "name": "Farlete", "lat": "41.68122", "lng": "-0.50678"}, {"country": "ES", "name": "Fariza", "lat": "41.41667", "lng": "-6.26667"}, {"country": "ES", "name": "Faramontanos de T\u00e1bara", "lat": "41.83469", "lng": "-5.88883"}, {"country": "ES", "name": "Fanzara", "lat": "40.01667", "lng": "-0.31667"}, {"country": "ES", "name": "Falset", "lat": "41.14576", "lng": "0.81979"}, {"country": "ES", "name": "Falces", "lat": "42.38966", "lng": "-1.79321"}, {"country": "ES", "name": "Fago", "lat": "42.7344", "lng": "-0.88131"}, {"country": "ES", "name": "Fabero", "lat": "42.76803", "lng": "-6.62651"}, {"country": "ES", "name": "Fabara", "lat": "41.1775", "lng": "0.16908"}, {"country": "ES", "name": "Figar\u00f3", "lat": "41.72122", "lng": "2.27297"}, {"country": "ES", "name": "Ferrol", "lat": "43.48961", "lng": "-8.2194"}, {"country": "ES", "name": "Forcarei", "lat": "42.59233", "lng": "-8.3509"}, {"country": "ES", "name": "Fort Pienc", "lat": "41.39458", "lng": "2.17946"}, {"country": "ES", "name": "Fuencarral-El Pardo", "lat": "40.4984", "lng": "-3.7314"}, {"country": "ET", "name": "Finote Selam", "lat": "10.7", "lng": "37.26667"}, {"country": "ET", "name": "Fich\u0113", "lat": "9.8", "lng": "38.73333"}, {"country": "ET", "name": "Felege Neway", "lat": "6.3", "lng": "36.88333"}, {"country": "FI", "name": "Forssa", "lat": "60.81462", "lng": "23.62146"}, {"country": "FM", "name": "Fananu", "lat": "8.55811", "lng": "151.90922"}, {"country": "FM", "name": "Faraulep", "lat": "8.588", "lng": "144.508"}, {"country": "FM", "name": "Fais", "lat": "9.766", "lng": "140.52"}, {"country": "FO", "name": "Fuglafj\u00f8r\u00f0ur", "lat": "62.24398", "lng": "-6.81395"}, {"country": "FR", "name": "Fuveau", "lat": "43.45578", "lng": "5.56149"}, {"country": "FR", "name": "Fussy", "lat": "47.14372", "lng": "2.42953"}, {"country": "FR", "name": "Furiani", "lat": "42.65814", "lng": "9.41469"}, {"country": "FR", "name": "Furdenheim", "lat": "48.61129", "lng": "7.561"}, {"country": "FR", "name": "Fumel", "lat": "44.49862", "lng": "0.96506"}, {"country": "FR", "name": "Fumay", "lat": "49.99132", "lng": "4.70771"}, {"country": "FR", "name": "Fublaines", "lat": "48.93816", "lng": "2.93655"}, {"country": "FR", "name": "Fruges", "lat": "50.51501", "lng": "2.13292"}, {"country": "FR", "name": "Frouzins", "lat": "43.51482", "lng": "1.32523"}, {"country": "FR", "name": "Frouard", "lat": "48.75998", "lng": "6.13163"}, {"country": "FR", "name": "Frotey-l\u00e8s-Vesoul", "lat": "47.62078", "lng": "6.18831"}, {"country": "FR", "name": "Frossay", "lat": "47.24451", "lng": "-1.93557"}, {"country": "FR", "name": "Frontonas", "lat": "45.64782", "lng": "5.18341"}, {"country": "FR", "name": "Fronton", "lat": "43.83931", "lng": "1.38931"}, {"country": "FR", "name": "Frontignan", "lat": "43.44848", "lng": "3.754"}, {"country": "FR", "name": "Frontenex", "lat": "45.63333", "lng": "6.31667"}, {"country": "FR", "name": "Frontenay-Rohan-Rohan", "lat": "46.25276", "lng": "-0.53833"}, {"country": "FR", "name": "Fronsac", "lat": "44.91667", "lng": "-0.26667"}, {"country": "FR", "name": "Froncles", "lat": "48.29756", "lng": "5.14586"}, {"country": "FR", "name": "Fromelennes", "lat": "50.12333", "lng": "4.85952"}, {"country": "FR", "name": "Froidfond", "lat": "46.86898", "lng": "-1.7574"}, {"country": "FR", "name": "Froideconche", "lat": "47.82121", "lng": "6.41523"}, {"country": "FR", "name": "Froges", "lat": "45.27359", "lng": "5.92159"}, {"country": "FR", "name": "Friville-Escarbotin", "lat": "50.08602", "lng": "1.5456"}, {"country": "FR", "name": "Frignicourt", "lat": "48.69966", "lng": "4.59153"}, {"country": "FR", "name": "Freyming-Merlebach", "lat": "49.15", "lng": "6.78333"}, {"country": "FR", "name": "Fr\u00e9vent", "lat": "50.27608", "lng": "2.28725"}, {"country": "FR", "name": "Fretin", "lat": "50.55745", "lng": "3.13668"}, {"country": "FR", "name": "Fr\u00e9thun", "lat": "50.91729", "lng": "1.82505"}, {"country": "FR", "name": "Fresse-sur-Moselle", "lat": "47.87589", "lng": "6.78589"}, {"country": "FR", "name": "Fressenneville", "lat": "50.06838", "lng": "1.57816"}, {"country": "FR", "name": "Fresnoy-le-Grand", "lat": "49.94757", "lng": "3.41841"}, {"country": "FR", "name": "Fresnes-sur-Escaut", "lat": "50.43382", "lng": "3.57752"}, {"country": "FR", "name": "Fresnes", "lat": "48.75568", "lng": "2.32241"}, {"country": "FR", "name": "Fresnay-sur-Sarthe", "lat": "48.28199", "lng": "0.02288"}, {"country": "FR", "name": "Fr\u00e9pillon", "lat": "49.05216", "lng": "2.20528"}, {"country": "FR", "name": "Freneuse", "lat": "49.04832", "lng": "1.60168"}, {"country": "FR", "name": "Frelinghien", "lat": "50.71667", "lng": "2.93333"}, {"country": "FR", "name": "Fr\u00e9land", "lat": "48.17215", "lng": "7.19167"}, {"country": "FR", "name": "Fr\u00e9jus", "lat": "43.43286", "lng": "6.73524"}, {"country": "FR", "name": "Fr\u00e9jairolles", "lat": "43.88094", "lng": "2.23151"}, {"country": "FR", "name": "Freign\u00e9", "lat": "47.54858", "lng": "-1.12274"}, {"country": "FR", "name": "Frasne", "lat": "46.85641", "lng": "6.1594"}, {"country": "FR", "name": "Frans", "lat": "45.99228", "lng": "4.77582"}, {"country": "FR", "name": "Franois", "lat": "47.23055", "lng": "5.92869"}, {"country": "FR", "name": "Frangy", "lat": "46.0187", "lng": "5.93313"}, {"country": "FR", "name": "Franconville", "lat": "48.98333", "lng": "2.23333"}, {"country": "FR", "name": "Francheville", "lat": "48.78647", "lng": "0.84962"}, {"country": "FR", "name": "Francheville", "lat": "45.73879", "lng": "4.77219"}, {"country": "FR", "name": "Francheleins", "lat": "46.0744", "lng": "4.8092"}, {"country": "FR", "name": "Fraize", "lat": "48.1866", "lng": "6.99787"}, {"country": "FR", "name": "Fraisses", "lat": "45.38333", "lng": "4.25"}, {"country": "FR", "name": "Fraisans", "lat": "47.14857", "lng": "5.76051"}, {"country": "FR", "name": "Frahier-et-Chatebier", "lat": "47.66667", "lng": "6.75"}, {"country": "FR", "name": "Foussais-Payr\u00e9", "lat": "46.53333", "lng": "-0.68333"}, {"country": "FR", "name": "Fourqueux", "lat": "48.88693", "lng": "2.06367"}, {"country": "FR", "name": "Fourques-sur-Garonne", "lat": "44.44798", "lng": "0.15703"}, {"country": "FR", "name": "Fourques", "lat": "43.6945", "lng": "4.60932"}, {"country": "FR", "name": "Fournes-en-Weppes", "lat": "50.58497", "lng": "2.88793"}, {"country": "FR", "name": "Fourmies", "lat": "50.01532", "lng": "4.04784"}, {"country": "FR", "name": "Fourchambault", "lat": "47.01667", "lng": "3.08333"}, {"country": "FR", "name": "Fouras", "lat": "45.98736", "lng": "-1.09275"}, {"country": "FR", "name": "Fouqui\u00e8res-l\u00e8s-Lens", "lat": "50.42842", "lng": "2.91321"}, {"country": "FR", "name": "Fouqui\u00e8res-l\u00e8s-B\u00e9thune", "lat": "50.51534", "lng": "2.60999"}, {"country": "FR", "name": "Fouquereuil", "lat": "50.51885", "lng": "2.60024"}, {"country": "FR", "name": "Foulayronnes", "lat": "44.24029", "lng": "0.64516"}, {"country": "FR", "name": "Fouillard", "lat": "48.1582", "lng": "-1.57915"}, {"country": "FR", "name": "Fougerolles-du-Plessis", "lat": "48.47424", "lng": "-0.97255"}, {"country": "FR", "name": "Fougerolles", "lat": "47.88542", "lng": "6.40454"}, {"country": "FR", "name": "Foug\u00e8res", "lat": "48.35", "lng": "-1.2"}, {"country": "FR", "name": "Foug", "lat": "48.68375", "lng": "5.78691"}, {"country": "FR", "name": "Fouesnant", "lat": "47.89187", "lng": "-4.01484"}, {"country": "FR", "name": "Foucherans", "lat": "47.08094", "lng": "5.45503"}, {"country": "FR", "name": "Foucarmont", "lat": "49.84682", "lng": "1.56899"}, {"country": "FR", "name": "Fos-sur-Mer", "lat": "43.43774", "lng": "4.94457"}, {"country": "FR", "name": "Fosses", "lat": "49.09808", "lng": "2.50957"}, {"country": "FR", "name": "Fortschwihr", "lat": "48.08647", "lng": "7.45054"}, {"country": "FR", "name": "Fort-Mardyck", "lat": "51.02899", "lng": "2.30724"}, {"country": "FR", "name": "Fort-Mahon-Plage", "lat": "50.33955", "lng": "1.55984"}, {"country": "FR", "name": "Fors", "lat": "46.2357", "lng": "-0.40904"}, {"country": "FR", "name": "Formerie", "lat": "49.64928", "lng": "1.73106"}, {"country": "FR", "name": "Forges-les-Eaux", "lat": "49.61391", "lng": "1.54449"}, {"country": "FR", "name": "Forges-les-Bains", "lat": "48.62942", "lng": "2.10264"}, {"country": "FR", "name": "Forest-sur-Marque", "lat": "50.63341", "lng": "3.18939"}, {"country": "FR", "name": "Forcalquier", "lat": "43.96667", "lng": "5.78333"}, {"country": "FR", "name": "Forcalqueiret", "lat": "43.33471", "lng": "6.08238"}, {"country": "FR", "name": "Forbach", "lat": "49.18333", "lng": "6.9"}, {"country": "FR", "name": "Fontvieille", "lat": "43.72806", "lng": "4.70953"}, {"country": "FR", "name": "Fontoy", "lat": "49.35624", "lng": "5.99936"}, {"country": "FR", "name": "Fontevraud-l'Abbaye", "lat": "47.18333", "lng": "0.05"}, {"country": "FR", "name": "Fontenilles", "lat": "43.55286", "lng": "1.19096"}, {"country": "FR", "name": "Fontenay-Tr\u00e9signy", "lat": "48.70647", "lng": "2.87047"}, {"country": "FR", "name": "Fontenay-sur-Loing", "lat": "48.10365", "lng": "2.77542"}, {"country": "FR", "name": "Fontenay-sous-Bois", "lat": "48.85442", "lng": "2.48268"}, {"country": "FR", "name": "Fontenay-l\u00e8s-Briis", "lat": "48.61962", "lng": "2.15276"}, {"country": "FR", "name": "Fontenay-le-Marmion", "lat": "49.09346", "lng": "-0.35294"}, {"country": "FR", "name": "Fontenay-le-Fleury", "lat": "48.81253", "lng": "2.04863"}, {"country": "FR", "name": "Fontenay-le-Comte", "lat": "46.46667", "lng": "-0.81667"}, {"country": "FR", "name": "Fontenay-en-Parisis", "lat": "49.05371", "lng": "2.45156"}, {"country": "FR", "name": "Fontenay-aux-Roses", "lat": "48.79325", "lng": "2.29275"}, {"country": "FR", "name": "Fontenay", "lat": "49.55993", "lng": "0.18391"}, {"country": "FR", "name": "Fontcouverte", "lat": "45.76708", "lng": "-0.58682"}, {"country": "FR", "name": "Fontannes", "lat": "45.30149", "lng": "3.76366"}, {"country": "FR", "name": "Fontanil-Cornillon", "lat": "45.24808", "lng": "5.66434"}, {"country": "FR", "name": "Fontaines-sur-Sa\u00f4ne", "lat": "45.83377", "lng": "4.84834"}, {"country": "FR", "name": "Fontaines-Saint-Martin", "lat": "45.84478", "lng": "4.85489"}, {"country": "FR", "name": "Fontaines", "lat": "46.84905", "lng": "4.77036"}, {"country": "FR", "name": "Fontaine-Notre-Dame", "lat": "50.16681", "lng": "3.15812"}, {"country": "FR", "name": "Fontaine-l\u00e8s-Luxeuil", "lat": "47.85592", "lng": "6.33482"}, {"country": "FR", "name": "Fontaine-l\u00e8s-Dijon", "lat": "47.34238", "lng": "5.02007"}, {"country": "FR", "name": "Fontaine-le-Dun", "lat": "49.81182", "lng": "0.85095"}, {"country": "FR", "name": "Fontaine-le-Comte", "lat": "46.53217", "lng": "0.26176"}, {"country": "FR", "name": "Fontaine-le-Bourg", "lat": "49.56451", "lng": "1.16391"}, {"country": "FR", "name": "Fontaine-la-Mallet", "lat": "49.536", "lng": "0.14625"}, {"country": "FR", "name": "Fontaine-la-Guyon", "lat": "48.4727", "lng": "1.31417"}, {"country": "FR", "name": "Fontaine-\u00c9toupefour", "lat": "49.146", "lng": "-0.45522"}, {"country": "FR", "name": "Fontainebleau", "lat": "48.4", "lng": "2.7"}, {"country": "FR", "name": "Fontaine-au-Pire", "lat": "50.1325", "lng": "3.37667"}, {"country": "FR", "name": "Fontaine", "lat": "45.19839", "lng": "5.68265"}, {"country": "FR", "name": "Fonsorbes", "lat": "43.53524", "lng": "1.22937"}, {"country": "FR", "name": "Fondettes", "lat": "47.4035", "lng": "0.59686"}, {"country": "FR", "name": "Fonbeauzard", "lat": "43.6783", "lng": "1.4344"}, {"country": "FR", "name": "Folschviller", "lat": "49.07062", "lng": "6.68948"}, {"country": "FR", "name": "Follainville-Dennemont", "lat": "49.02194", "lng": "1.71331"}, {"country": "FR", "name": "Folkling", "lat": "49.1472", "lng": "6.895"}, {"country": "FR", "name": "Folembray", "lat": "49.54334", "lng": "3.29119"}, {"country": "FR", "name": "Foix", "lat": "42.96667", "lng": "1.6"}, {"country": "FR", "name": "Foissiat", "lat": "46.37008", "lng": "5.17573"}, {"country": "FR", "name": "Fo\u00ebcy", "lat": "47.17618", "lng": "2.16257"}, {"country": "FR", "name": "Flourens", "lat": "43.59273", "lng": "1.56259"}, {"country": "FR", "name": "Florensac", "lat": "43.38301", "lng": "3.46638"}, {"country": "FR", "name": "Florange", "lat": "49.32373", "lng": "6.1212"}, {"country": "FR", "name": "Florac", "lat": "44.31667", "lng": "3.6"}, {"country": "FR", "name": "Floirac", "lat": "44.83238", "lng": "-0.51411"}, {"country": "FR", "name": "Floing", "lat": "49.72216", "lng": "4.92947"}, {"country": "FR", "name": "Flogny-la-Chapelle", "lat": "47.95", "lng": "3.86667"}, {"country": "FR", "name": "Flize", "lat": "49.69875", "lng": "4.77171"}, {"country": "FR", "name": "Flixecourt", "lat": "50.01465", "lng": "2.08095"}, {"country": "FR", "name": "Flins-sur-Seine", "lat": "48.96523", "lng": "1.87314"}, {"country": "FR", "name": "Flines-lez-Raches", "lat": "50.41667", "lng": "3.18333"}, {"country": "FR", "name": "Flines-l\u00e8s-Mortagne", "lat": "50.50281", "lng": "3.46495"}, {"country": "FR", "name": "Fl\u00e9ville-devant-Nancy", "lat": "48.62493", "lng": "6.20499"}, {"country": "FR", "name": "Fleury-sur-Orne", "lat": "49.14851", "lng": "-0.37508"}, {"country": "FR", "name": "Fleury-sur-Andelle", "lat": "49.36176", "lng": "1.35599"}, {"country": "FR", "name": "Fleury-M\u00e9rogis", "lat": "48.6373", "lng": "2.36378"}, {"country": "FR", "name": "Fleury-les-Aubrais", "lat": "47.93328", "lng": "1.91811"}, {"country": "FR", "name": "Fleury-la-Vall\u00e9e", "lat": "47.86672", "lng": "3.44908"}, {"country": "FR", "name": "Fleury", "lat": "49.04002", "lng": "6.19435"}, {"country": "FR", "name": "Fleury", "lat": "43.23095", "lng": "3.13745"}, {"country": "FR", "name": "Fleurines", "lat": "49.25901", "lng": "2.58385"}, {"country": "FR", "name": "Fleurieu-sur-Sa\u00f4ne", "lat": "45.86381", "lng": "4.84455"}, {"country": "FR", "name": "Fleurie", "lat": "46.19208", "lng": "4.69733"}, {"country": "FR", "name": "Fleurey-sur-Ouche", "lat": "47.31182", "lng": "4.85911"}, {"country": "FR", "name": "Fleurbaix", "lat": "50.65061", "lng": "2.83305"}, {"country": "FR", "name": "Fleurance", "lat": "43.84824", "lng": "0.66302"}, {"country": "FR", "name": "Flesselles", "lat": "50.00202", "lng": "2.26119"}, {"country": "FR", "name": "Flers-en-Escrebieux", "lat": "50.3979", "lng": "3.06038"}, {"country": "FR", "name": "Flers", "lat": "48.73722", "lng": "-0.57466"}, {"country": "FR", "name": "Fl\u00e9ac", "lat": "45.66667", "lng": "0.1"}, {"country": "FR", "name": "Flayosc", "lat": "43.53253", "lng": "6.39401"}, {"country": "FR", "name": "Flaxlanden", "lat": "47.69493", "lng": "7.31343"}, {"country": "FR", "name": "Flavy-le-Martel", "lat": "49.71299", "lng": "3.1915"}, {"country": "FR", "name": "Flavin", "lat": "44.2889", "lng": "2.60513"}, {"country": "FR", "name": "Flavigny-sur-Moselle", "lat": "48.56412", "lng": "6.19113"}, {"country": "FR", "name": "Flaviac", "lat": "44.74777", "lng": "4.67434"}, {"country": "FR", "name": "Flassans-sur-Issole", "lat": "43.3702", "lng": "6.22363"}, {"country": "FR", "name": "Flamanville", "lat": "49.53274", "lng": "-1.8656"}, {"country": "FR", "name": "Fitz-James", "lat": "49.39113", "lng": "2.4307"}, {"country": "FR", "name": "Fitilieu", "lat": "45.54744", "lng": "5.56194"}, {"country": "FR", "name": "Fismes", "lat": "49.30773", "lng": "3.68607"}, {"country": "FR", "name": "Firminy", "lat": "45.38732", "lng": "4.29074"}, {"country": "FR", "name": "Firmi", "lat": "44.54106", "lng": "2.30764"}, {"country": "FR", "name": "Finhan", "lat": "43.91335", "lng": "1.2212"}, {"country": "FR", "name": "Fillinges", "lat": "46.15944", "lng": "6.34237"}, {"country": "FR", "name": "Fill\u00e9", "lat": "47.90011", "lng": "0.12543"}, {"country": "FR", "name": "Figeac", "lat": "44.6", "lng": "2.03333"}, {"country": "FR", "name": "Figani\u00e8res", "lat": "43.57", "lng": "6.5"}, {"country": "FR", "name": "Feyzin", "lat": "45.66728", "lng": "4.85971"}, {"country": "FR", "name": "Feytiat", "lat": "45.80905", "lng": "1.33033"}, {"country": "FR", "name": "Feurs", "lat": "45.73988", "lng": "4.22706"}, {"country": "FR", "name": "Feuqui\u00e8res-en-Vimeu", "lat": "50.05982", "lng": "1.60465"}, {"country": "FR", "name": "Feuqui\u00e8res", "lat": "49.64677", "lng": "1.84784"}, {"country": "FR", "name": "Feuchy", "lat": "50.29439", "lng": "2.84335"}, {"country": "FR", "name": "Feucherolles", "lat": "48.87002", "lng": "1.97402"}, {"country": "FR", "name": "F\u00e9ternes", "lat": "46.35259", "lng": "6.5639"}, {"country": "FR", "name": "Festubert", "lat": "50.5425", "lng": "2.73593"}, {"country": "FR", "name": "Fessenheim", "lat": "47.91744", "lng": "7.53698"}, {"country": "FR", "name": "Fesches-le-Ch\u00e2tel", "lat": "47.52415", "lng": "6.90535"}, {"country": "FR", "name": "Ferri\u00e8res-en-Brie", "lat": "48.82352", "lng": "2.70664"}, {"country": "FR", "name": "Ferri\u00e8re-la-Grande", "lat": "50.25521", "lng": "3.99288"}, {"country": "FR", "name": "Ferrette", "lat": "47.49196", "lng": "7.31937"}, {"country": "FR", "name": "Ferrals-les-Corbi\u00e8res", "lat": "43.15", "lng": "2.73333"}, {"country": "FR", "name": "Ferques", "lat": "50.83002", "lng": "1.75994"}, {"country": "FR", "name": "F\u00e9rolles-Attilly", "lat": "48.73184", "lng": "2.63088"}, {"country": "FR", "name": "F\u00e9rolles", "lat": "47.83475", "lng": "2.11113"}, {"country": "FR", "name": "Ferney-Voltaire", "lat": "46.25858", "lng": "6.11063"}, {"country": "FR", "name": "Fermanville", "lat": "49.68673", "lng": "-1.46284"}, {"country": "FR", "name": "F\u00e9rin", "lat": "50.32732", "lng": "3.07415"}, {"country": "FR", "name": "F\u00e9rel", "lat": "47.48203", "lng": "-2.34227"}, {"country": "FR", "name": "F\u00e8re-en-Tardenois", "lat": "49.2", "lng": "3.51667"}, {"country": "FR", "name": "F\u00e8re-Champenoise", "lat": "48.75431", "lng": "3.99069"}, {"country": "FR", "name": "Fenouillet", "lat": "43.68041", "lng": "1.392"}, {"country": "FR", "name": "Feneu", "lat": "47.57211", "lng": "-0.59422"}, {"country": "FR", "name": "F\u00e9nay", "lat": "47.23185", "lng": "5.06211"}, {"country": "FR", "name": "Fenain", "lat": "50.36667", "lng": "3.3"}, {"country": "FR", "name": "Felletin", "lat": "45.88333", "lng": "2.17431"}, {"country": "FR", "name": "Fellering", "lat": "47.89659", "lng": "6.98552"}, {"country": "FR", "name": "F\u00e9lines", "lat": "45.31693", "lng": "4.73067"}, {"country": "FR", "name": "Feillens", "lat": "46.33515", "lng": "4.88863"}, {"country": "FR", "name": "Feignies", "lat": "50.29806", "lng": "3.91534"}, {"country": "FR", "name": "Feig\u00e8res", "lat": "46.11305", "lng": "6.08041"}, {"country": "FR", "name": "F\u00e9gr\u00e9ac", "lat": "47.58476", "lng": "-2.0441"}, {"country": "FR", "name": "Fegersheim", "lat": "48.49016", "lng": "7.68107"}, {"country": "FR", "name": "F\u00e9chain", "lat": "50.26638", "lng": "3.21024"}, {"country": "FR", "name": "F\u00e9camp", "lat": "49.75787", "lng": "0.37457"}, {"country": "FR", "name": "Fayl-Billot", "lat": "47.78199", "lng": "5.59917"}, {"country": "FR", "name": "Fayence", "lat": "43.6257", "lng": "6.69531"}, {"country": "FR", "name": "Fay-de-Bretagne", "lat": "47.41453", "lng": "-1.79155"}, {"country": "FR", "name": "Fay-aux-Loges", "lat": "47.92724", "lng": "2.14012"}, {"country": "FR", "name": "Favi\u00e8res", "lat": "48.76324", "lng": "2.7747"}, {"country": "FR", "name": "Faverolles-sur-Cher", "lat": "47.31732", "lng": "1.19045"}, {"country": "FR", "name": "Faverney", "lat": "47.76713", "lng": "6.10428"}, {"country": "FR", "name": "Faverges-de-la-Tour", "lat": "45.59096", "lng": "5.52265"}, {"country": "FR", "name": "Faverges", "lat": "45.74752", "lng": "6.29297"}, {"country": "FR", "name": "Fauville-en-Caux", "lat": "49.65257", "lng": "0.59197"}, {"country": "FR", "name": "Faumont", "lat": "50.46017", "lng": "3.13713"}, {"country": "FR", "name": "Faulx", "lat": "48.79396", "lng": "6.19449"}, {"country": "FR", "name": "Faulquemont", "lat": "49.04711", "lng": "6.60314"}, {"country": "FR", "name": "Farschviller", "lat": "49.09424", "lng": "6.89534"}, {"country": "FR", "name": "Farnay", "lat": "45.49291", "lng": "4.59643"}, {"country": "FR", "name": "Fargues-Saint-Hilaire", "lat": "44.82304", "lng": "-0.44676"}, {"country": "FR", "name": "Faremoutiers", "lat": "48.79962", "lng": "2.99607"}, {"country": "FR", "name": "Fareins", "lat": "46.01793", "lng": "4.75993"}, {"country": "FR", "name": "Far\u00e9bersviller", "lat": "49.11996", "lng": "6.87201"}, {"country": "FR", "name": "Fampoux", "lat": "50.30173", "lng": "2.8731"}, {"country": "FR", "name": "Fameck", "lat": "49.30335", "lng": "6.1086"}, {"country": "FR", "name": "Famars", "lat": "50.31743", "lng": "3.51945"}, {"country": "FR", "name": "Falleron", "lat": "46.8816", "lng": "-1.70208"}, {"country": "FR", "name": "Falicon", "lat": "43.74786", "lng": "7.27764"}, {"country": "FR", "name": "Falck", "lat": "49.23134", "lng": "6.63497"}, {"country": "FR", "name": "Falaise", "lat": "48.89217", "lng": "-0.19527"}, {"country": "FR", "name": "Fains-V\u00e9el", "lat": "48.78333", "lng": "5.13333"}, {"country": "FR", "name": "Fagni\u00e8res", "lat": "48.96385", "lng": "4.31692"}, {"country": "FR", "name": "Faches-Thumesnil", "lat": "50.58333", "lng": "3.06667"}, {"country": "FR", "name": "Fabrezan", "lat": "43.13581", "lng": "2.69814"}, {"country": "FR", "name": "Fabr\u00e8gues", "lat": "43.55057", "lng": "3.77637"}, {"country": "GA", "name": "Franceville", "lat": "-1.63333", "lng": "13.58357"}, {"country": "GA", "name": "Fougamou", "lat": "-1.21544", "lng": "10.58378"}, {"country": "GB", "name": "Fylde", "lat": "53.83333", "lng": "-2.91667"}, {"country": "GB", "name": "Fyfield", "lat": "51.41667", "lng": "-1.78333"}, {"country": "GB", "name": "Full Sutton", "lat": "53.98869", "lng": "-0.86758"}, {"country": "GB", "name": "Fulford", "lat": "53.93333", "lng": "-1.06667"}, {"country": "GB", "name": "Fulbourn", "lat": "52.18283", "lng": "0.22046"}, {"country": "GB", "name": "Frome", "lat": "51.22834", "lng": "-2.32211"}, {"country": "GB", "name": "Frodsham", "lat": "53.29485", "lng": "-2.72745"}, {"country": "GB", "name": "Frizington", "lat": "54.54185", "lng": "-3.4946"}, {"country": "GB", "name": "Friston", "lat": "50.76402", "lng": "0.1993"}, {"country": "GB", "name": "Friockheim", "lat": "56.63688", "lng": "-2.66806"}, {"country": "GB", "name": "Frinton-on-Sea", "lat": "51.83061", "lng": "1.24424"}, {"country": "GB", "name": "Frimley", "lat": "51.31667", "lng": "-0.74544"}, {"country": "GB", "name": "Freystrop", "lat": "51.76333", "lng": "-4.96028"}, {"country": "GB", "name": "Freuchie", "lat": "56.24688", "lng": "-3.15861"}, {"country": "GB", "name": "Freshwater", "lat": "50.68365", "lng": "-1.52616"}, {"country": "GB", "name": "Freshford", "lat": "51.33917", "lng": "-2.30306"}, {"country": "GB", "name": "Fremington", "lat": "51.06955", "lng": "-4.1366"}, {"country": "GB", "name": "Freckleton", "lat": "53.75433", "lng": "-2.86489"}, {"country": "GB", "name": "Fraserburgh", "lat": "57.68744", "lng": "-2.01844"}, {"country": "GB", "name": "Frampton on Severn", "lat": "51.77054", "lng": "-2.36382"}, {"country": "GB", "name": "Framlingham", "lat": "52.22117", "lng": "1.34205"}, {"country": "GB", "name": "Fowlmere", "lat": "52.09343", "lng": "0.07433"}, {"country": "GB", "name": "Fowey", "lat": "50.33634", "lng": "-4.6386"}, {"country": "GB", "name": "Four Marks", "lat": "51.10735", "lng": "-1.04945"}, {"country": "GB", "name": "Four Crosses", "lat": "52.75941", "lng": "-3.08106"}, {"country": "GB", "name": "Foulsham", "lat": "52.78182", "lng": "1.01049"}, {"country": "GB", "name": "Foulridge", "lat": "53.87579", "lng": "-2.16864"}, {"country": "GB", "name": "Fort William", "lat": "56.81648", "lng": "-5.11208"}, {"country": "GB", "name": "Fortuneswell", "lat": "50.5603", "lng": "-2.44243"}, {"country": "GB", "name": "Fortrose", "lat": "57.58087", "lng": "-4.13263"}, {"country": "GB", "name": "Forth", "lat": "55.76502", "lng": "-3.68874"}, {"country": "GB", "name": "Forres", "lat": "57.60997", "lng": "-3.62115"}, {"country": "GB", "name": "Formby", "lat": "53.55838", "lng": "-3.06999"}, {"country": "GB", "name": "Forfar", "lat": "56.64382", "lng": "-2.89001"}, {"country": "GB", "name": "Forest Row", "lat": "51.09641", "lng": "0.03262"}, {"country": "GB", "name": "Fordingbridge", "lat": "50.92747", "lng": "-1.79029"}, {"country": "GB", "name": "Fordham", "lat": "52.31129", "lng": "0.39057"}, {"country": "GB", "name": "Ford", "lat": "55.63333", "lng": "-2.08333"}, {"country": "GB", "name": "Ford", "lat": "52.71693", "lng": "-2.86881"}, {"country": "GB", "name": "Folkestone", "lat": "51.08169", "lng": "1.16734"}, {"country": "GB", "name": "Fochriw", "lat": "51.74003", "lng": "-3.29861"}, {"country": "GB", "name": "Fochabers", "lat": "57.61445", "lng": "-3.09947"}, {"country": "GB", "name": "Flore", "lat": "52.23647", "lng": "-1.05726"}, {"country": "GB", "name": "Flookburgh", "lat": "54.17415", "lng": "-2.97214"}, {"country": "GB", "name": "Flockton", "lat": "53.63034", "lng": "-1.63945"}, {"country": "GB", "name": "Flitwick", "lat": "52.00338", "lng": "-0.49472"}, {"country": "GB", "name": "Flint", "lat": "53.24488", "lng": "-3.13231"}, {"country": "GB", "name": "Flimby", "lat": "54.68956", "lng": "-3.52092"}, {"country": "GB", "name": "Fleetwood", "lat": "53.92527", "lng": "-3.01085"}, {"country": "GB", "name": "Fleet", "lat": "52.79321", "lng": "0.05854"}, {"country": "GB", "name": "Fleet", "lat": "51.28333", "lng": "-0.83333"}, {"country": "GB", "name": "Flamborough", "lat": "54.11487", "lng": "-0.12274"}, {"country": "GB", "name": "Fivemiletown", "lat": "54.38333", "lng": "-7.3"}, {"country": "GB", "name": "Fitzwilliam", "lat": "53.63288", "lng": "-1.3769"}, {"country": "GB", "name": "Fishtoft", "lat": "52.96095", "lng": "0.02702"}, {"country": "GB", "name": "Fishguard", "lat": "51.99376", "lng": "-4.97631"}, {"country": "GB", "name": "Fishburn", "lat": "54.68296", "lng": "-1.43631"}, {"country": "GB", "name": "Fintona", "lat": "54.5", "lng": "-7.31667"}, {"country": "GB", "name": "Finningley", "lat": "53.48696", "lng": "-0.99083"}, {"country": "GB", "name": "Finedon", "lat": "52.33917", "lng": "-0.65008"}, {"country": "GB", "name": "Findon", "lat": "50.86816", "lng": "-0.40735"}, {"country": "GB", "name": "Findochty", "lat": "57.69735", "lng": "-2.90104"}, {"country": "GB", "name": "Findern", "lat": "52.87037", "lng": "-1.54409"}, {"country": "GB", "name": "Finchampstead", "lat": "51.36149", "lng": "-0.85728"}, {"country": "GB", "name": "Fimber", "lat": "54.03495", "lng": "-0.63133"}, {"country": "GB", "name": "Filey", "lat": "54.21", "lng": "-0.28917"}, {"country": "GB", "name": "Ffestiniog", "lat": "52.95996", "lng": "-3.93242"}, {"country": "GB", "name": "Ferryhill", "lat": "54.68333", "lng": "-1.55"}, {"country": "GB", "name": "Ferrybridge", "lat": "53.71058", "lng": "-1.27948"}, {"country": "GB", "name": "Fernhurst", "lat": "51.04873", "lng": "-0.71789"}, {"country": "GB", "name": "Fernhill Heath", "lat": "52.23002", "lng": "-2.19659"}, {"country": "GB", "name": "Ferndale", "lat": "51.66056", "lng": "-3.4475"}, {"country": "GB", "name": "Fenwick", "lat": "55.65823", "lng": "-4.44342"}, {"country": "GB", "name": "Fenwick", "lat": "53.63868", "lng": "-1.0976"}, {"country": "GB", "name": "Fenstanton", "lat": "52.29903", "lng": "-0.06712"}, {"country": "GB", "name": "Feltwell", "lat": "52.48581", "lng": "0.51945"}, {"country": "GB", "name": "Felton", "lat": "55.29768", "lng": "-1.71143"}, {"country": "GB", "name": "Feltham", "lat": "51.4462", "lng": "-0.41388"}, {"country": "GB", "name": "Felling", "lat": "54.95297", "lng": "-1.57152"}, {"country": "GB", "name": "Felixstowe", "lat": "51.96375", "lng": "1.3511"}, {"country": "GB", "name": "Felbridge", "lat": "51.13913", "lng": "-0.04116"}, {"country": "GB", "name": "Featherstone", "lat": "53.67688", "lng": "-1.35647"}, {"country": "GB", "name": "Fazeley", "lat": "52.61443", "lng": "-1.6985"}, {"country": "GB", "name": "Faversham", "lat": "51.3148", "lng": "0.88856"}, {"country": "GB", "name": "Fauldhouse", "lat": "55.82749", "lng": "-3.70741"}, {"country": "GB", "name": "Farnworth", "lat": "53.55", "lng": "-2.4"}, {"country": "GB", "name": "Farnsfield", "lat": "53.10223", "lng": "-1.0332"}, {"country": "GB", "name": "Farnham Royal", "lat": "51.54208", "lng": "-0.61584"}, {"country": "GB", "name": "Farnham", "lat": "51.21444", "lng": "-0.80054"}, {"country": "GB", "name": "Farndon", "lat": "53.08361", "lng": "-2.87464"}, {"country": "GB", "name": "Farndon", "lat": "53.05", "lng": "-0.85"}, {"country": "GB", "name": "Farnborough", "lat": "52.14289", "lng": "-1.36926"}, {"country": "GB", "name": "Farnborough", "lat": "51.53333", "lng": "-1.36667"}, {"country": "GB", "name": "Farnborough", "lat": "51.35948", "lng": "0.06905"}, {"country": "GB", "name": "Farnborough", "lat": "51.29424", "lng": "-0.75565"}, {"country": "GB", "name": "Faringdon", "lat": "51.65644", "lng": "-1.58676"}, {"country": "GB", "name": "Fareham", "lat": "50.85162", "lng": "-1.17929"}, {"country": "GB", "name": "Falmouth", "lat": "50.15441", "lng": "-5.07113"}, {"country": "GB", "name": "Falkland", "lat": "56.25255", "lng": "-3.20389"}, {"country": "GB", "name": "Falkirk", "lat": "56.0021", "lng": "-3.78535"}, {"country": "GB", "name": "Falfield", "lat": "51.63694", "lng": "-2.46056"}, {"country": "GB", "name": "Fakenham", "lat": "52.82996", "lng": "0.8477"}, {"country": "GB", "name": "Fairlight", "lat": "50.87802", "lng": "0.65669"}, {"country": "GB", "name": "Fairlie", "lat": "55.75602", "lng": "-4.85564"}, {"country": "GB", "name": "Fairford", "lat": "51.70816", "lng": "-1.78128"}, {"country": "GB", "name": "Flexbury", "lat": "50.83509", "lng": "-4.54499"}, {"country": "GB", "name": "Fontwell", "lat": "50.8552", "lng": "-0.64831"}, {"country": "GB", "name": "Furnace Green", "lat": "51.10742", "lng": "-0.16889"}, {"country": "GB", "name": "Failsworth", "lat": "53.50484", "lng": "-2.16568"}, {"country": "GB", "name": "Fallowfield", "lat": "53.43981", "lng": "-2.21572"}, {"country": "GB", "name": "Ferndown", "lat": "50.80743", "lng": "-1.89975"}, {"country": "GB", "name": "Featherstone", "lat": "52.64483", "lng": "-2.09315"}, {"country": "GB", "name": "Four Lanes", "lat": "50.20163", "lng": "-5.24014"},