[{"country": "AF", "name": "Guz\u0304arah", "lat": "34.21223", "lng": "62.21235"}, {"country": "AF", "name": "G\u014dshtah", "lat": "34.35822", "lng": "70.76264"}, {"country": "AF", "name": "G\u014dmal K\u00ealay", "lat": "32.50989", "lng": "68.85598"}, {"country": "AF", "name": "Gh\u014driy\u0101n", "lat": "34.3448", "lng": "61.49321"}, {"country": "AF", "name": "Ghormach", "lat": "35.73062", "lng": "63.78264"}, {"country": "AF", "name": "Ghurayd Gharam\u0113", "lat": "36.5222", "lng": "70.79063"}, {"country": "AF", "name": "Ghazni", "lat": "33.55391", "lng": "68.42096"}, {"country": "AF", "name": "Gereshk", "lat": "31.82089", "lng": "64.57005"}, {"country": "AF", "name": "Gardez", "lat": "33.59744", "lng": "69.22592"}, {"country": "AF", "name": "Ghul\u0101m \u2018Al\u012b", "lat": "34.95076", "lng": "69.2287"}, {"country": "AI", "name": "George Hill", "lat": "18.19939", "lng": "-63.0665"}, {"country": "AL", "name": "Gjinkar", "lat": "40.19944", "lng": "20.40611"}, {"country": "AL", "name": "Gramsh", "lat": "40.86972", "lng": "20.18444"}, {"country": "AL", "name": "Gostim\u00eb", "lat": "41.14556", "lng": "20.24"}, {"country": "AL", "name": "Golaj", "lat": "42.2475", "lng": "20.38028"}, {"country": "AL", "name": "Gjorica e Sip\u00ebrme", "lat": "41.53444", "lng": "20.45"}, {"country": "AL", "name": "Gjirokast\u00ebr", "lat": "40.07583", "lng": "20.13889"}, {"country": "AL", "name": "Gjinar", "lat": "41.0225", "lng": "20.18889"}, {"country": "AL", "name": "Gjinaj", "lat": "42.11806", "lng": "20.43583"}, {"country": "AL", "name": "Gjergjan", "lat": "41.04306", "lng": "20.02972"}, {"country": "AL", "name": "Gjegjan", "lat": "41.93778", "lng": "20.01111"}, {"country": "AL", "name": "Gjerb\u00ebs", "lat": "40.62917", "lng": "20.25111"}, {"country": "AL", "name": "Gurra e Vog\u00ebl", "lat": "41.53611", "lng": "19.99083"}, {"country": "AL", "name": "Guri i Zi", "lat": "42.045", "lng": "19.57472"}, {"country": "AL", "name": "Gruemir\u00eb", "lat": "42.15917", "lng": "19.51889"}, {"country": "AL", "name": "Greshic\u00eb", "lat": "40.55194", "lng": "19.77833"}, {"country": "AL", "name": "Grekan", "lat": "40.92944", "lng": "19.9475"}, {"country": "AL", "name": "Gradisht\u00eb", "lat": "40.88806", "lng": "19.58583"}, {"country": "AL", "name": "Gracen", "lat": "41.15194", "lng": "19.96361"}, {"country": "AL", "name": "Grabjan", "lat": "40.95306", "lng": "19.58083"}, {"country": "AL", "name": "Gos\u00eb e Madhe", "lat": "41.09056", "lng": "19.62472"}, {"country": "AL", "name": "Golem", "lat": "40.96778", "lng": "19.68528"}, {"country": "AL", "name": "Gjo\u00e7aj", "lat": "41.02556", "lng": "19.72389"}, {"country": "AL", "name": "Gjepalaj", "lat": "41.33306", "lng": "19.57806"}, {"country": "AL", "name": "Golem", "lat": "41.24583", "lng": "19.53472"}, {"country": "AL", "name": "Grud\u00eb-Fush\u00eb", "lat": "42.16222", "lng": "19.49667"}, {"country": "AM", "name": "Goravan", "lat": "39.90832", "lng": "44.73328"}, {"country": "AM", "name": "Goris", "lat": "39.51111", "lng": "46.34168"}, {"country": "AM", "name": "Gladzor", "lat": "39.7807", "lng": "45.34729"}, {"country": "AM", "name": "Getap\u2019", "lat": "39.76392", "lng": "45.30829"}, {"country": "AM", "name": "Geghakert", "lat": "40.18516", "lng": "44.24331"}, {"country": "AM", "name": "Gavarr", "lat": "40.35398", "lng": "45.12386"}, {"country": "AM", "name": "Gyumri", "lat": "40.7942", "lng": "43.84528"}, {"country": "AM", "name": "Gyulagarak", "lat": "40.96715", "lng": "44.47144"}, {"country": "AM", "name": "Ghukasavan", "lat": "40.12793", "lng": "44.41669"}, {"country": "AM", "name": "Geghamasar", "lat": "40.31091", "lng": "45.67924"}, {"country": "AM", "name": "Gugark\u2019", "lat": "40.8046", "lng": "44.54025"}, {"country": "AM", "name": "Goght\u2019", "lat": "40.1347", "lng": "44.78332"}, {"country": "AM", "name": "Gogaran", "lat": "40.89255", "lng": "44.19915"}, {"country": "AM", "name": "Getazat", "lat": "40.03844", "lng": "44.56369"}, {"country": "AM", "name": "Getashen", "lat": "40.04449", "lng": "43.94171"}, {"country": "AM", "name": "Geghanist", "lat": "40.14587", "lng": "44.43048"}, {"country": "AM", "name": "Geghamavan", "lat": "40.5625", "lng": "44.88892"}, {"country": "AM", "name": "Garrni", "lat": "40.11931", "lng": "44.73442"}, {"country": "AM", "name": "Gagarin", "lat": "40.54026", "lng": "44.86962"}, {"country": "AM", "name": "Getahovit", "lat": "40.89784", "lng": "45.13971"}, {"country": "AM", "name": "Gandzak", "lat": "40.31472", "lng": "45.11139"}, {"country": "AM", "name": "Gay", "lat": "40.08444", "lng": "44.30528"}, {"country": "AM", "name": "Griboyedov", "lat": "40.11307", "lng": "44.27169"}, {"country": "AM", "name": "Gmbet\u2019", "lat": "40.22369", "lng": "44.25409"}, {"country": "AR", "name": "Guaran\u00ed", "lat": "-27.51667", "lng": "-55.16667"}, {"country": "AR", "name": "Gualeguaych\u00fa", "lat": "-33.00937", "lng": "-58.51722"}, {"country": "AR", "name": "Gualeguay", "lat": "-33.14156", "lng": "-59.30966"}, {"country": "AR", "name": "Goya", "lat": "-29.14395", "lng": "-59.2651"}, {"country": "AR", "name": "Gobernador Roca", "lat": "-27.18636", "lng": "-55.46433"}, {"country": "AR", "name": "Gobernador Mansilla", "lat": "-32.54453", "lng": "-59.3548"}, {"country": "AR", "name": "Gobernador Juan E. Mart\u00ednez", "lat": "-28.91705", "lng": "-58.93292"}, {"country": "AR", "name": "Gobernador Ingeniero Valent\u00edn Virasoro", "lat": "-28.05", "lng": "-56.03333"}, {"country": "AR", "name": "General Vedia", "lat": "-26.93382", "lng": "-58.6604"}, {"country": "AR", "name": "General San Mart\u00edn", "lat": "-34.57424", "lng": "-58.53496"}, {"country": "AR", "name": "General Rodr\u00edguez", "lat": "-34.60838", "lng": "-58.95253"}, {"country": "AR", "name": "General Lavalle", "lat": "-36.40633", "lng": "-56.94329"}, {"country": "AR", "name": "General Las Heras", "lat": "-34.92726", "lng": "-58.94621"}, {"country": "AR", "name": "General Juan Madariaga", "lat": "-36.99725", "lng": "-57.13951"}, {"country": "AR", "name": "General Jos\u00e9 de San Mart\u00edn", "lat": "-26.53743", "lng": "-59.34158"}, {"country": "AR", "name": "General Guido", "lat": "-36.64074", "lng": "-57.79174"}, {"country": "AR", "name": "General Galarza", "lat": "-32.72034", "lng": "-59.39615"}, {"country": "AR", "name": "General Conesa", "lat": "-36.52013", "lng": "-57.32537"}, {"country": "AR", "name": "General Campos", "lat": "-31.52311", "lng": "-58.4049"}, {"country": "AR", "name": "General Belgrano", "lat": "-35.76952", "lng": "-58.49341"}, {"country": "AR", "name": "General Alvear", "lat": "-27.43333", "lng": "-55.16667"}, {"country": "AR", "name": "Garup\u00e1", "lat": "-27.48171", "lng": "-55.82921"}, {"country": "AR", "name": "Garuhap\u00e9", "lat": "-26.81768", "lng": "-54.95665"}, {"country": "AR", "name": "Garruchos", "lat": "-28.18514", "lng": "-55.63947"}, {"country": "AR", "name": "Guernica", "lat": "-34.91722", "lng": "-58.38694"}, {"country": "AR", "name": "Guatrach\u00e9", "lat": "-37.66776", "lng": "-63.53021"}, {"country": "AR", "name": "Guatimoz\u00edn", "lat": "-33.46149", "lng": "-62.43844"}, {"country": "AR", "name": "Guamin\u00ed", "lat": "-37.03333", "lng": "-62.41667"}, {"country": "AR", "name": "Guachipas", "lat": "-25.52031", "lng": "-65.50937"}, {"country": "AR", "name": "Graneros", "lat": "-27.64934", "lng": "-65.4383"}, {"country": "AR", "name": "Granadero Baigorria", "lat": "-32.85683", "lng": "-60.71754"}, {"country": "AR", "name": "Godoy Cruz", "lat": "-32.92863", "lng": "-68.8351"}, {"country": "AR", "name": "Gobernador Gregores", "lat": "-48.75057", "lng": "-70.24741"}, {"country": "AR", "name": "Gobernador G\u00e1lvez", "lat": "-33.03016", "lng": "-60.64045"}, {"country": "AR", "name": "Gobernador Costa", "lat": "-44.04992", "lng": "-70.59798"}, {"country": "AR", "name": "General Villegas", "lat": "-35.03285", "lng": "-63.01252"}, {"country": "AR", "name": "General Viamonte", "lat": "-35.00014", "lng": "-61.03508"}, {"country": "AR", "name": "General San Mart\u00edn", "lat": "-37.97904", "lng": "-63.60449"}, {"country": "AR", "name": "General Roca", "lat": "-39.03333", "lng": "-67.58333"}, {"country": "AR", "name": "General Roca", "lat": "-32.73196", "lng": "-61.91599"}, {"country": "AR", "name": "General Ram\u00edrez", "lat": "-32.17601", "lng": "-60.20079"}, {"country": "AR", "name": "General Pinto", "lat": "-34.76459", "lng": "-61.89093"}, {"country": "AR", "name": "General Pinedo", "lat": "-27.31667", "lng": "-61.28333"}, {"country": "AR", "name": "General Pico", "lat": "-35.65662", "lng": "-63.75682"}, {"country": "AR", "name": "General Mart\u00edn Miguel de G\u00fcemes", "lat": "-24.67034", "lng": "-65.04765"}, {"country": "AR", "name": "General Manuel J. Campos", "lat": "-37.46025", "lng": "-63.58537"}, {"country": "AR", "name": "General Levalle", "lat": "-34.01472", "lng": "-63.92413"}, {"country": "AR", "name": "General Lavalle", "lat": "-32.72218", "lng": "-68.59137"}, {"country": "AR", "name": "General La Madrid", "lat": "-37.24755", "lng": "-61.26273"}, {"country": "AR", "name": "General Fern\u00e1ndez Oro", "lat": "-38.95297", "lng": "-67.92489"}, {"country": "AR", "name": "General Enrique Mosconi", "lat": "-23.21667", "lng": "-62.3"}, {"country": "AR", "name": "General Enrique Mosconi", "lat": "-22.59588", "lng": "-63.81255"}, {"country": "AR", "name": "General Enrique Godoy", "lat": "-39.08333", "lng": "-67.15"}, {"country": "AR", "name": "General Conesa", "lat": "-40.1", "lng": "-64.43333"}, {"country": "AR", "name": "General Cabrera", "lat": "-32.81313", "lng": "-63.87243"}, {"country": "AR", "name": "General Baldissera", "lat": "-33.12246", "lng": "-62.3063"}, {"country": "AR", "name": "General Arenales", "lat": "-34.30264", "lng": "-61.30522"}, {"country": "AR", "name": "General Alvear", "lat": "-36.02078", "lng": "-60.0145"}, {"country": "AR", "name": "General Alvear", "lat": "-34.97696", "lng": "-67.69116"}, {"country": "AR", "name": "General Acha", "lat": "-37.37698", "lng": "-64.60431"}, {"country": "AR", "name": "Gastre", "lat": "-42.27514", "lng": "-69.21967"}, {"country": "AR", "name": "Garza", "lat": "-28.15321", "lng": "-63.53935"}, {"country": "AR", "name": "Gancedo", "lat": "-27.49038", "lng": "-61.67571"}, {"country": "AR", "name": "G\u00e1lvez", "lat": "-32.02927", "lng": "-61.22103"}, {"country": "AR", "name": "Gaim\u00e1n", "lat": "-43.2897", "lng": "-65.4929"}, {"country": "AR", "name": "Gato Colorado", "lat": "-28.02219", "lng": "-61.18663"}, {"country": "AT", "name": "Gr\u00fcnburg", "lat": "47.97234", "lng": "14.26472"}, {"country": "AT", "name": "G\u00fcttenbach", "lat": "47.1571", "lng": "16.2923"}, {"country": "AT", "name": "Guttaring", "lat": "46.88536", "lng": "14.51071"}, {"country": "AT", "name": "Gutenstein", "lat": "47.876", "lng": "15.88881"}, {"country": "AT", "name": "Gutenbrunn", "lat": "48.3652", "lng": "15.11899"}, {"country": "AT", "name": "Gutau", "lat": "48.41724", "lng": "14.61285"}, {"country": "AT", "name": "G\u00fcssing", "lat": "47.05936", "lng": "16.32431"}, {"country": "AT", "name": "Gurk", "lat": "46.87389", "lng": "14.29167"}, {"country": "AT", "name": "Guntramsdorf", "lat": "48.04687", "lng": "16.31384"}, {"country": "AT", "name": "Guntersdorf", "lat": "48.65", "lng": "16.05"}, {"country": "AT", "name": "Gunskirchen", "lat": "48.13333", "lng": "13.95"}, {"country": "AT", "name": "G\u00fcnselsdorf", "lat": "47.94395", "lng": "16.26062"}, {"country": "AT", "name": "Gundersdorf", "lat": "46.95", "lng": "15.23333"}, {"country": "AT", "name": "Gumpoldskirchen", "lat": "48.04538", "lng": "16.2771"}, {"country": "AT", "name": "Gschwandt", "lat": "47.93515", "lng": "13.84569"}, {"country": "AT", "name": "Gr\u00fcnbach am Schneeberg", "lat": "47.79747", "lng": "15.98785"}, {"country": "AT", "name": "Gr\u00fcnau im Almtal", "lat": "47.85493", "lng": "13.95573"}, {"country": "AT", "name": "Gro\u00dfweikersdorf", "lat": "48.47123", "lng": "15.98251"}, {"country": "AT", "name": "Gro\u00dfs\u00f6lk", "lat": "47.41667", "lng": "13.96667"}, {"country": "AT", "name": "Gro\u00df-Siegharts", "lat": "48.7918", "lng": "15.40429"}, {"country": "AT", "name": "Gro\u00df-Schweinbarth", "lat": "48.41472", "lng": "16.63194"}, {"country": "AT", "name": "Gro\u00df Sankt Florian", "lat": "46.82444", "lng": "15.31861"}, {"country": "AT", "name": "Gro\u00dfru\u00dfbach", "lat": "48.47412", "lng": "16.41649"}, {"country": "AT", "name": "Gro\u00dfriedenthal", "lat": "48.48333", "lng": "15.86667"}, {"country": "AT", "name": "Grosspetersdorf", "lat": "47.23895", "lng": "16.31783"}, {"country": "AT", "name": "Gro\u00dfmugl", "lat": "48.49917", "lng": "16.23056"}, {"country": "AT", "name": "Gro\u00dflobming", "lat": "47.18333", "lng": "14.8"}, {"country": "AT", "name": "Gro\u00dfkrut", "lat": "48.64389", "lng": "16.72361"}, {"country": "AT", "name": "Gro\u00dfklein", "lat": "46.73611", "lng": "15.44444"}, {"country": "AT", "name": "Gro\u00dfhofen", "lat": "48.25834", "lng": "16.6194"}, {"country": "AT", "name": "Gro\u00dfharras", "lat": "48.66389", "lng": "16.24556"}, {"country": "AT", "name": "Gro\u00df-Gerungs", "lat": "48.57422", "lng": "14.95789"}, {"country": "AT", "name": "Gro\u00df-Enzersdorf", "lat": "48.20278", "lng": "16.55083"}, {"country": "AT", "name": "Gro\u00df-Engersdorf", "lat": "48.35873", "lng": "16.5661"}, {"country": "AT", "name": "Gro\u00dfebersdorf", "lat": "48.36405", "lng": "16.47076"}, {"country": "AT", "name": "Gr\u00f6dig", "lat": "47.73833", "lng": "13.0373"}, {"country": "AT", "name": "Gr\u00f6bming", "lat": "47.44272", "lng": "13.90122"}, {"country": "AT", "name": "Grins", "lat": "47.14034", "lng": "10.51409"}, {"country": "AT", "name": "Grimmenstein", "lat": "47.61635", "lng": "16.12724"}, {"country": "AT", "name": "Griffen", "lat": "46.70444", "lng": "14.73278"}, {"country": "AT", "name": "Grieskirchen", "lat": "48.23333", "lng": "13.83333"}, {"country": "AT", "name": "Gries im Sellrain", "lat": "47.19554", "lng": "11.15619"}, {"country": "AT", "name": "Gries am Brenner", "lat": "47.03849", "lng": "11.48131"}, {"country": "AT", "name": "Gresten", "lat": "47.98521", "lng": "15.02552"}, {"country": "AT", "name": "Gressenberg", "lat": "46.8", "lng": "15.11667"}, {"country": "AT", "name": "Greisdorf", "lat": "46.91667", "lng": "15.21667"}, {"country": "AT", "name": "Greifenburg", "lat": "46.75027", "lng": "13.17982"}, {"country": "AT", "name": "Graz", "lat": "47.06667", "lng": "15.45"}, {"country": "AT", "name": "Gratwein", "lat": "47.11667", "lng": "15.31667"}, {"country": "AT", "name": "Gratkorn", "lat": "47.13333", "lng": "15.35"}, {"country": "AT", "name": "Gr\u00e4n", "lat": "47.5", "lng": "10.55"}, {"country": "AT", "name": "Grambach", "lat": "47.01667", "lng": "15.5"}, {"country": "AT", "name": "Gramatneusiedl", "lat": "48.0304", "lng": "16.48936"}, {"country": "AT", "name": "Gramastetten", "lat": "48.38028", "lng": "14.19185"}, {"country": "AT", "name": "Gramais", "lat": "47.26667", "lng": "10.53333"}, {"country": "AT", "name": "Grafenw\u00f6rth", "lat": "48.4079", "lng": "15.77826"}, {"country": "AT", "name": "Grafenstein", "lat": "46.61393", "lng": "14.46719"}, {"country": "AT", "name": "Grafenschlag", "lat": "48.5", "lng": "15.16667"}, {"country": "AT", "name": "Grafenschachen", "lat": "47.36667", "lng": "16.06667"}, {"country": "AT", "name": "Grafenegg", "lat": "48.4304", "lng": "15.74907"}, {"country": "AT", "name": "Grafendorf bei Hartberg", "lat": "47.34028", "lng": "15.9906"}, {"country": "AT", "name": "Grabersdorf", "lat": "46.84306", "lng": "15.82472"}, {"country": "AT", "name": "G\u00f6tzis", "lat": "47.33306", "lng": "9.63306"}, {"country": "AT", "name": "G\u00f6tzens", "lat": "47.23606", "lng": "11.31154"}, {"country": "AT", "name": "G\u00f6tzendorf an der Leitha", "lat": "48.01667", "lng": "16.58333"}, {"country": "AT", "name": "G\u00f6stling an der Ybbs", "lat": "47.80664", "lng": "14.93797"}, {"country": "AT", "name": "G\u00f6sting", "lat": "47.09788", "lng": "15.39777"}, {"country": "AT", "name": "G\u00f6ssendorf", "lat": "46.98333", "lng": "15.48333"}, {"country": "AT", "name": "Gossendorf", "lat": "46.91076", "lng": "15.93043"}, {"country": "AT", "name": "G\u00f6ssenberg", "lat": "47.41667", "lng": "13.81667"}, {"country": "AT", "name": "Gosdorf", "lat": "46.72778", "lng": "15.7925"}, {"country": "AT", "name": "G\u00f6pfritz an der Wild", "lat": "48.72497", "lng": "15.40236"}, {"country": "AT", "name": "Gols", "lat": "47.89689", "lng": "16.91113"}, {"country": "AT", "name": "Golling an der Salzach", "lat": "47.6", "lng": "13.16667"}, {"country": "AT", "name": "G\u00f6llersdorf", "lat": "48.49357", "lng": "16.11943"}, {"country": "AT", "name": "Goldw\u00f6rth", "lat": "48.32664", "lng": "14.10112"}, {"country": "AT", "name": "Goldegg", "lat": "47.31875", "lng": "13.09922"}, {"country": "AT", "name": "Going", "lat": "47.51332", "lng": "12.33164"}, {"country": "AT", "name": "G\u00f6fis", "lat": "47.23356", "lng": "9.63458"}, {"country": "AT", "name": "Gnesau", "lat": "46.77544", "lng": "13.96251"}, {"country": "AT", "name": "Gnas", "lat": "46.87306", "lng": "15.82528"}, {"country": "AT", "name": "Gnadendorf", "lat": "48.61667", "lng": "16.4"}, {"country": "AT", "name": "Gmunden", "lat": "47.91839", "lng": "13.79933"}, {"country": "AT", "name": "Gm\u00fcnd", "lat": "48.7683", "lng": "14.9808"}, {"country": "AT", "name": "Gm\u00fcnd", "lat": "46.90722", "lng": "13.52944"}, {"country": "AT", "name": "Glojach", "lat": "46.86667", "lng": "15.66667"}, {"country": "AT", "name": "Gloggnitz", "lat": "47.67487", "lng": "15.93893"}, {"country": "AT", "name": "Gl\u00f6dnitz", "lat": "46.87398", "lng": "14.11915"}, {"country": "AT", "name": "Globasnitz", "lat": "46.55694", "lng": "14.70278"}, {"country": "AT", "name": "Glinzendorf", "lat": "48.24605", "lng": "16.6406"}, {"country": "AT", "name": "Gleisdorf", "lat": "47.10559", "lng": "15.71011"}, {"country": "AT", "name": "Gleinst\u00e4tten", "lat": "46.75361", "lng": "15.36972"}, {"country": "AT", "name": "Glanegg", "lat": "46.72259", "lng": "14.19893"}, {"country": "AT", "name": "Gie\u00dfh\u00fcbl", "lat": "48.0978", "lng": "16.23479"}, {"country": "AT", "name": "Gf\u00f6hl", "lat": "48.51667", "lng": "15.48333"}, {"country": "AT", "name": "Gersdorf an der Feistritz", "lat": "47.16667", "lng": "15.85"}, {"country": "AT", "name": "Gerolding", "lat": "48.25", "lng": "15.41667"}, {"country": "AT", "name": "Gerersdorf", "lat": "48.20088", "lng": "15.55613"}, {"country": "AT", "name": "Gerasdorf bei Wien", "lat": "48.29447", "lng": "16.46765"}, {"country": "AT", "name": "Geras", "lat": "48.79725", "lng": "15.67268"}, {"country": "AT", "name": "Geistthal", "lat": "47.16667", "lng": "15.16667"}, {"country": "AT", "name": "Gedersdorf", "lat": "48.43319", "lng": "15.68865"}, {"country": "AT", "name": "Geboltskirchen", "lat": "48.15338", "lng": "13.6336"}, {"country": "AT", "name": "Gaweinstal", "lat": "48.48003", "lng": "16.5879"}, {"country": "AT", "name": "Gaubitsch", "lat": "48.65", "lng": "16.38333"}, {"country": "AT", "name": "Gattendorf", "lat": "48.01667", "lng": "16.98333"}, {"country": "AT", "name": "Gastern", "lat": "48.89446", "lng": "15.22027"}, {"country": "AT", "name": "Gasen", "lat": "47.38333", "lng": "15.56667"}, {"country": "AT", "name": "Gaschurn", "lat": "46.98584", "lng": "10.02702"}, {"country": "AT", "name": "Garsten", "lat": "48.0224", "lng": "14.40747"}, {"country": "AT", "name": "Gars am Kamp", "lat": "48.58899", "lng": "15.65363"}, {"country": "AT", "name": "Garanas", "lat": "46.76667", "lng": "15.11667"}, {"country": "AT", "name": "Ganz", "lat": "47.6", "lng": "15.68333"}, {"country": "AT", "name": "G\u00e4nserndorf", "lat": "48.33925", "lng": "16.72016"}, {"country": "AT", "name": "Gams bei Hieflau", "lat": "47.66667", "lng": "14.78333"}, {"country": "AT", "name": "Gampern", "lat": "47.98877", "lng": "13.5543"}, {"country": "AT", "name": "Gamlitz", "lat": "46.72028", "lng": "15.55333"}, {"country": "AT", "name": "Gaming", "lat": "47.929", "lng": "15.08818"}, {"country": "AT", "name": "Galt\u00fcr", "lat": "46.96667", "lng": "10.18333"}, {"country": "AT", "name": "Gallzein", "lat": "47.36807", "lng": "11.77159"}, {"country": "AT", "name": "Gallneukirchen", "lat": "48.35363", "lng": "14.41604"}, {"country": "AT", "name": "Gallmannsegg", "lat": "47.18333", "lng": "15.06667"}, {"country": "AT", "name": "Gallizien", "lat": "46.55", "lng": "14.51667"}, {"country": "AT", "name": "Gai\u00dfau", "lat": "47.46667", "lng": "9.6"}, {"country": "AT", "name": "Gaflenz", "lat": "47.89511", "lng": "14.72477"}, {"country": "AT", "name": "Gablitz", "lat": "48.22856", "lng": "16.15437"}, {"country": "AT", "name": "Gabersdorf", "lat": "46.77722", "lng": "15.58417"}, {"country": "AT", "name": "Gaal", "lat": "47.27268", "lng": "14.67003"}, {"country": "AT", "name": "Gaaden", "lat": "48.05364", "lng": "16.20003"}, {"country": "AT", "name": "Gschnitz", "lat": "47.04469", "lng": "11.35089"}, {"country": "AT", "name": "Gnadenwald", "lat": "47.31667", "lng": "11.56667"}, {"country": "AT", "name": "Gerlosberg", "lat": "47.21667", "lng": "11.93333"}, {"country": "AT", "name": "Gerlos", "lat": "47.22464", "lng": "12.03012"}, {"country": "AT", "name": "Gro\u00dfkirchheim", "lat": "46.9727", "lng": "12.89589"}, {"country": "AT", "name": "Gralla", "lat": "46.81404", "lng": "15.5551"}, {"country": "AU", "name": "Gumeracha", "lat": "-34.82388", "lng": "138.88467"}, {"country": "AU", "name": "Guildford", "lat": "-31.9", "lng": "115.96667"}, {"country": "AU", "name": "Greenmount", "lat": "-31.90072", "lng": "116.0495"}, {"country": "AU", "name": "Grasmere", "lat": "-35.01806", "lng": "117.75556"}, {"country": "AU", "name": "Grange", "lat": "-34.90223", "lng": "138.49022"}, {"country": "AU", "name": "Gosnells", "lat": "-32.081", "lng": "116.0054"}, {"country": "AU", "name": "Gooseberry Hill", "lat": "-31.95444", "lng": "116.0492"}, {"country": "AU", "name": "Goolwa", "lat": "-35.50159", "lng": "138.78191"}, {"country": "AU", "name": "Golden Grove", "lat": "-34.78333", "lng": "138.73333"}, {"country": "AU", "name": "Glenelg", "lat": "-34.98079", "lng": "138.515"}, {"country": "AU", "name": "Gilles Plains", "lat": "-34.85", "lng": "138.65"}, {"country": "AU", "name": "Geraldton", "lat": "-28.77897", "lng": "114.61459"}, {"country": "AU", "name": "Gawler", "lat": "-34.60251", "lng": "138.74902"}, {"country": "AU", "name": "Glen Iris", "lat": "-33.33713", "lng": "115.6743"}, {"country": "AU", "name": "Gympie", "lat": "-26.18979", "lng": "152.66499"}, {"country": "AU", "name": "Guyra", "lat": "-30.2168", "lng": "151.66785"}, {"country": "AU", "name": "Gunnedah", "lat": "-30.98065", "lng": "150.25838"}, {"country": "AU", "name": "Gundaroo", "lat": "-35.03333", "lng": "149.25"}, {"country": "AU", "name": "Gundagai", "lat": "-35.06352", "lng": "148.10365"}, {"country": "AU", "name": "Gulgong", "lat": "-32.36253", "lng": "149.53201"}, {"country": "AU", "name": "Grovedale", "lat": "-38.2", "lng": "144.35"}, {"country": "AU", "name": "Griffith", "lat": "-34.28853", "lng": "146.05093"}, {"country": "AU", "name": "Greta", "lat": "-32.67783", "lng": "151.38924"}, {"country": "AU", "name": "Grenfell", "lat": "-33.89549", "lng": "148.16438"}, {"country": "AU", "name": "Greenwell Point", "lat": "-34.90751", "lng": "150.73113"}, {"country": "AU", "name": "Greenvale", "lat": "-37.63333", "lng": "144.86667"}, {"country": "AU", "name": "Greensborough", "lat": "-37.70462", "lng": "145.10302"}, {"country": "AU", "name": "Granville", "lat": "-33.83333", "lng": "151.01667"}, {"country": "AU", "name": "Granton", "lat": "-42.75149", "lng": "147.22795"}, {"country": "AU", "name": "Grafton", "lat": "-29.68104", "lng": "152.93394"}, {"country": "AU", "name": "Goulburn", "lat": "-34.75155", "lng": "149.72086"}, {"country": "AU", "name": "Gosford", "lat": "-33.4244", "lng": "151.34399"}, {"country": "AU", "name": "Gorokan", "lat": "-33.25764", "lng": "151.5097"}, {"country": "AU", "name": "Gordon", "lat": "-29.3", "lng": "152.71667"}, {"country": "AU", "name": "Goonellabah", "lat": "-28.81667", "lng": "153.31667"}, {"country": "AU", "name": "Goondiwindi", "lat": "-28.54709", "lng": "150.30546"}, {"country": "AU", "name": "Goodna", "lat": "-27.61046", "lng": "152.89896"}, {"country": "AU", "name": "Gol Gol", "lat": "-34.17388", "lng": "142.22187"}, {"country": "AU", "name": "Gold Coast", "lat": "-28.00029", "lng": "153.43088"}, {"country": "AU", "name": "Gloucester", "lat": "-32.0077", "lng": "151.9633"}, {"country": "AU", "name": "Glenroy", "lat": "-37.7", "lng": "144.93333"}, {"country": "AU", "name": "Glenorie", "lat": "-33.60177", "lng": "151.00886"}, {"country": "AU", "name": "Glenorchy", "lat": "-42.83343", "lng": "147.27593"}, {"country": "AU", "name": "Glen Innes", "lat": "-29.73485", "lng": "151.7385"}, {"country": "AU", "name": "Glen Huntly", "lat": "-37.88333", "lng": "145.05"}, {"country": "AU", "name": "Glenhaven", "lat": "-33.7", "lng": "151"}, {"country": "AU", "name": "Glenfield", "lat": "-33.96667", "lng": "150.9"}, {"country": "AU", "name": "Glenferrie", "lat": "-37.83333", "lng": "145.05"}, {"country": "AU", "name": "Glenbrook", "lat": "-33.76667", "lng": "150.61667"}, {"country": "AU", "name": "Gladstone", "lat": "-23.84852", "lng": "151.25775"}, {"country": "AU", "name": "Gilgandra", "lat": "-31.71173", "lng": "148.66252"}, {"country": "AU", "name": "Gilgai", "lat": "-29.8527", "lng": "151.11806"}, {"country": "AU", "name": "Gerringong", "lat": "-34.74702", "lng": "150.82809"}, {"country": "AU", "name": "George Town", "lat": "-41.10559", "lng": "146.82606"}, {"country": "AU", "name": "Gembrook", "lat": "-37.95321", "lng": "145.55536"}, {"country": "AU", "name": "Geeveston", "lat": "-43.16337", "lng": "146.92549"}, {"country": "AU", "name": "Geelong West", "lat": "-38.13888", "lng": "144.34842"}, {"country": "AU", "name": "Geelong", "lat": "-38.14711", "lng": "144.36069"}, {"country": "AU", "name": "Gayndah", "lat": "-25.62522", "lng": "151.61144"}, {"country": "AU", "name": "Gatton", "lat": "-27.55873", "lng": "152.27618"}, {"country": "AU", "name": "Garfield", "lat": "-38.08985", "lng": "145.67502"}, {"country": "AU", "name": "Galston", "lat": "-33.65297", "lng": "151.04713"}, {"country": "AU", "name": "Gymea", "lat": "-34.03637", "lng": "151.08528"}, {"country": "AU", "name": "Gymea Bay", "lat": "-34.05209", "lng": "151.08795"}, {"country": "AU", "name": "Grays Point", "lat": "-34.05873", "lng": "151.08604"}, {"country": "AU", "name": "Goodwood", "lat": "-42.82822", "lng": "147.29301"}, {"country": "AU", "name": "Gwynneville", "lat": "-34.41667", "lng": "150.8875"}, {"country": "AU", "name": "Greenwich", "lat": "-33.83954", "lng": "151.183"}, {"country": "AU", "name": "Gladesville", "lat": "-33.83333", "lng": "151.13333"}, {"country": "AU", "name": "Gladstone Park", "lat": "-37.68742", "lng": "144.88675"}, {"country": "AU", "name": "Girraween", "lat": "-33.799", "lng": "150.943"}, {"country": "AU", "name": "Glenmore Park", "lat": "-33.79068", "lng": "150.6693"}, {"country": "AU", "name": "Glen Iris", "lat": "-37.85995", "lng": "145.05489"}, {"country": "AU", "name": "Golden Point", "lat": "-37.57493", "lng": "143.8687"}, {"country": "AU", "name": "Glendenning", "lat": "-33.7483", "lng": "150.85411"}, {"country": "AU", "name": "Greystanes", "lat": "-33.82346", "lng": "150.94607"}, {"country": "AU", "name": "Golden Square", "lat": "-36.77265", "lng": "144.25271"}, {"country": "AU", "name": "Grange", "lat": "-27.42251", "lng": "153.01527"}, {"country": "AU", "name": "Gordon Park", "lat": "-27.41899", "lng": "153.02547"}, {"country": "AU", "name": "Greenslopes", "lat": "-27.50815", "lng": "153.04951"}, {"country": "AU", "name": "Gowanbrae", "lat": "-37.70823", "lng": "144.89079"}, {"country": "AU", "name": "Glen Alpine", "lat": "-34.086", "lng": "150.78512"}, {"country": "AU", "name": "Guildford West", "lat": "-33.85242", "lng": "150.97395"}, {"country": "AU", "name": "Glenunga", "lat": "-34.95013", "lng": "138.63841"}, {"country": "AU", "name": "Glenelg East", "lat": "-34.9764", "lng": "138.52962"}, {"country": "AU", "name": "Garden Suburb", "lat": "-32.94368", "lng": "151.68085"}, {"country": "AU", "name": "Gateshead", "lat": "-32.98208", "lng": "151.69188"}, {"country": "AU", "name": "Glendale", "lat": "-32.93194", "lng": "151.64103"}, {"country": "AX", "name": "Geta", "lat": "60.37453", "lng": "19.84455"}, {"country": "AZ", "name": "Gyuzdek", "lat": "40.37444", "lng": "49.68194"}, {"country": "AZ", "name": "Geoktschai", "lat": "40.65055", "lng": "47.74219"}, {"country": "AZ", "name": "Goranboy", "lat": "40.61028", "lng": "46.78972"}, {"country": "AZ", "name": "Ganja", "lat": "40.68278", "lng": "46.36056"}, {"country": "BA", "name": "Grude", "lat": "43.37208", "lng": "17.41449"}, {"country": "BA", "name": "Gromiljak", "lat": "43.96668", "lng": "18.05504"}, {"country": "BA", "name": "Grada\u010dac", "lat": "44.87851", "lng": "18.42764"}, {"country": "BA", "name": "Gra\u010danica", "lat": "44.70307", "lng": "18.3101"}, {"country": "BA", "name": "Gra\u010danica", "lat": "43.73333", "lng": "18.28333"}, {"country": "BA", "name": "Gostovi\u0107i", "lat": "44.41124", "lng": "18.17029"}, {"country": "BA", "name": "Gornji Vakuf", "lat": "43.93806", "lng": "17.58833"}, {"country": "BA", "name": "Gornji Ribnik", "lat": "44.41752", "lng": "16.8169"}, {"country": "BA", "name": "Gornje \u017divinice", "lat": "44.42921", "lng": "18.61667"}, {"country": "BA", "name": "Gornje Mo\u0161tre", "lat": "44.01911", "lng": "18.15477"}, {"country": "BA", "name": "Gornja Tuzla", "lat": "44.55659", "lng": "18.76159"}, {"country": "BA", "name": "Gornja Koprivna", "lat": "45.01091", "lng": "15.95487"}, {"country": "BA", "name": "Gora\u017ede", "lat": "43.66795", "lng": "18.97564"}, {"country": "BA", "name": "Gnojnica", "lat": "44.62058", "lng": "18.44684"}, {"country": "BA", "name": "Glamo\u010d", "lat": "44.04583", "lng": "16.84861"}, {"country": "BA", "name": "Gacko", "lat": "43.16722", "lng": "18.53528"}, {"country": "BA", "name": "Gradi\u0161ka", "lat": "45.14484", "lng": "17.25453"}, {"country": "BA", "name": "Gornja Breza", "lat": "44.03758", "lng": "18.24564"}, {"country": "BB", "name": "Greenland", "lat": "13.25808", "lng": "-59.57763"}, {"country": "BD", "name": "Gaurnadi", "lat": "22.97372", "lng": "90.22376"}, {"country": "BD", "name": "Gafargaon", "lat": "24.432", "lng": "90.5585"}, {"country": "BD", "name": "Gaibandha", "lat": "25.3293", "lng": "89.5438"}, {"country": "BE", "name": "Grobbendonk", "lat": "51.19043", "lng": "4.73562"}, {"country": "BE", "name": "Grimbergen", "lat": "50.93409", "lng": "4.37213"}, {"country": "BE", "name": "Grez-Doiceau", "lat": "50.73901", "lng": "4.69829"}, {"country": "BE", "name": "Gouvy", "lat": "50.186", "lng": "5.93917"}, {"country": "BE", "name": "Gooik", "lat": "50.79443", "lng": "4.11378"}, {"country": "BE", "name": "Glabbeek-Zuurbemde", "lat": "50.87348", "lng": "4.94442"}, {"country": "BE", "name": "Gistel", "lat": "51.15612", "lng": "2.96387"}, {"country": "BE", "name": "Gingelom", "lat": "50.74792", "lng": "5.13422"}, {"country": "BE", "name": "Gesves", "lat": "50.40146", "lng": "5.07457"}, {"country": "BE", "name": "Gerpinnes", "lat": "50.33789", "lng": "4.52731"}, {"country": "BE", "name": "Geraardsbergen", "lat": "50.77343", "lng": "3.88223"}, {"country": "BE", "name": "Gent", "lat": "51.05", "lng": "3.71667"}, {"country": "BE", "name": "Genk", "lat": "50.965", "lng": "5.50082"}, {"country": "BE", "name": "Genappe", "lat": "50.61173", "lng": "4.45152"}, {"country": "BE", "name": "Gembloux", "lat": "50.56149", "lng": "4.69889"}, {"country": "BE", "name": "Geetbets", "lat": "50.89431", "lng": "5.11199"}, {"country": "BE", "name": "Geer", "lat": "50.6699", "lng": "5.17364"}, {"country": "BE", "name": "Geel", "lat": "51.16557", "lng": "4.98917"}, {"country": "BE", "name": "Gedinne", "lat": "49.98037", "lng": "4.93674"}, {"country": "BE", "name": "Gavere", "lat": "50.92917", "lng": "3.66184"}, {"country": "BE", "name": "Galmaarden", "lat": "50.75389", "lng": "3.97121"}, {"country": "BF", "name": "Gourcy", "lat": "13.20776", "lng": "-2.35893"}, {"country": "BF", "name": "Goulour\u00e9", "lat": "12.2276", "lng": "-1.92922"}, {"country": "BF", "name": "Gorom-Gorom", "lat": "14.4429", "lng": "-0.23468"}, {"country": "BF", "name": "Gay\u00e9ri", "lat": "12.64824", "lng": "0.49314"}, {"country": "BF", "name": "Garango", "lat": "11.8", "lng": "-0.55056"}, {"country": "BF", "name": "Gaoua", "lat": "10.29917", "lng": "-3.25083"}, {"country": "BG", "name": "Garmen", "lat": "41.6", "lng": "23.81667"}, {"country": "BG", "name": "Gurkovo", "lat": "42.66667", "lng": "25.8"}, {"country": "BG", "name": "Gulyantsi", "lat": "43.64109", "lng": "24.69368"}, {"country": "BG", "name": "G\u016dl\u016dbovo", "lat": "42.13333", "lng": "25.85"}, {"country": "BG", "name": "Gramada", "lat": "43.83738", "lng": "22.65279"}, {"country": "BG", "name": "Gyovren", "lat": "41.66326", "lng": "24.37557"}, {"country": "BG", "name": "Gotse Delchev", "lat": "41.56667", "lng": "23.73333"}, {"country": "BG", "name": "Gorna Oryahovitsa", "lat": "43.12778", "lng": "25.70167"}, {"country": "BG", "name": "Gorna Malina", "lat": "42.68333", "lng": "23.7"}, {"country": "BG", "name": "Gorichevo", "lat": "43.85", "lng": "26.45"}, {"country": "BG", "name": "Godech", "lat": "43.01682", "lng": "23.04852"}, {"country": "BG", "name": "Glavinitsa", "lat": "43.91667", "lng": "26.83333"}, {"country": "BG", "name": "General Toshevo", "lat": "43.70123", "lng": "28.03787"}, {"country": "BG", "name": "Gara Hitrino", "lat": "43.43333", "lng": "26.91667"}, {"country": "BG", "name": "Gabrovo", "lat": "42.87472", "lng": "25.33417"}, {"country": "BG", "name": "Gabrovo", "lat": "41.8", "lng": "25.26667"}, {"country": "BI", "name": "Gitega", "lat": "-3.4264", "lng": "29.9308"}, {"country": "BJ", "name": "Guilmaro", "lat": "10.56583", "lng": "1.72444"}, {"country": "BJ", "name": "Grand-Popo", "lat": "6.28036", "lng": "1.82251"}, {"country": "BL", "name": "Gustavia", "lat": "17.89618", "lng": "-62.84978"}, {"country": "BO", "name": "Guayaramer\u00edn", "lat": "-10.8258", "lng": "-65.3581"}, {"country": "BO", "name": "Guanay", "lat": "-15.49756", "lng": "-67.88332"}, {"country": "BR", "name": "Girau do Ponciano", "lat": "-9.88417", "lng": "-36.82889"}, {"country": "BR", "name": "Gurup\u00e1", "lat": "-1.405", "lng": "-51.64"}, {"country": "BR", "name": "Gurinh\u00e9m", "lat": "-7.12389", "lng": "-35.42444"}, {"country": "BR", "name": "Guaraciaba do Norte", "lat": "-4.16694", "lng": "-40.7475"}, {"country": "BR", "name": "Guarabira", "lat": "-6.85472", "lng": "-35.49"}, {"country": "BR", "name": "Guajar\u00e1", "lat": "-2.96667", "lng": "-57.66667"}, {"country": "BR", "name": "Guai\u00faba", "lat": "-4.03972", "lng": "-38.63722"}, {"country": "BR", "name": "Guabiraba", "lat": "-8.41667", "lng": "-35.66667"}, {"country": "BR", "name": "Gravat\u00e1", "lat": "-8.20111", "lng": "-35.56472"}, {"country": "BR", "name": "Granja", "lat": "-3.12028", "lng": "-40.82611"}, {"country": "BR", "name": "Graja\u00fa", "lat": "-5.81944", "lng": "-46.13861"}, {"country": "BR", "name": "Governador Dix Sept Rosado", "lat": "-5.45889", "lng": "-37.52083"}, {"country": "BR", "name": "Goianinha", "lat": "-6.26472", "lng": "-35.2125"}, {"country": "BR", "name": "Goiana", "lat": "-7.56056", "lng": "-35.0025"}, {"country": "BR", "name": "Gl\u00f3ria do Goit\u00e1", "lat": "-8.00167", "lng": "-35.29278"}, {"country": "BR", "name": "Gilbu\u00e9s", "lat": "-9.83167", "lng": "-45.34389"}, {"country": "BR", "name": "Gararu", "lat": "-9.9675", "lng": "-37.08333"}, {"country": "BR", "name": "Garanhuns", "lat": "-8.88202", "lng": "-36.50216"}, {"country": "BR", "name": "Gameleira", "lat": "-8.58444", "lng": "-35.38667"}, {"country": "BR", "name": "Gurupi", "lat": "-11.72917", "lng": "-49.06861"}, {"country": "BR", "name": "Guiratinga", "lat": "-16.34534", "lng": "-53.76177"}, {"country": "BR", "name": "Guia Lopes da Laguna", "lat": "-21.45778", "lng": "-56.11417"}, {"country": "BR", "name": "Guaxup\u00e9", "lat": "-21.30528", "lng": "-46.71278"}, {"country": "BR", "name": "Guarulhos", "lat": "-23.46278", "lng": "-46.53333"}, {"country": "BR", "name": "Guaruj\u00e1", "lat": "-23.99306", "lng": "-46.25639"}, {"country": "BR", "name": "Guariba", "lat": "-21.36", "lng": "-48.22833"}, {"country": "BR", "name": "Guaratuba", "lat": "-25.88278", "lng": "-48.57472"}, {"country": "BR", "name": "Guaratinguet\u00e1", "lat": "-22.81639", "lng": "-45.1925"}, {"country": "BR", "name": "Guaratinga", "lat": "-16.58564", "lng": "-39.78189"}, {"country": "BR", "name": "Guararema", "lat": "-23.415", "lng": "-46.035"}, {"country": "BR", "name": "Guararapes", "lat": "-21.26083", "lng": "-50.64278"}, {"country": "BR", "name": "Guarapuava", "lat": "-25.39048", "lng": "-51.46541"}, {"country": "BR", "name": "Guarapari", "lat": "-20.67182", "lng": "-40.50196"}, {"country": "BR", "name": "Guarania\u00e7u", "lat": "-25.10083", "lng": "-52.87806"}, {"country": "BR", "name": "Guaran\u00e9sia", "lat": "-21.29917", "lng": "-46.8025"}, {"country": "BR", "name": "Guaramirim", "lat": "-26.47306", "lng": "-49.00278"}, {"country": "BR", "name": "Guar\u00e1", "lat": "-20.42833", "lng": "-47.82417"}, {"country": "BR", "name": "Guapor\u00e9", "lat": "-28.84556", "lng": "-51.89028"}, {"country": "BR", "name": "Guap\u00f3", "lat": "-16.83056", "lng": "-49.53194"}, {"country": "BR", "name": "Guapimirim", "lat": "-22.53722", "lng": "-42.98194"}, {"country": "BR", "name": "Guapia\u00e7u", "lat": "-20.795", "lng": "-49.22028"}, {"country": "BR", "name": "Guanh\u00e3es", "lat": "-18.775", "lng": "-42.9325"}, {"country": "BR", "name": "Guanambi", "lat": "-14.22333", "lng": "-42.78139"}, {"country": "BR", "name": "Gua\u00edra", "lat": "-20.31833", "lng": "-48.31056"}, {"country": "BR", "name": "Gua\u00e7u\u00ed", "lat": "-20.77556", "lng": "-41.67944"}, {"country": "BR", "name": "Gravata\u00ed", "lat": "-29.94218", "lng": "-50.99278"}, {"country": "BR", "name": "Governador Valadares", "lat": "-18.85111", "lng": "-41.94944"}, {"country": "BR", "name": "Goiatuba", "lat": "-18.0125", "lng": "-49.35472"}, {"country": "BR", "name": "Goi\u00e1s", "lat": "-15.93444", "lng": "-50.14028"}, {"country": "BR", "name": "Goianira", "lat": "-16.49611", "lng": "-49.42639"}, {"country": "BR", "name": "Goi\u00e2nia", "lat": "-16.67861", "lng": "-49.25389"}, {"country": "BR", "name": "Goian\u00e9sia", "lat": "-15.3175", "lng": "-49.1175"}, {"country": "BR", "name": "Goian\u00e1polis", "lat": "-16.51056", "lng": "-49.02389"}, {"country": "BR", "name": "Giru\u00e1", "lat": "-28.02833", "lng": "-54.34972"}, {"country": "BR", "name": "General Salgado", "lat": "-20.64833", "lng": "-50.36056"}, {"country": "BR", "name": "Gaspar", "lat": "-26.93139", "lng": "-48.95889"}, {"country": "BR", "name": "Garibaldi", "lat": "-29.25611", "lng": "-51.53361"}, {"country": "BR", "name": "Gar\u00e7a", "lat": "-22.21056", "lng": "-49.65611"}, {"country": "BR", "name": "Gandu", "lat": "-13.74389", "lng": "-39.48667"}, {"country": "BR", "name": "Gua\u00edba", "lat": "-30.11389", "lng": "-51.325"}, {"country": "BR", "name": "Guajar\u00e1 Mirim", "lat": "-10.78356", "lng": "-65.33552"}, {"country": "BS", "name": "Governor\u2019s Harbour", "lat": "25.16667", "lng": "-76.23333"}, {"country": "BS", "name": "George Town", "lat": "23.51616", "lng": "-75.78665"}, {"country": "BT", "name": "Gasa", "lat": "27.90372", "lng": "89.72689"}, {"country": "BW", "name": "Gweta", "lat": "-20.18333", "lng": "25.23333"}, {"country": "BW", "name": "Gobojango", "lat": "-21.8327", "lng": "28.72882"}, {"country": "BW", "name": "Ghanzi", "lat": "-21.69785", "lng": "21.64581"}, {"country": "BW", "name": "Gaborone", "lat": "-24.65451", "lng": "25.90859"}, {"country": "BW", "name": "Gabane", "lat": "-24.66667", "lng": "25.78222"}, {"country": "BW", "name": "Gaphatshwe", "lat": "-24.57389", "lng": "25.83417"}, {"country": "BY", "name": "Gomel", "lat": "52.4345", "lng": "30.9754"}, {"country": "CA", "name": "Gambo", "lat": "48.7832", "lng": "-54.21482"}, {"country": "CA", "name": "Gananoque", "lat": "44.33342", "lng": "-76.16607"}, {"country": "CA", "name": "Gasp\u00e9", "lat": "48.83341", "lng": "-64.48194"}, {"country": "CA", "name": "Gatineau", "lat": "45.47723", "lng": "-75.70164"}, {"country": "CA", "name": "Gibbons", "lat": "53.83345", "lng": "-113.33531"}, {"country": "CA", "name": "Gibsons", "lat": "49.39539", "lng": "-123.50555"}, {"country": "CA", "name": "Gimli", "lat": "50.63362", "lng": "-96.99066"}, {"country": "CA", "name": "Gjoa Haven", "lat": "68.62602", "lng": "-95.87836"}, {"country": "CA", "name": "Glace Bay", "lat": "46.19695", "lng": "-59.95698"}, {"country": "CA", "name": "Goderich", "lat": "43.74171", "lng": "-81.71339"}, {"country": "CA", "name": "Golden", "lat": "51.29995", "lng": "-116.9689"}, {"country": "CA", "name": "Granby", "lat": "45.40008", "lng": "-72.73243"}, {"country": "CA", "name": "Grand Bank", "lat": "47.09995", "lng": "-55.76504"}, {"country": "CA", "name": "Grande Cache", "lat": "53.88335", "lng": "-119.13585"}, {"country": "CA", "name": "Grande Prairie", "lat": "55.16667", "lng": "-118.80271"}, {"country": "CA", "name": "Grand Falls-Windsor", "lat": "48.93324", "lng": "-55.66492"}, {"country": "CA", "name": "Grand Forks", "lat": "49.03309", "lng": "-118.4356"}, {"country": "CA", "name": "Greater Sudbury", "lat": "46.49", "lng": "-80.99001"}, {"country": "CA", "name": "Gravelbourg", "lat": "49.88336", "lng": "-106.55122"}, {"country": "CA", "name": "Gravenhurst", "lat": "44.91681", "lng": "-79.36633"}, {"country": "CA", "name": "Greater Napanee", "lat": "44.25012", "lng": "-76.94944"}, {"country": "CA", "name": "Greenstone", "lat": "49.73343", "lng": "-87.16668"}, {"country": "CA", "name": "Greenwood", "lat": "44.97413", "lng": "-64.93169"}, {"country": "CA", "name": "Grimshaw", "lat": "56.18339", "lng": "-117.6027"}, {"country": "CA", "name": "Guelph", "lat": "43.54594", "lng": "-80.25599"}, {"country": "CD", "name": "Goma", "lat": "-1.67409", "lng": "29.22845"}, {"country": "CD", "name": "Gbadolite", "lat": "4.279", "lng": "21.00284"}, {"country": "CD", "name": "Gandajika", "lat": "-6.74504", "lng": "23.95328"}, {"country": "CD", "name": "Gemena", "lat": "3.25651", "lng": "19.77234"}, {"country": "CF", "name": "Gambo", "lat": "4.64816", "lng": "22.26331"}, {"country": "CF", "name": "Gamboula", "lat": "4.11775", "lng": "15.13926"}, {"country": "CG", "name": "Gamboma", "lat": "-1.87639", "lng": "15.86444"}, {"country": "CH", "name": "G\u00fcttingen", "lat": "47.60349", "lng": "9.28742"}, {"country": "CH", "name": "Gunzwil", "lat": "47.21072", "lng": "8.17932"}, {"country": "CH", "name": "Gunzgen", "lat": "47.31375", "lng": "7.83102"}, {"country": "CH", "name": "Guggisberg", "lat": "46.76756", "lng": "7.32946"}, {"country": "CH", "name": "Gstaad", "lat": "46.47215", "lng": "7.28685"}, {"country": "CH", "name": "Gryon", "lat": "46.27377", "lng": "7.05975"}, {"country": "CH", "name": "Gruy\u00e8res", "lat": "46.58338", "lng": "7.08207"}, {"country": "CH", "name": "Gr\u00fcsch", "lat": "46.97965", "lng": "9.64639"}, {"country": "CH", "name": "Grosswangen", "lat": "47.1331", "lng": "8.05041"}, {"country": "CH", "name": "Grossaffoltern", "lat": "47.06534", "lng": "7.35689"}, {"country": "CH", "name": "Gr\u00f4ne", "lat": "46.25288", "lng": "7.45947"}, {"country": "CH", "name": "Grolley", "lat": "46.8336", "lng": "7.07116"}, {"country": "CH", "name": "Grindelwald", "lat": "46.62396", "lng": "8.03601"}, {"country": "CH", "name": "Grimisuat", "lat": "46.25938", "lng": "7.38408"}, {"country": "CH", "name": "Grenchen", "lat": "47.1921", "lng": "7.39586"}, {"country": "CH", "name": "Grellingen", "lat": "47.44231", "lng": "7.58906"}, {"country": "CH", "name": "Greifensee", "lat": "47.36717", "lng": "8.68115"}, {"country": "CH", "name": "Gravesano", "lat": "46.04208", "lng": "8.91832"}, {"country": "CH", "name": "Gr\u00e4nichen", "lat": "47.3593", "lng": "8.10243"}, {"country": "CH", "name": "Grandson", "lat": "46.80946", "lng": "6.646"}, {"country": "CH", "name": "Grand-Savagnier", "lat": "47.05101", "lng": "6.95489"}, {"country": "CH", "name": "Grancy", "lat": "46.59214", "lng": "6.46391"}, {"country": "CH", "name": "Gr\u00e4chen", "lat": "46.19529", "lng": "7.83745"}, {"country": "CH", "name": "Grabs", "lat": "47.18248", "lng": "9.44395"}, {"country": "CH", "name": "Gottlieben", "lat": "47.6638", "lng": "9.13371"}, {"country": "CH", "name": "Gossau", "lat": "47.41551", "lng": "9.25482"}, {"country": "CH", "name": "Gossau", "lat": "47.3051", "lng": "8.75831"}, {"country": "CH", "name": "Gorgier", "lat": "46.90143", "lng": "6.77985"}, {"country": "CH", "name": "Gordola", "lat": "46.18256", "lng": "8.86657"}, {"country": "CH", "name": "Gontenschwil", "lat": "47.27166", "lng": "8.14396"}, {"country": "CH", "name": "Gonten", "lat": "47.32725", "lng": "9.34705"}, {"country": "CH", "name": "Gommiswald", "lat": "47.23128", "lng": "9.02355"}, {"country": "CH", "name": "Goldingen", "lat": "47.26477", "lng": "8.96167"}, {"country": "CH", "name": "Goldau", "lat": "47.04761", "lng": "8.54616"}, {"country": "CH", "name": "Goldach", "lat": "47.47401", "lng": "9.46711"}, {"country": "CH", "name": "Glovelier", "lat": "47.33534", "lng": "7.20556"}, {"country": "CH", "name": "Glattfelden", "lat": "47.55871", "lng": "8.50167"}, {"country": "CH", "name": "Glattbrugg", "lat": "47.4313", "lng": "8.56272"}, {"country": "CH", "name": "Glarus", "lat": "47.04057", "lng": "9.06804"}, {"country": "CH", "name": "Gland", "lat": "46.42082", "lng": "6.2701"}, {"country": "CH", "name": "Giubiasco", "lat": "46.17246", "lng": "9.00793"}, {"country": "CH", "name": "Giswil", "lat": "46.83333", "lng": "8.18065"}, {"country": "CH", "name": "Gipf-Oberfrick", "lat": "47.49875", "lng": "8.00497"}, {"country": "CH", "name": "Gimel", "lat": "46.50945", "lng": "6.30736"}, {"country": "CH", "name": "Giffers", "lat": "46.7623", "lng": "7.20845"}, {"country": "CH", "name": "Geuensee", "lat": "47.1997", "lng": "8.10689"}, {"country": "CH", "name": "Gersau", "lat": "46.99419", "lng": "8.525"}, {"country": "CH", "name": "Gerlafingen", "lat": "47.17087", "lng": "7.57249"}, {"country": "CH", "name": "Genolier", "lat": "46.43537", "lng": "6.21809"}, {"country": "CH", "name": "Gen\u00e8ve", "lat": "46.20222", "lng": "6.14569"}, {"country": "CH", "name": "Gelterkinden", "lat": "47.46497", "lng": "7.85174"}, {"country": "CH", "name": "Gebenstorf", "lat": "47.48136", "lng": "8.23949"}, {"country": "CH", "name": "Ganterschwil", "lat": "47.38103", "lng": "9.09239"}, {"country": "CH", "name": "Gams", "lat": "47.20429", "lng": "9.44172"}, {"country": "CH", "name": "Gampel", "lat": "46.31599", "lng": "7.7421"}, {"country": "CH", "name": "Gais", "lat": "47.3615", "lng": "9.45356"}, {"country": "CH", "name": "Gachnang", "lat": "47.53935", "lng": "8.85311"}, {"country": "CH", "name": "Glattbrugg / Wydacker/Bettacker/L\u00e4ttenwiesen", "lat": "47.42908", "lng": "8.56657"}, {"country": "CH", "name": "Grossacker/Opfikon", "lat": "47.42696", "lng": "8.57886"}, {"country": "CH", "name": "Glattbrugg / Rohr/Platten-Balsberg", "lat": "47.43721", "lng": "8.56642"}, {"country": "CH", "name": "Gr\u00fct", "lat": "47.31151", "lng": "8.78339"}, {"country": "CH", "name": "Gattikon", "lat": "47.28439", "lng": "8.5483"}, {"country": "CH", "name": "Greifensee / M\u00fcllerwis / Seilerwis", "lat": "47.37042", "lng": "8.68151"}, {"country": "CH", "name": "Greifensee / Pfisterh\u00f6lzli", "lat": "47.3643", "lng": "8.68979"}, {"country": "CH", "name": "Gutenswil", "lat": "47.38387", "lng": "8.71763"}, {"country": "CH", "name": "Gockhausen", "lat": "47.38098", "lng": "8.59978"}, {"country": "CH", "name": "Geroldswil", "lat": "47.42213", "lng": "8.41085"}, {"country": "CH", "name": "Givisiez", "lat": "46.81201", "lng": "7.12639"}, {"country": "CH", "name": "Gansingen", "lat": "47.5429", "lng": "8.13516"}, {"country": "CI", "name": "Guitry", "lat": "5.51952", "lng": "-5.24038"}, {"country": "CI", "name": "Guiglo", "lat": "6.54368", "lng": "-7.4935"}, {"country": "CI", "name": "Guib\u00e9roua", "lat": "6.23869", "lng": "-6.17147"}, {"country": "CI", "name": "Gu\u00e9yo", "lat": "5.6882", "lng": "-6.0712"}, {"country": "CI", "name": "Grand-Lahou", "lat": "5.25068", "lng": "-5.00333"}, {"country": "CI", "name": "Grand-Bassam", "lat": "5.2118", "lng": "-3.73884"}, {"country": "CI", "name": "Gb\u00e9l\u00e9ban", "lat": "9.58461", "lng": "-8.13183"}, {"country": "CI", "name": "Gagnoa", "lat": "6.13193", "lng": "-5.9506"}, {"country": "CL", "name": "Graneros", "lat": "-34.06863", "lng": "-70.72747"}, {"country": "CM", "name": "Guider", "lat": "9.9333", "lng": "13.94671"}, {"country": "CM", "name": "Garoua Boula\u00ef", "lat": "5.88333", "lng": "14.55"}, {"country": "CM", "name": "Garoua", "lat": "9.30143", "lng": "13.39771"}, {"country": "CN", "name": "Guma", "lat": "37.6168", "lng": "78.28087"}, {"country": "CN", "name": "Geji", "lat": "32.39545", "lng": "81.13972"}, {"country": "CN", "name": "Gyigang", "lat": "28.66667", "lng": "97.51667"}, {"country": "CN", "name": "Gyangkar", "lat": "28.4", "lng": "87.8"}, {"country": "CN", "name": "Gyamotang", "lat": "31.53333", "lng": "95.43333"}, {"country": "CN", "name": "Golmud", "lat": "36.40672", "lng": "94.90061"}, {"country": "CN", "name": "Gengqing", "lat": "31.81649", "lng": "98.59579"}, {"country": "CN", "name": "Gengma", "lat": "23.52325", "lng": "99.3786"}, {"country": "CN", "name": "Gartog", "lat": "29.68451", "lng": "98.59473"}, {"country": "CN", "name": "Gaotai Chengguanzhen", "lat": "39.34456", "lng": "99.80015"}, {"country": "CN", "name": "Guandou", "lat": "31.37829", "lng": "118.39759"}, {"country": "CN", "name": "Guixi", "lat": "28.28857", "lng": "117.21329"}, {"country": "CN", "name": "Guhan", "lat": "36.53547", "lng": "113.02528"}, {"country": "CN", "name": "Guanghe Chengguanzhen", "lat": "35.48153", "lng": "103.57604"}, {"country": "CN", "name": "Gaolan Chengguanzhen", "lat": "36.33467", "lng": "103.94556"}, {"country": "CN", "name": "Guwei", "lat": "34.71034", "lng": "110.6571"}, {"country": "CN", "name": "Guhuai", "lat": "32.9586", "lng": "114.6255"}, {"country": "CN", "name": "Gutao", "lat": "37.2025", "lng": "112.17806"}, {"country": "CN", "name": "Guanshan", "lat": "37.8081", "lng": "113.597"}, {"country": "CN", "name": "Guang\u2019an", "lat": "30.47413", "lng": "106.63696"}, {"country": "CN", "name": "Guantao", "lat": "36.54099", "lng": "115.28293"}, {"country": "CN", "name": "Gaoyao", "lat": "23.02432", "lng": "112.44555"}, {"country": "CN", "name": "Guankou", "lat": "28.15861", "lng": "113.62709"}, {"country": "CN", "name": "Gujiang", "lat": "35.49399", "lng": "111.55334"}, {"country": "CN", "name": "Gangdong", "lat": "27.91694", "lng": "110.83417"}, {"country": "CN", "name": "Guangyuan", "lat": "32.44201", "lng": "105.823"}, {"country": "CN", "name": "Ganting", "lat": "34.10241", "lng": "108.61406"}, {"country": "CN", "name": "Guzhen Chengguanzhen", "lat": "33.31056", "lng": "117.31056"}, {"country": "CN", "name": "Guyong", "lat": "26.73083", "lng": "117.46833"}, {"country": "CN", "name": "Guyi", "lat": "25.77778", "lng": "109.60028"}, {"country": "CN", "name": "Guye", "lat": "39.73054", "lng": "118.44085"}, {"country": "CN", "name": "Guyang", "lat": "28.61385", "lng": "109.93253"}, {"country": "CN", "name": "Gushi Chengguanzhen", "lat": "32.16208", "lng": "115.66989"}, {"country": "CN", "name": "Guozhen", "lat": "34.36591", "lng": "107.35904"}, {"country": "CN", "name": "Guoyang Chengguanzhen", "lat": "33.5055", "lng": "116.2308"}, {"country": "CN", "name": "Guofuchang", "lat": "28.85", "lng": "106.60139"}, {"country": "CN", "name": "Gunan", "lat": "29.0231", "lng": "106.648"}, {"country": "CN", "name": "Gulin", "lat": "28.04223", "lng": "105.81038"}, {"country": "CN", "name": "Guli", "lat": "28.88162", "lng": "120.03308"}, {"country": "CN", "name": "Gulaobei", "lat": "30.51941", "lng": "111.42664"}, {"country": "CN", "name": "Gulang", "lat": "37.46657", "lng": "102.89428"}, {"country": "CN", "name": "Guiyang", "lat": "26.58333", "lng": "106.71667"}, {"country": "CN", "name": "Guiyang Chengguanzhen", "lat": "25.73333", "lng": "112.74589"}, {"country": "CN", "name": "Guixi", "lat": "30.33355", "lng": "107.34545"}, {"country": "CN", "name": "Guishan", "lat": "24.05027", "lng": "102.00018"}, {"country": "CN", "name": "Guiren", "lat": "33.66972", "lng": "118.18889"}, {"country": "CN", "name": "Guiping", "lat": "23.39336", "lng": "110.07437"}, {"country": "CN", "name": "Guilin", "lat": "25.28194", "lng": "110.28639"}, {"country": "CN", "name": "Guidong Chengguanzhen", "lat": "26.07903", "lng": "113.94062"}, {"country": "CN", "name": "Guigang", "lat": "23.09639", "lng": "109.60917"}, {"country": "CN", "name": "Gufeng", "lat": "26.90833", "lng": "118.98194"}, {"country": "CN", "name": "Gucheng Chengguanzhen", "lat": "32.26604", "lng": "111.63476"}, {"country": "CN", "name": "Guancheng", "lat": "36.48031", "lng": "115.4351"}, {"country": "CN", "name": "Guantou", "lat": "26.13515", "lng": "119.55718"}, {"country": "CN", "name": "Guangzhou", "lat": "23.11667", "lng": "113.25"}, {"country": "CN", "name": "Guanyang", "lat": "25.49523", "lng": "111.13487"}, {"country": "CN", "name": "Guangshui", "lat": "31.6199", "lng": "113.9978"}, {"country": "CN", "name": "Guangrao", "lat": "37.05286", "lng": "118.3991"}, {"country": "CN", "name": "Guangming", "lat": "28.3102", "lng": "102.41189"}, {"country": "CN", "name": "Guandu", "lat": "28.56833", "lng": "106.10255"}, {"country": "CN", "name": "Gongjing", "lat": "29.34748", "lng": "104.71157"}, {"country": "CN", "name": "Gongjiang", "lat": "25.95735", "lng": "115.41002"}, {"country": "CN", "name": "Gonghe", "lat": "25.25575", "lng": "101.51857"}, {"country": "CN", "name": "Gongcheng", "lat": "24.83333", "lng": "110.81667"}, {"country": "CN", "name": "Gejiu", "lat": "23.36085", "lng": "103.15372"}, {"country": "CN", "name": "Gedong", "lat": "37.89311", "lng": "111.25544"}, {"country": "CN", "name": "Gecheng", "lat": "31.94856", "lng": "108.66073"}, {"country": "CN", "name": "Ganzi", "lat": "31.62744", "lng": "99.99413"}, {"country": "CN", "name": "Gaozhuang", "lat": "39.26917", "lng": "117.97556"}, {"country": "CN", "name": "Gaozhou", "lat": "21.93924", "lng": "110.84607"}, {"country": "CN", "name": "Gaozeng", "lat": "25.80167", "lng": "108.9375"}, {"country": "CN", "name": "Gaoyou", "lat": "32.78933", "lng": "119.44182"}, {"country": "CN", "name": "Gaotangling", "lat": "28.36667", "lng": "112.81667"}, {"country": "CN", "name": "Gaoyi", "lat": "26.95944", "lng": "110.01556"}, {"country": "CN", "name": "Gaoqiao", "lat": "26.63361", "lng": "110.9"}, {"country": "CN", "name": "Gaoping", "lat": "30.77576", "lng": "106.10294"}, {"country": "CN", "name": "Gaoniang", "lat": "26.8425", "lng": "109.17889"}, {"country": "CN", "name": "Gaomi", "lat": "36.38333", "lng": "119.75278"}, {"country": "CN", "name": "Gaoleshan", "lat": "29.67825", "lng": "109.14453"}, {"country": "CN", "name": "Gaojingzhuang", "lat": "39.41611", "lng": "117.63"}, {"country": "CN", "name": "Gaohe", "lat": "30.74173", "lng": "116.84259"}, {"country": "CN", "name": "Gaogou", "lat": "34.0175", "lng": "119.18861"}, {"country": "CN", "name": "Gaocun", "lat": "27.87731", "lng": "109.78476"}, {"country": "CN", "name": "Gaocheng", "lat": "29.98814", "lng": "100.2694"}, {"country": "CN", "name": "Ganzhou", "lat": "25.84664", "lng": "114.9326"}, {"country": "CN", "name": "Gantang", "lat": "30.29694", "lng": "118.13056"}, {"country": "CN", "name": "Gantang", "lat": "26.92", "lng": "119.63333"}, {"country": "CN", "name": "Gantang", "lat": "26.79833", "lng": "118.93611"}, {"country": "CN", "name": "Ganshui", "lat": "28.74222", "lng": "106.71111"}, {"country": "CN", "name": "Gangu Chengguanzhen", "lat": "34.73564", "lng": "105.32632"}, {"country": "CN", "name": "Gabasumdo", "lat": "35.2589", "lng": "100.54994"}, {"country": "CN", "name": "Gushu", "lat": "31.56055", "lng": "118.48147"}, {"country": "CN", "name": "Gaowu", "lat": "25.5625", "lng": "108.908"}, {"country": "CN", "name": "Goutou", "lat": "39.805", "lng": "117.19917"}, {"country": "CN", "name": "Guangming", "lat": "45.33333", "lng": "122.78333"}, {"country": "CN", "name": "Gongzhuling", "lat": "43.50075", "lng": "124.81979"}, {"country": "CN", "name": "Gongchangling", "lat": "41.11667", "lng": "123.45"}, {"country": "CN", "name": "Genhe", "lat": "50.78333", "lng": "121.51667"}, {"country": "CN", "name": "Gannan", "lat": "47.91472", "lng": "123.50306"}, {"country": "CN", "name": "Gaizhou", "lat": "40.39417", "lng": "122.36861"}, {"country": "CN", "name": "Gufu", "lat": "31.36208", "lng": "110.72918"}, {"country": "CN", "name": "Galutu", "lat": "38.60086", "lng": "108.84742"}, {"country": "CN", "name": "Guyang", "lat": "32.13538", "lng": "119.44209"}, {"country": "CN", "name": "Gulou", "lat": "26.08653", "lng": "119.29798"}, {"country": "CN", "name": "Gongchen", "lat": "39.72796", "lng": "116.13756"}, {"country": "CN", "name": "Gulou", "lat": "40.36997", "lng": "116.83352"}, {"country": "CN", "name": "Gucheng", "lat": "28.84856", "lng": "121.1161"}, {"country": "CN", "name": "Guoyuan Xincun", "lat": "39.22187", "lng": "117.13018"}, {"country": "CN", "name": "Guangming", "lat": "47.33972", "lng": "130.28679"}, {"country": "CN", "name": "Gounan", "lat": "47.35941", "lng": "130.29747"}, {"country": "CN", "name": "Guitang", "lat": "28.13996", "lng": "113.04246"}, {"country": "CN", "name": "Guangzhoulu", "lat": "38.49915", "lng": "102.16809"}, {"country": "CN", "name": "Ganhechen", "lat": "33.5582", "lng": "114.02"}, {"country": "CN", "name": "Gangba", "lat": "28.2166", "lng": "88.4743"}, {"country": "CN", "name": "Gulou", "lat": "36.44414", "lng": "115.96418"}, {"country": "CN", "name": "Gumudi", "lat": "43.95486", "lng": "87.67309"}, {"country": "CN", "name": "Guangrao", "lat": "37.25969", "lng": "118.46345"}, {"country": "CO", "name": "G\u00fcic\u00e1n", "lat": "6.46554", "lng": "-72.41539"}, {"country": "CO", "name": "G\u00fcepsa", "lat": "6.02505", "lng": "-73.57313"}, {"country": "CO", "name": "Guayat\u00e1", "lat": "4.96417", "lng": "-73.4875"}, {"country": "CO", "name": "Guayabetal", "lat": "4.21472", "lng": "-73.81719"}, {"country": "CO", "name": "Guayabal de S\u00edquima", "lat": "4.87739", "lng": "-74.46744"}, {"country": "CO", "name": "Gu\u00e1tica", "lat": "5.31569", "lng": "-75.79826"}, {"country": "CO", "name": "Guateque", "lat": "5.00619", "lng": "-73.47274"}, {"country": "CO", "name": "Guatavita", "lat": "4.93658", "lng": "-73.83314"}, {"country": "CO", "name": "Guataqu\u00ed", "lat": "4.51573", "lng": "-74.78935"}, {"country": "CO", "name": "Guatap\u00e9", "lat": "6.23429", "lng": "-75.16335"}, {"country": "CO", "name": "Guasca", "lat": "4.86601", "lng": "-73.87748"}, {"country": "CO", "name": "Guarne", "lat": "6.28046", "lng": "-75.44354"}, {"country": "CO", "name": "Guapi", "lat": "2.57082", "lng": "-77.88542"}, {"country": "CO", "name": "Guamo", "lat": "4.03078", "lng": "-74.9701"}, {"country": "CO", "name": "Guamal", "lat": "9.14334", "lng": "-74.22384"}, {"country": "CO", "name": "Guamal", "lat": "3.88043", "lng": "-73.76566"}, {"country": "CO", "name": "Gualmat\u00e1n", "lat": "0.91888", "lng": "-77.56651"}, {"country": "CO", "name": "Guaitarilla", "lat": "1.13103", "lng": "-77.54815"}, {"country": "CO", "name": "Guaduas", "lat": "5.06692", "lng": "-74.59499"}, {"country": "CO", "name": "Guadalupe", "lat": "6.81449", "lng": "-75.24063"}, {"country": "CO", "name": "Guadalupe", "lat": "6.2464", "lng": "-73.41833"}, {"country": "CO", "name": "Guadalupe", "lat": "2.0248", "lng": "-75.75589"}, {"country": "CO", "name": "Guachucal", "lat": "0.96093", "lng": "-77.73161"}, {"country": "CO", "name": "Guachet\u00e1", "lat": "5.38425", "lng": "-73.68617"}, {"country": "CO", "name": "Guacar\u00ed", "lat": "3.76383", "lng": "-76.33292"}, {"country": "CO", "name": "Guaca", "lat": "6.87621", "lng": "-72.85594"}, {"country": "CO", "name": "Granada", "lat": "6.14353", "lng": "-75.18532"}, {"country": "CO", "name": "Granada", "lat": "5.06667", "lng": "-74.56667"}, {"country": "CO", "name": "Granada", "lat": "3.54625", "lng": "-73.70687"}, {"country": "CO", "name": "Gramalote", "lat": "7.88752", "lng": "-72.79749"}, {"country": "CO", "name": "Gonz\u00e1lez", "lat": "8.38944", "lng": "-73.37989"}, {"country": "CO", "name": "G\u00f3mez Plata", "lat": "6.68178", "lng": "-75.21907"}, {"country": "CO", "name": "Gir\u00f3n", "lat": "7.0682", "lng": "-73.16981"}, {"country": "CO", "name": "Girardot City", "lat": "4.30079", "lng": "-74.80754"}, {"country": "CO", "name": "Giraldo", "lat": "6.68306", "lng": "-75.98917"}, {"country": "CO", "name": "Ginebra", "lat": "3.72461", "lng": "-76.26675"}, {"country": "CO", "name": "Gigante", "lat": "2.38678", "lng": "-75.54736"}, {"country": "CO", "name": "G\u00e9nova", "lat": "4.31667", "lng": "-75.76667"}, {"country": "CO", "name": "G\u00e9nova", "lat": "1.64322", "lng": "-77.02433"}, {"country": "CO", "name": "Garz\u00f3n", "lat": "2.19593", "lng": "-75.62777"}, {"country": "CO", "name": "Garagoa", "lat": "5.08236", "lng": "-73.36334"}, {"country": "CO", "name": "G\u00e1meza", "lat": "5.80263", "lng": "-72.80586"}, {"country": "CO", "name": "Gamarra", "lat": "8.32279", "lng": "-73.74268"}, {"country": "CO", "name": "Galeras", "lat": "9.16095", "lng": "-75.04811"}, {"country": "CO", "name": "Galapa", "lat": "10.89686", "lng": "-74.886"}, {"country": "CO", "name": "Gal\u00e1n", "lat": "6.63781", "lng": "-73.28878"}, {"country": "CO", "name": "Gachancip\u00e1", "lat": "4.99111", "lng": "-73.87154"}, {"country": "CO", "name": "Gachal\u00e1", "lat": "4.69244", "lng": "-73.52042"}, {"country": "CO", "name": "Guayabal", "lat": "5.03103", "lng": "-74.88683"}, {"country": "CO", "name": "Gachet\u00e1", "lat": "4.81854", "lng": "-73.63659"}, {"country": "CR", "name": "Gu\u00e1piles", "lat": "10.21682", "lng": "-83.78483"}, {"country": "CR", "name": "Guadalupe", "lat": "9.94805", "lng": "-84.05665"}, {"country": "CR", "name": "Gu\u00e1cimo", "lat": "10.2129", "lng": "-83.68793"}, {"country": "CR", "name": "Granadilla", "lat": "9.93491", "lng": "-84.01688"}, {"country": "CR", "name": "Golfito", "lat": "8.60327", "lng": "-83.11342"}, {"country": "CU", "name": "Guisa", "lat": "20.25494", "lng": "-76.5393"}, {"country": "CU", "name": "G\u00fcira de Melena", "lat": "22.79613", "lng": "-82.50667"}, {"country": "CU", "name": "G\u00fcines", "lat": "22.83727", "lng": "-82.02641"}, {"country": "CU", "name": "Guayos", "lat": "22.04956", "lng": "-79.46106"}, {"country": "CU", "name": "Guara", "lat": "22.81", "lng": "-82.20306"}, {"country": "CU", "name": "Guant\u00e1namo", "lat": "20.14444", "lng": "-75.20917"}, {"country": "CU", "name": "Guane", "lat": "22.20179", "lng": "-84.08484"}, {"country": "CU", "name": "Guanajay", "lat": "22.92639", "lng": "-82.6875"}, {"country": "CU", "name": "Guanabacoa", "lat": "23.1236", "lng": "-82.30082"}, {"country": "CU", "name": "Gu\u00e1imaro", "lat": "21.05222", "lng": "-77.3499"}, {"country": "CU", "name": "Gibara", "lat": "21.10988", "lng": "-76.13145"}, {"country": "CU", "name": "Gaspar", "lat": "21.73872", "lng": "-78.54434"}, {"country": "CY", "name": "G\u00e9ri", "lat": "35.1056", "lng": "33.41977"}, {"country": "CZ", "name": "Grygov", "lat": "49.53841", "lng": "17.30887"}, {"country": "CZ", "name": "Gol\u010d\u016fv Jen\u00edkov", "lat": "49.81626", "lng": "15.47686"}, {"country": "DE", "name": "Gro\u00df Miltzow", "lat": "53.53565", "lng": "13.59354"}, {"country": "DE", "name": "Gyhum", "lat": "53.21667", "lng": "9.31667"}, {"country": "DE", "name": "Guxhagen", "lat": "51.2", "lng": "9.48333"}, {"country": "DE", "name": "G\u00fctzkow", "lat": "53.72432", "lng": "13.10664"}, {"country": "DE", "name": "Guttau", "lat": "51.25904", "lng": "14.56132"}, {"country": "DE", "name": "G\u00fctersloh", "lat": "51.90693", "lng": "8.37853"}, {"country": "DE", "name": "Gutenstetten", "lat": "49.61667", "lng": "10.63333"}, {"country": "DE", "name": "Gutenberg", "lat": "51.5471", "lng": "11.97181"}, {"country": "DE", "name": "Gutenberg", "lat": "49.88333", "lng": "7.8"}, {"country": "DE", "name": "G\u00fctenbach", "lat": "48.05", "lng": "8.15"}, {"country": "DE", "name": "Gutach im Breisgau", "lat": "48.11667", "lng": "7.98333"}, {"country": "DE", "name": "Gutach (Schwarzwaldbahn)", "lat": "48.24844", "lng": "8.21293"}, {"country": "DE", "name": "G\u00fcstrow", "lat": "53.7972", "lng": "12.17337"}, {"country": "DE", "name": "Gusterath", "lat": "49.7", "lng": "6.71667"}, {"country": "DE", "name": "G\u00fcster", "lat": "53.53851", "lng": "10.67607"}, {"country": "DE", "name": "G\u00fcsten", "lat": "51.79637", "lng": "11.61246"}, {"country": "DE", "name": "Gusenburg", "lat": "49.63333", "lng": "6.9"}, {"country": "DE", "name": "Gunzenhausen", "lat": "49.11663", "lng": "10.75971"}, {"country": "DE", "name": "G\u00fcnzburg", "lat": "48.45599", "lng": "10.27695"}, {"country": "DE", "name": "G\u00fcnzach", "lat": "47.82491", "lng": "10.43547"}, {"country": "DE", "name": "G\u00fcnthersdorf", "lat": "51.3457", "lng": "12.17175"}, {"country": "DE", "name": "G\u00fcntersleben", "lat": "49.86972", "lng": "9.905"}, {"country": "DE", "name": "Guntersblum", "lat": "49.7975", "lng": "8.34556"}, {"country": "DE", "name": "Gundremmingen", "lat": "48.5", "lng": "10.4"}, {"country": "DE", "name": "Gundersheim", "lat": "49.69611", "lng": "8.2025"}, {"country": "DE", "name": "Gundelsheim", "lat": "49.93708", "lng": "10.9199"}, {"country": "DE", "name": "Gundelsheim", "lat": "49.2833", "lng": "9.16037"}, {"country": "DE", "name": "Gundelfingen", "lat": "48.55347", "lng": "10.37223"}, {"country": "DE", "name": "Gundelfingen", "lat": "48.04246", "lng": "7.8657"}, {"country": "DE", "name": "Gumtow", "lat": "52.98333", "lng": "12.25"}, {"country": "DE", "name": "Gummersbach", "lat": "51.02608", "lng": "7.56473"}, {"country": "DE", "name": "G\u00fclzow", "lat": "53.45", "lng": "10.5"}, {"country": "DE", "name": "G\u00fcglingen", "lat": "49.06642", "lng": "9.00175"}, {"country": "DE", "name": "Gudow", "lat": "53.55556", "lng": "10.77021"}, {"country": "DE", "name": "Guderhandviertel", "lat": "53.54919", "lng": "9.6096"}, {"country": "DE", "name": "Gudensberg", "lat": "51.17706", "lng": "9.36748"}, {"country": "DE", "name": "G\u00fcckingen", "lat": "50.39091", "lng": "8.00726"}, {"country": "DE", "name": "Guben", "lat": "51.94987", "lng": "14.71447"}, {"country": "DE", "name": "Gstadt am Chiemsee", "lat": "47.88453", "lng": "12.41813"}, {"country": "DE", "name": "Gschwend", "lat": "48.93333", "lng": "9.74436"}, {"country": "DE", "name": "Gr\u00fcnwald", "lat": "48.03947", "lng": "11.5232"}, {"country": "DE", "name": "Gr\u00fcnstadt", "lat": "49.56302", "lng": "8.16279"}, {"country": "DE", "name": "Gr\u00fcnsfeld", "lat": "49.60949", "lng": "9.74725"}, {"country": "DE", "name": "Gr\u00fcnkraut", "lat": "47.74417", "lng": "9.65588"}, {"country": "DE", "name": "Gr\u00fcnheide", "lat": "52.42343", "lng": "13.81324"}, {"country": "DE", "name": "Gr\u00fcnhainichen", "lat": "50.7672", "lng": "13.15366"}, {"country": "DE", "name": "Gr\u00fcnhain", "lat": "50.58019", "lng": "12.80695"}, {"country": "DE", "name": "Grunewald", "lat": "52.48338", "lng": "13.26586"}, {"country": "DE", "name": "Gr\u00fcnendeich", "lat": "53.56952", "lng": "9.61218"}, {"country": "DE", "name": "Gr\u00fcnenbach", "lat": "47.62864", "lng": "10.00843"}, {"country": "DE", "name": "Gr\u00fcnberg", "lat": "50.59403", "lng": "8.95866"}, {"country": "DE", "name": "Gr\u00fcnbach", "lat": "50.44995", "lng": "12.36186"}, {"country": "DE", "name": "Gr\u00fcnau", "lat": "52.41642", "lng": "13.58039"}, {"country": "DE", "name": "Gruibingen", "lat": "48.59483", "lng": "9.64389"}, {"country": "DE", "name": "Grube", "lat": "54.23333", "lng": "11.03333"}, {"country": "DE", "name": "Grub", "lat": "50.10285", "lng": "11.92904"}, {"country": "DE", "name": "Gro\u00df-Zimmern", "lat": "49.87583", "lng": "8.83444"}, {"country": "DE", "name": "Gro\u00dfwoltersdorf", "lat": "53.06667", "lng": "13.1"}, {"country": "DE", "name": "Gro\u00df Wokern", "lat": "53.75135", "lng": "12.49249"}, {"country": "DE", "name": "Gro\u00df Wittensee", "lat": "54.4", "lng": "9.76667"}, {"country": "DE", "name": "Gro\u00dfweitzschen", "lat": "51.15845", "lng": "13.04517"}, {"country": "DE", "name": "Gro\u00dfweil", "lat": "47.67598", "lng": "11.30108"}, {"country": "DE", "name": "Gro\u00dfwallstadt", "lat": "49.87936", "lng": "9.15338"}, {"country": "DE", "name": "Gro\u00df-Umstadt", "lat": "49.86899", "lng": "8.9321"}, {"country": "DE", "name": "Gro\u00df Tw\u00fclpstedt", "lat": "52.37361", "lng": "10.91929"}, {"country": "DE", "name": "Gro\u00dfthiemig", "lat": "51.38333", "lng": "13.66667"}, {"country": "DE", "name": "Gro\u00dfsolt", "lat": "54.7", "lng": "9.51667"}, {"country": "DE", "name": "Gro\u00dfschweidnitz", "lat": "51.06939", "lng": "14.64297"}, {"country": "DE", "name": "Gro\u00dfsch\u00f6nau", "lat": "50.9", "lng": "14.68333"}, {"country": "DE", "name": "Gro\u00dfschirma", "lat": "50.96602", "lng": "13.2859"}, {"country": "DE", "name": "Gro\u00df Santersleben", "lat": "52.19143", "lng": "11.45486"}, {"country": "DE", "name": "Gro\u00dfrudestedt", "lat": "51.09305", "lng": "11.09977"}, {"country": "DE", "name": "Gro\u00dfr\u00fcckerswalde", "lat": "50.63333", "lng": "13.11667"}, {"country": "DE", "name": "Gro\u00dfrosseln", "lat": "49.20296", "lng": "6.84148"}, {"country": "DE", "name": "Gro\u00df Rosenburg", "lat": "51.91696", "lng": "11.89184"}, {"country": "DE", "name": "Gro\u00dfr\u00f6hrsdorf", "lat": "51.14528", "lng": "14.01917"}, {"country": "DE", "name": "Gro\u00df-Rohrheim", "lat": "49.72111", "lng": "8.48278"}, {"country": "DE", "name": "Gro\u00df Rodensleben", "lat": "52.12139", "lng": "11.38367"}, {"country": "DE", "name": "Gro\u00dfrinderfeld", "lat": "49.66536", "lng": "9.73356"}, {"country": "DE", "name": "Gro\u00df Rheide", "lat": "54.44154", "lng": "9.43508"}, {"country": "DE", "name": "Gro\u00dfreuth bei Schweinau", "lat": "49.43449", "lng": "11.02273"}, {"country": "DE", "name": "Gro\u00dfr\u00e4schen", "lat": "51.5876", "lng": "14.01093"}, {"country": "DE", "name": "Gro\u00df Quenstedt", "lat": "51.93333", "lng": "11.11667"}, {"country": "DE", "name": "Gro\u00dfpostwitz", "lat": "51.12083", "lng": "14.44065"}, {"country": "DE", "name": "Gro\u00dfp\u00f6sna", "lat": "51.26667", "lng": "12.5"}, {"country": "DE", "name": "Gro\u00df Pankow", "lat": "53.11952", "lng": "12.04975"}, {"country": "DE", "name": "Gro\u00dfostheim", "lat": "49.91985", "lng": "9.07596"}, {"country": "DE", "name": "Gro\u00df\u00f6rner", "lat": "51.61527", "lng": "11.4898"}, {"country": "DE", "name": "Gro\u00dfolbersdorf", "lat": "50.7", "lng": "13.08333"}, {"country": "DE", "name": "Gro\u00df Oesingen", "lat": "52.64761", "lng": "10.46366"}, {"country": "DE", "name": "Gro\u00dfniedesheim", "lat": "49.57528", "lng": "8.31222"}, {"country": "DE", "name": "Gro\u00df Nemerow", "lat": "53.47342", "lng": "13.22482"}, {"country": "DE", "name": "Gro\u00dfnaundorf", "lat": "51.2", "lng": "13.93333"}, {"country": "DE", "name": "Gro\u00df Munzel", "lat": "52.36554", "lng": "9.47828"}, {"country": "DE", "name": "Gro\u00dfmonra", "lat": "51.21299", "lng": "11.29578"}, {"country": "DE", "name": "Gro\u00dfmaischeid", "lat": "50.5", "lng": "7.63333"}, {"country": "DE", "name": "Gro\u00dflittgen", "lat": "50.02787", "lng": "6.79865"}, {"country": "DE", "name": "Gro\u00df Lindow", "lat": "52.23333", "lng": "14.53333"}, {"country": "DE", "name": "Gro\u00dflehna", "lat": "51.30687", "lng": "12.1719"}, {"country": "DE", "name": "Gro\u00dflangheim", "lat": "49.7562", "lng": "10.24065"}, {"country": "DE", "name": "Gro\u00df Laasch", "lat": "53.34646", "lng": "11.54919"}, {"country": "DE", "name": "Gro\u00df Kummerfeld", "lat": "54.05", "lng": "10.08333"}, {"country": "DE", "name": "Gro\u00dfkugel", "lat": "51.41728", "lng": "12.14641"}, {"country": "DE", "name": "Gro\u00dfkrotzenburg", "lat": "50.08333", "lng": "8.98333"}, {"country": "DE", "name": "Gro\u00df Kreutz", "lat": "52.40281", "lng": "12.7794"}, {"country": "DE", "name": "Gro\u00df K\u00f6ris", "lat": "52.16587", "lng": "13.65935"}, {"country": "DE", "name": "Gro\u00dfkorbetha", "lat": "51.26002", "lng": "12.03012"}, {"country": "DE", "name": "Gro\u00dfkmehlen", "lat": "51.37901", "lng": "13.72501"}, {"country": "DE", "name": "Gro\u00df Kiesow", "lat": "54.01261", "lng": "13.47851"}, {"country": "DE", "name": "Gro\u00dfkayna", "lat": "51.29068", "lng": "11.93269"}, {"country": "DE", "name": "Gro\u00dfkarolinenfeld", "lat": "47.89102", "lng": "12.08101"}, {"country": "DE", "name": "Gro\u00dfkarlbach", "lat": "49.53833", "lng": "8.22472"}, {"country": "DE", "name": "Gro\u00df Ippener", "lat": "52.96667", "lng": "8.61667"}, {"country": "DE", "name": "Gro\u00dfholbach", "lat": "50.45", "lng": "7.88333"}, {"country": "DE", "name": "Gro\u00dfheubach", "lat": "49.72834", "lng": "9.2228"}, {"country": "DE", "name": "Gro\u00dfhennersdorf", "lat": "50.98597", "lng": "14.78776"}, {"country": "DE", "name": "Gro\u00dfheirath", "lat": "50.17603", "lng": "10.9505"}, {"country": "DE", "name": "Gro\u00dfhartmannsdorf", "lat": "50.8", "lng": "13.33333"}, {"country": "DE", "name": "Gro\u00dfharthau", "lat": "51.10694", "lng": "14.09911"}, {"country": "DE", "name": "Gro\u00dfhansdorf", "lat": "53.66667", "lng": "10.28333"}, {"country": "DE", "name": "Gro\u00dfhabersdorf", "lat": "49.4", "lng": "10.78333"}, {"country": "DE", "name": "Gro\u00df Gr\u00f6nau", "lat": "53.8", "lng": "10.75"}, {"country": "DE", "name": "Gro\u00dfgoltern", "lat": "52.33261", "lng": "9.50111"}, {"country": "DE", "name": "Gro\u00df-Gerau", "lat": "49.92139", "lng": "8.48255"}, {"country": "DE", "name": "Gro\u00dferlach", "lat": "49.05368", "lng": "9.51356"}, {"country": "DE", "name": "Gro\u00dfenwiehe", "lat": "54.7", "lng": "9.25"}, {"country": "DE", "name": "Gro\u00dfenstein", "lat": "50.9", "lng": "12.2"}, {"country": "DE", "name": "Gro\u00dfenseebach", "lat": "49.63251", "lng": "10.87483"}, {"country": "DE", "name": "Gro\u00dfensee", "lat": "53.61263", "lng": "10.33961"}, {"country": "DE", "name": "Gro\u00dfenl\u00fcder", "lat": "50.5925", "lng": "9.54231"}, {"country": "DE", "name": "Gro\u00dfenkneten", "lat": "52.94377", "lng": "8.25323"}, {"country": "DE", "name": "Gro\u00dfenhain", "lat": "51.28951", "lng": "13.5335"}, {"country": "DE", "name": "Gro\u00dfengottern", "lat": "51.14821", "lng": "10.56232"}, {"country": "DE", "name": "Gro\u00dfenehrich", "lat": "51.24838", "lng": "10.83458"}, {"country": "DE", "name": "Grossenbrode", "lat": "54.38333", "lng": "11.08333"}, {"country": "DE", "name": "Gro\u00dfenaspe", "lat": "53.98333", "lng": "9.96667"}, {"country": "DE", "name": "Grosselfingen", "lat": "48.33229", "lng": "8.88704"}, {"country": "DE", "name": "Gro\u00dfeibstadt", "lat": "50.30102", "lng": "10.4098"}, {"country": "DE", "name": "Gro\u00dfdubrau", "lat": "51.25422", "lng": "14.45897"}, {"country": "DE", "name": "Gro\u00df D\u00fcben", "lat": "51.56667", "lng": "14.56667"}, {"country": "DE", "name": "Gro\u00dfbreitenbach", "lat": "50.58335", "lng": "11.00955"}, {"country": "DE", "name": "Gro\u00dfbottwar", "lat": "49.00147", "lng": "9.29348"}, {"country": "DE", "name": "Gro\u00dfbothen", "lat": "51.18784", "lng": "12.75101"}, {"country": "DE", "name": "Gro\u00df B\u00f6rnecke", "lat": "51.88468", "lng": "11.47032"}, {"country": "DE", "name": "Gro\u00dfbodungen", "lat": "51.47572", "lng": "10.48104"}, {"country": "DE", "name": "Gro\u00df-Bieberau", "lat": "49.80064", "lng": "8.8243"}, {"country": "DE", "name": "Gro\u00dfbettlingen", "lat": "48.59052", "lng": "9.30782"}, {"country": "DE", "name": "Gro\u00dfbeeren", "lat": "52.35862", "lng": "13.30994"}, {"country": "DE", "name": "Gro\u00dfbartloff", "lat": "51.25", "lng": "10.21667"}, {"country": "DE", "name": "Gro\u00dfbardorf", "lat": "50.26667", "lng": "10.36667"}, {"country": "DE", "name": "Gro\u00dfbardau", "lat": "51.20419", "lng": "12.69848"}, {"country": "DE", "name": "Gro\u00df Ammensleben", "lat": "52.23279", "lng": "11.52195"}, {"country": "DE", "name": "Gro\u00dfalmerode", "lat": "51.25858", "lng": "9.7845"}, {"country": "DE", "name": "Gro\u00dfaitingen", "lat": "48.22753", "lng": "10.77948"}, {"country": "DE", "name": "Gr\u00f6nwohld", "lat": "53.64162", "lng": "10.40784"}, {"country": "DE", "name": "Gr\u00f6ningen", "lat": "51.93744", "lng": "11.21601"}, {"country": "DE", "name": "Gronau", "lat": "52.21099", "lng": "7.02238"}, {"country": "DE", "name": "Gronau", "lat": "52.0846", "lng": "9.77678"}, {"country": "DE", "name": "Gr\u00f6mitz", "lat": "54.15", "lng": "10.96667"}, {"country": "DE", "name": "Grolsheim", "lat": "49.90834", "lng": "7.91599"}, {"country": "DE", "name": "Groitzsch", "lat": "51.15536", "lng": "12.28279"}, {"country": "DE", "name": "Gr\u00f6den", "lat": "51.4", "lng": "13.56667"}, {"country": "DE", "name": "Gr\u00f6bzig", "lat": "51.68226", "lng": "11.87453"}, {"country": "DE", "name": "Gr\u00f6bers", "lat": "51.4305", "lng": "12.11623"}, {"country": "DE", "name": "Gr\u00f6benzell", "lat": "48.2", "lng": "11.36667"}, {"country": "DE", "name": "Grimmen", "lat": "54.11215", "lng": "13.04051"}, {"country": "DE", "name": "Grimma", "lat": "51.23367", "lng": "12.71959"}, {"country": "DE", "name": "Griesst\u00e4tt", "lat": "47.99403", "lng": "12.17727"}, {"country": "DE", "name": "Griesheim", "lat": "49.86085", "lng": "8.5725"}, {"country": "DE", "name": "Gries", "lat": "49.41667", "lng": "7.4"}, {"country": "DE", "name": "Grevesm\u00fchlen", "lat": "53.86337", "lng": "11.1916"}, {"country": "DE", "name": "Grevenbroich", "lat": "51.09102", "lng": "6.5827"}, {"country": "DE", "name": "Greven", "lat": "52.09364", "lng": "7.59396"}, {"country": "DE", "name": "Greu\u00dfenheim", "lat": "49.81667", "lng": "9.76667"}, {"country": "DE", "name": "Greu\u00dfen", "lat": "51.22964", "lng": "10.94422"}, {"country": "DE", "name": "Grettstadt", "lat": "49.98333", "lng": "10.31667"}, {"country": "DE", "name": "Greppin", "lat": "51.64682", "lng": "12.30066"}, {"country": "DE", "name": "Grenzach-Wyhlen", "lat": "47.55", "lng": "7.68333"}, {"country": "DE", "name": "Gremsdorf", "lat": "49.69506", "lng": "10.83218"}, {"country": "DE", "name": "Gremersdorf", "lat": "54.33333", "lng": "10.93333"}, {"country": "DE", "name": "Gremberghoven", "lat": "50.90152", "lng": "7.06129"}, {"country": "DE", "name": "Greiz", "lat": "50.65778", "lng": "12.19918"}, {"country": "DE", "name": "Greimerath", "lat": "49.56155", "lng": "6.68374"}, {"country": "DE", "name": "Greiling", "lat": "47.76667", "lng": "11.61667"}, {"country": "DE", "name": "Greifswald", "lat": "54.09311", "lng": "13.38786"}, {"country": "DE", "name": "Greifenstein", "lat": "50.61667", "lng": "8.3"}, {"country": "DE", "name": "Greifenberg", "lat": "48.07062", "lng": "11.08349"}, {"country": "DE", "name": "Grefrath", "lat": "51.3363", "lng": "6.34072"}, {"country": "DE", "name": "Greffern", "lat": "48.75205", "lng": "8.00515"}, {"country": "DE", "name": "Greding", "lat": "49.04699", "lng": "11.35703"}, {"country": "DE", "name": "Grebin", "lat": "54.2", "lng": "10.5"}, {"country": "DE", "name": "Grebenstein", "lat": "51.44648", "lng": "9.4125"}, {"country": "DE", "name": "Grebenhain", "lat": "50.48924", "lng": "9.33855"}, {"country": "DE", "name": "Grebenau", "lat": "50.74242", "lng": "9.47307"}, {"country": "DE", "name": "Gr\u00e4venwiesbach", "lat": "50.39024", "lng": "8.4569"}, {"country": "DE", "name": "Grattersdorf", "lat": "48.80364", "lng": "13.15372"}, {"country": "DE", "name": "Grassau", "lat": "47.78099", "lng": "12.45359"}, {"country": "DE", "name": "Grasleben", "lat": "52.30638", "lng": "11.01465"}, {"country": "DE", "name": "Grasbrunn", "lat": "48.07905", "lng": "11.74361"}, {"country": "DE", "name": "Grasberg", "lat": "53.18333", "lng": "8.98333"}, {"country": "DE", "name": "Gransee", "lat": "53.00704", "lng": "13.1575"}, {"country": "DE", "name": "Gransch\u00fctz", "lat": "51.18431", "lng": "12.05149"}, {"country": "DE", "name": "Gramzow", "lat": "53.21246", "lng": "14.00748"}, {"country": "DE", "name": "Gramkow", "lat": "53.92092", "lng": "11.3174"}, {"country": "DE", "name": "Grainet", "lat": "48.8", "lng": "13.65"}, {"country": "DE", "name": "Grainau", "lat": "47.47614", "lng": "11.02405"}, {"country": "DE", "name": "Grafrath", "lat": "48.11667", "lng": "11.16667"}, {"country": "DE", "name": "Grafing bei M\u00fcnchen", "lat": "48.04596", "lng": "11.96797"}, {"country": "DE", "name": "Grafhorst", "lat": "52.44482", "lng": "10.94513"}, {"country": "DE", "name": "Grafenw\u00f6hr", "lat": "49.71728", "lng": "11.90645"}, {"country": "DE", "name": "Grafenwiesen", "lat": "49.2", "lng": "12.88333"}, {"country": "DE", "name": "Gr\u00e4fenroda", "lat": "50.74781", "lng": "10.81063"}, {"country": "DE", "name": "Grafenrheinfeld", "lat": "50", "lng": "10.2"}, {"country": "DE", "name": "Grafenhausen", "lat": "48.28427", "lng": "7.76678"}, {"country": "DE", "name": "Gr\u00e4fenhainichen", "lat": "51.72892", "lng": "12.45651"}, {"country": "DE", "name": "Gr\u00e4fenhain", "lat": "50.81667", "lng": "10.7"}, {"country": "DE", "name": "Grafengehaig", "lat": "50.2031", "lng": "11.59358"}, {"country": "DE", "name": "Gr\u00e4fendorf", "lat": "50.12267", "lng": "9.7405"}, {"country": "DE", "name": "Gr\u00e4fenberg", "lat": "49.64426", "lng": "11.24971"}, {"country": "DE", "name": "Grafenau", "lat": "48.85768", "lng": "13.3974"}, {"country": "DE", "name": "Gr\u00e4felfing", "lat": "48.11878", "lng": "11.42939"}, {"country": "DE", "name": "Grabsleben", "lat": "50.93633", "lng": "10.83508"}, {"country": "DE", "name": "Grabowh\u00f6fe", "lat": "53.56865", "lng": "12.59482"}, {"country": "DE", "name": "Grabow", "lat": "53.27966", "lng": "11.56502"}, {"country": "DE", "name": "Grabenstetten", "lat": "48.52397", "lng": "9.46155"}, {"country": "DE", "name": "Grabenst\u00e4tt", "lat": "47.84531", "lng": "12.5433"}, {"country": "DE", "name": "Graben", "lat": "48.18732", "lng": "10.82222"}, {"country": "DE", "name": "Gottmadingen", "lat": "47.73511", "lng": "8.77687"}, {"country": "DE", "name": "G\u00f6ttingen", "lat": "51.53443", "lng": "9.93228"}, {"country": "DE", "name": "Gottfrieding", "lat": "48.63737", "lng": "12.53561"}, {"country": "DE", "name": "Gotteszell", "lat": "48.96667", "lng": "12.96667"}, {"country": "DE", "name": "Gottenheim", "lat": "48.05", "lng": "7.73333"}, {"country": "DE", "name": "Gotha", "lat": "50.94823", "lng": "10.70193"}, {"country": "DE", "name": "Go\u00dfwitz", "lat": "50.63536", "lng": "11.47737"}, {"country": "DE", "name": "G\u00f6\u00dfweinstein", "lat": "49.76898", "lng": "11.33841"}, {"country": "DE", "name": "G\u00f6\u00dfnitz", "lat": "50.88902", "lng": "12.43292"}, {"country": "DE", "name": "G\u00f6ssenheim", "lat": "50.01667", "lng": "9.78333"}, {"country": "DE", "name": "Goslar", "lat": "51.90425", "lng": "10.42766"}, {"country": "DE", "name": "Gosheim", "lat": "48.1343", "lng": "8.75426"}, {"country": "DE", "name": "Goseck", "lat": "51.2", "lng": "11.86667"}, {"country": "DE", "name": "G\u00f6rzke", "lat": "52.17179", "lng": "12.37506"}, {"country": "DE", "name": "G\u00f6rzig", "lat": "51.66381", "lng": "11.99759"}, {"country": "DE", "name": "G\u00f6rwihl", "lat": "47.64275", "lng": "8.07482"}, {"country": "DE", "name": "G\u00f6rsbach", "lat": "51.46224", "lng": "10.93706"}, {"country": "DE", "name": "Gornsdorf", "lat": "50.7", "lng": "12.88333"}, {"country": "DE", "name": "Gornau", "lat": "50.75901", "lng": "13.03731"}, {"country": "DE", "name": "G\u00f6rmin", "lat": "53.99092", "lng": "13.27054"}, {"country": "DE", "name": "G\u00f6rlitz", "lat": "51.15518", "lng": "14.98853"}, {"country": "DE", "name": "G\u00f6risried", "lat": "47.70668", "lng": "10.51015"}, {"country": "DE", "name": "G\u00f6ppingen", "lat": "48.70354", "lng": "9.65209"}, {"country": "DE", "name": "G\u00f6nnheim", "lat": "49.44806", "lng": "8.23861"}, {"country": "DE", "name": "Gondelsheim", "lat": "49.05917", "lng": "8.65833"}, {"country": "DE", "name": "Gommersheim", "lat": "49.29111", "lng": "8.26583"}, {"country": "DE", "name": "Gommern", "lat": "52.07391", "lng": "11.82297"}, {"country": "DE", "name": "Gomaringen", "lat": "48.45349", "lng": "9.09582"}, {"country": "DE", "name": "Gomadingen", "lat": "48.3998", "lng": "9.39065"}, {"country": "DE", "name": "Golzow", "lat": "52.27617", "lng": "12.60052"}, {"country": "DE", "name": "Gol\u00dfen", "lat": "51.97204", "lng": "13.60115"}, {"country": "DE", "name": "Golmbach", "lat": "51.9", "lng": "9.55"}, {"country": "DE", "name": "G\u00f6llheim", "lat": "49.595", "lng": "8.05083"}, {"country": "DE", "name": "Goldkronach", "lat": "50.01086", "lng": "11.6875"}, {"country": "DE", "name": "Goldenstedt", "lat": "52.78833", "lng": "8.43201"}, {"country": "DE", "name": "Goldberg", "lat": "53.58878", "lng": "12.08855"}, {"country": "DE", "name": "Goldbeck", "lat": "52.71695", "lng": "11.8606"}, {"country": "DE", "name": "Goldbach", "lat": "51.04566", "lng": "11.43289"}, {"country": "DE", "name": "Goldbach", "lat": "49.99951", "lng": "9.1844"}, {"country": "DE", "name": "Goel", "lat": "54.2835", "lng": "10.94036"}, {"country": "DE", "name": "G\u00f6ggingen", "lat": "48.86123", "lng": "9.88398"}, {"country": "DE", "name": "G\u00f6da", "lat": "51.178", "lng": "14.31951"}, {"country": "DE", "name": "Gochsheim", "lat": "50.01667", "lng": "10.28333"}, {"country": "DE", "name": "Goch", "lat": "51.67873", "lng": "6.15895"}, {"country": "DE", "name": "Gnutz", "lat": "54.13333", "lng": "9.81667"}, {"country": "DE", "name": "Gnoien", "lat": "53.9687", "lng": "12.71099"}, {"country": "DE", "name": "Gnarrenburg", "lat": "53.38333", "lng": "9"}, {"country": "DE", "name": "Gmund am Tegernsee", "lat": "47.75119", "lng": "11.7381"}, {"country": "DE", "name": "Gl\u00fcckstadt", "lat": "53.78893", "lng": "9.42576"}, {"country": "DE", "name": "Gl\u00fccksburg", "lat": "54.83522", "lng": "9.54853"}, {"country": "DE", "name": "Glowe", "lat": "54.56911", "lng": "13.4655"}, {"country": "DE", "name": "Gl\u00f6tt", "lat": "48.5", "lng": "10.48333"}, {"country": "DE", "name": "Gl\u00f6the", "lat": "51.91", "lng": "11.67471"}, {"country": "DE", "name": "Glonn", "lat": "47.98751", "lng": "11.86721"}, {"country": "DE", "name": "Glindenberg", "lat": "52.23857", "lng": "11.68361"}, {"country": "DE", "name": "Glinde", "lat": "53.5441", "lng": "10.20048"}, {"country": "DE", "name": "Glienicke", "lat": "52.63353", "lng": "13.32564"}, {"country": "DE", "name": "Gleichamberg", "lat": "50.37068", "lng": "10.59822"}, {"country": "DE", "name": "Glauchau", "lat": "50.81987", "lng": "12.54493"}, {"country": "DE", "name": "Glauburg", "lat": "50.31667", "lng": "9"}, {"country": "DE", "name": "Glaubitz", "lat": "51.32498", "lng": "13.37817"}, {"country": "DE", "name": "Glatten", "lat": "48.44246", "lng": "8.51116"}, {"country": "DE", "name": "Glattbach", "lat": "50", "lng": "9.15"}, {"country": "DE", "name": "Glash\u00fctten", "lat": "50.21667", "lng": "8.4"}, {"country": "DE", "name": "Glash\u00fctten", "lat": "49.88739", "lng": "11.4487"}, {"country": "DE", "name": "Glash\u00fctte", "lat": "50.85196", "lng": "13.77977"}, {"country": "DE", "name": "Glan-M\u00fcnchweiler", "lat": "49.47222", "lng": "7.44204"}, {"country": "DE", "name": "Glandorf", "lat": "52.08474", "lng": "7.99944"}, {"country": "DE", "name": "Gladenbach", "lat": "50.76847", "lng": "8.58085"}, {"country": "DE", "name": "Gladbeck", "lat": "51.57077", "lng": "6.98593"}, {"country": "DE", "name": "Gittelde", "lat": "51.7984", "lng": "10.1878"}, {"country": "DE", "name": "Girod", "lat": "50.45", "lng": "7.91667"}, {"country": "DE", "name": "Ginsheim-Gustavsburg", "lat": "49.9711", "lng": "8.34532"}, {"country": "DE", "name": "Gingst", "lat": "54.45654", "lng": "13.25737"}, {"country": "DE", "name": "Gingen an der Fils", "lat": "48.65979", "lng": "9.78092"}, {"country": "DE", "name": "Gimbsheim", "lat": "49.77778", "lng": "8.375"}, {"country": "DE", "name": "Gilten", "lat": "52.7", "lng": "9.58333"}, {"country": "DE", "name": "Gilserberg", "lat": "50.95", "lng": "9.06667"}, {"country": "DE", "name": "Gillenfeld", "lat": "50.1279", "lng": "6.90383"}, {"country": "DE", "name": "Gilching", "lat": "48.10755", "lng": "11.2936"}, {"country": "DE", "name": "Gifhorn", "lat": "52.47774", "lng": "10.5511"}, {"country": "DE", "name": "Gie\u00dfen", "lat": "50.58727", "lng": "8.67554"}, {"country": "DE", "name": "Giersleben", "lat": "51.76667", "lng": "11.56667"}, {"country": "DE", "name": "Giengen an der Brenz", "lat": "48.62219", "lng": "10.24312"}, {"country": "DE", "name": "Gielow", "lat": "53.69756", "lng": "12.74521"}, {"country": "DE", "name": "Giekau", "lat": "54.31667", "lng": "10.51667"}, {"country": "DE", "name": "Gieboldehausen", "lat": "51.60962", "lng": "10.21619"}, {"country": "DE", "name": "Giebelstadt", "lat": "49.65308", "lng": "9.94441"}, {"country": "DE", "name": "Geyer", "lat": "50.62632", "lng": "12.92074"}, {"country": "DE", "name": "Gevelsberg", "lat": "51.31971", "lng": "7.3392"}, {"country": "DE", "name": "Geusa", "lat": "51.33914", "lng": "11.94382"}, {"country": "DE", "name": "Gettorf", "lat": "54.4", "lng": "9.98333"}, {"country": "DE", "name": "Gesundbrunnen", "lat": "52.55035", "lng": "13.39139"}, {"country": "DE", "name": "Gestratz", "lat": "47.65", "lng": "9.98333"}, {"country": "DE", "name": "Gessertshausen", "lat": "48.32904", "lng": "10.73278"}, {"country": "DE", "name": "Geslau", "lat": "49.36643", "lng": "10.31528"}, {"country": "DE", "name": "Geseke", "lat": "51.64091", "lng": "8.5109"}, {"country": "DE", "name": "Gesees", "lat": "50.03207", "lng": "11.66623"}, {"country": "DE", "name": "Geschwenda", "lat": "50.73178", "lng": "10.8254"}, {"country": "DE", "name": "Gescher", "lat": "51.954", "lng": "7.00481"}, {"country": "DE", "name": "Gerzen", "lat": "48.50706", "lng": "12.42686"}, {"country": "DE", "name": "Gerwisch", "lat": "52.17662", "lng": "11.73972"}, {"country": "DE", "name": "Gerswalde", "lat": "53.16988", "lng": "13.74853"}, {"country": "DE", "name": "Gerstungen", "lat": "50.96667", "lng": "10.06667"}, {"country": "DE", "name": "Gersthofen", "lat": "48.42432", "lng": "10.87273"}, {"country": "DE", "name": "Gerstetten", "lat": "48.62254", "lng": "10.01984"}, {"country": "DE", "name": "Gersten", "lat": "52.58333", "lng": "7.51667"}, {"country": "DE", "name": "Gersheim", "lat": "49.15", "lng": "7.2"}, {"country": "DE", "name": "Gersfeld", "lat": "50.45138", "lng": "9.91422"}, {"country": "DE", "name": "Gersdorf", "lat": "51.1122", "lng": "12.93889"}, {"country": "DE", "name": "Gersdorf", "lat": "50.75", "lng": "12.71667"}, {"country": "DE", "name": "Gerolzhofen", "lat": "49.90025", "lng": "10.34832"}, {"country": "DE", "name": "Gerolstein", "lat": "50.22224", "lng": "6.65984"}, {"country": "DE", "name": "Gerolsheim", "lat": "49.54778", "lng": "8.26389"}, {"country": "DE", "name": "Gerolsbach", "lat": "48.49283", "lng": "11.36149"}, {"country": "DE", "name": "Gerolfingen", "lat": "49.0534", "lng": "10.51151"}, {"country": "DE", "name": "Geroldshausen", "lat": "49.68361", "lng": "9.90222"}, {"country": "DE", "name": "Geroldsgr\u00fcn", "lat": "50.33333", "lng": "11.6"}, {"country": "DE", "name": "Gernsheim", "lat": "49.75305", "lng": "8.48859"}, {"country": "DE", "name": "Gernsbach", "lat": "48.77034", "lng": "8.34306"}, {"country": "DE", "name": "Gernrode", "lat": "51.72575", "lng": "11.13876"}, {"country": "DE", "name": "Gernrode", "lat": "51.4", "lng": "10.4"}, {"country": "DE", "name": "Germersheim", "lat": "49.22306", "lng": "8.36389"}, {"country": "DE", "name": "Germering", "lat": "48.13392", "lng": "11.3765"}, {"country": "DE", "name": "Gerlingen", "lat": "48.79954", "lng": "9.06316"}, {"country": "DE", "name": "Geringswalde", "lat": "51.07677", "lng": "12.90725"}, {"country": "DE", "name": "Gerhardshofen", "lat": "49.63123", "lng": "10.69133"}, {"country": "DE", "name": "Geretsried", "lat": "47.85775", "lng": "11.48054"}, {"country": "DE", "name": "Gerdau", "lat": "52.96667", "lng": "10.41667"}, {"country": "DE", "name": "Gerbstedt", "lat": "51.63281", "lng": "11.62669"}, {"country": "DE", "name": "Gerbrunn", "lat": "49.77528", "lng": "9.99361"}, {"country": "DE", "name": "Gerach", "lat": "50.03333", "lng": "10.8"}, {"country": "DE", "name": "Gerabronn", "lat": "48.97071", "lng": "9.91986"}, {"country": "DE", "name": "Geraberg", "lat": "50.71594", "lng": "10.83737"}, {"country": "DE", "name": "Gera", "lat": "50.88029", "lng": "12.08187"}, {"country": "DE", "name": "Georgsmarienh\u00fctte", "lat": "52.20296", "lng": "8.0448"}, {"country": "DE", "name": "Georgsdorf", "lat": "52.56667", "lng": "7.08333"}, {"country": "DE", "name": "Georgenthal", "lat": "50.83205", "lng": "10.66266"}, {"country": "DE", "name": "Georgensgm\u00fcnd", "lat": "49.18972", "lng": "11.01667"}, {"country": "DE", "name": "Georgenberg", "lat": "49.70297", "lng": "12.42082"}, {"country": "DE", "name": "Genthin", "lat": "52.40668", "lng": "12.1592"}, {"country": "DE", "name": "Gensingen", "lat": "49.9", "lng": "7.93333"}, {"country": "DE", "name": "Gengenbach", "lat": "48.40476", "lng": "8.01433"}, {"country": "DE", "name": "Genderkingen", "lat": "48.7", "lng": "10.88333"}, {"country": "DE", "name": "Gem\u00fcnden an der Wohra", "lat": "50.97401", "lng": "8.96946"}, {"country": "DE", "name": "Gem\u00fcnden am Main", "lat": "50.04946", "lng": "9.70593"}, {"country": "DE", "name": "Gem\u00fcnden", "lat": "49.89444", "lng": "7.4775"}, {"country": "DE", "name": "Gemmrigheim", "lat": "49.02833", "lng": "9.15556"}, {"country": "DE", "name": "Gemmingen", "lat": "49.15639", "lng": "8.98194"}, {"country": "DE", "name": "Gelting", "lat": "54.75", "lng": "9.9"}, {"country": "DE", "name": "Geltendorf", "lat": "48.11737", "lng": "11.03216"}, {"country": "DE", "name": "Gelsenkirchen", "lat": "51.50508", "lng": "7.09654"}, {"country": "DE", "name": "Gelnhausen", "lat": "50.20164", "lng": "9.18742"}, {"country": "DE", "name": "Gelenau", "lat": "50.71151", "lng": "12.96666"}, {"country": "DE", "name": "Geldersheim", "lat": "50.04286", "lng": "10.15609"}, {"country": "DE", "name": "Geldern", "lat": "51.51908", "lng": "6.32363"}, {"country": "DE", "name": "Gelbensande", "lat": "54.20272", "lng": "12.30168"}, {"country": "DE", "name": "Geithain", "lat": "51.05528", "lng": "12.69674"}, {"country": "DE", "name": "Geismar", "lat": "51.23169", "lng": "10.16548"}, {"country": "DE", "name": "Geislingen an der Steige", "lat": "48.62423", "lng": "9.82736"}, {"country": "DE", "name": "Geislingen", "lat": "48.28768", "lng": "8.81241"}, {"country": "DE", "name": "Geisleden", "lat": "51.35", "lng": "10.2"}, {"country": "DE", "name": "Geisingen", "lat": "47.92504", "lng": "8.65002"}, {"country": "DE", "name": "Geising", "lat": "50.75742", "lng": "13.79278"}, {"country": "DE", "name": "Geisenheim", "lat": "49.9847", "lng": "7.96835"}, {"country": "DE", "name": "Geisenhausen", "lat": "48.47609", "lng": "12.25817"}, {"country": "DE", "name": "Geisenfeld", "lat": "48.68426", "lng": "11.61233"}, {"country": "DE", "name": "Geiselwind", "lat": "49.77356", "lng": "10.47063"}, {"country": "DE", "name": "Geiselh\u00f6ring", "lat": "48.82505", "lng": "12.39649"}, {"country": "DE", "name": "Geiselbach", "lat": "50.12329", "lng": "9.19664"}, {"country": "DE", "name": "Geisa", "lat": "50.71465", "lng": "9.95075"}, {"country": "DE", "name": "Geilenkirchen", "lat": "50.96745", "lng": "6.11763"}, {"country": "DE", "name": "Geiersthal", "lat": "49.04569", "lng": "12.98171"}, {"country": "DE", "name": "Gehren", "lat": "50.64852", "lng": "11.00471"}, {"country": "DE", "name": "Gehrden", "lat": "52.31362", "lng": "9.60033"}, {"country": "DE", "name": "Gehrde", "lat": "52.57684", "lng": "8.00342"}, {"country": "DE", "name": "Gefrees", "lat": "50.09538", "lng": "11.73772"}, {"country": "DE", "name": "Geesthacht", "lat": "53.43575", "lng": "10.3779"}, {"country": "DE", "name": "Geeste", "lat": "52.6", "lng": "7.26667"}, {"country": "DE", "name": "Gedern", "lat": "50.42482", "lng": "9.1984"}, {"country": "DE", "name": "Gechingen", "lat": "48.69527", "lng": "8.82915"}, {"country": "DE", "name": "Gebsattel", "lat": "49.35", "lng": "10.2"}, {"country": "DE", "name": "Gebhardshain", "lat": "50.75", "lng": "7.81667"}, {"country": "DE", "name": "Gebesee", "lat": "51.11488", "lng": "10.93455"}, {"country": "DE", "name": "Gauting", "lat": "48.06919", "lng": "11.37703"}, {"country": "DE", "name": "Gau-Odernheim", "lat": "49.78472", "lng": "8.19417"}, {"country": "DE", "name": "Gauk\u00f6nigshofen", "lat": "49.63333", "lng": "10"}, {"country": "DE", "name": "Gau-Bischofsheim", "lat": "49.91583", "lng": "8.27278"}, {"country": "DE", "name": "Gau-Bickelheim", "lat": "49.83528", "lng": "8.02056"}, {"country": "DE", "name": "Gau-Algesheim", "lat": "49.95669", "lng": "8.01569"}, {"country": "DE", "name": "Gatow", "lat": "52.48324", "lng": "13.18285"}, {"country": "DE", "name": "Gatersleben", "lat": "51.82215", "lng": "11.28661"}, {"country": "DE", "name": "Garz", "lat": "54.31843", "lng": "13.35125"}, {"country": "DE", "name": "Gartz", "lat": "53.20829", "lng": "14.39226"}, {"country": "DE", "name": "G\u00e4rtringen", "lat": "48.64176", "lng": "8.90073"}, {"country": "DE", "name": "Gartow", "lat": "53.0247", "lng": "11.462"}, {"country": "DE", "name": "Garstedt", "lat": "53.28467", "lng": "10.16137"}, {"country": "DE", "name": "Gars", "lat": "48.15386", "lng": "12.27767"}, {"country": "DE", "name": "Garrel", "lat": "52.95", "lng": "8.01667"}, {"country": "DE", "name": "Garmisch-Partenkirchen", "lat": "47.49209", "lng": "11.09576"}, {"country": "DE", "name": "Garlstorf", "lat": "53.23728", "lng": "10.10137"}, {"country": "DE", "name": "Garding", "lat": "54.33056", "lng": "8.78056"}, {"country": "DE", "name": "Gardelegen", "lat": "52.5252", "lng": "11.39523"}, {"country": "DE", "name": "Garching bei M\u00fcnchen", "lat": "48.24896", "lng": "11.65101"}, {"country": "DE", "name": "Garching an der Alz", "lat": "48.13451", "lng": "12.58152"}, {"country": "DE", "name": "Garbsen", "lat": "52.41371", "lng": "9.5899"}, {"country": "DE", "name": "Gangloffs\u00f6mmern", "lat": "51.1894", "lng": "10.94332"}, {"country": "DE", "name": "Gangkofen", "lat": "48.43701", "lng": "12.56419"}, {"country": "DE", "name": "Gangelt", "lat": "50.99247", "lng": "5.99802"}, {"country": "DE", "name": "Ganderkesee", "lat": "53.03333", "lng": "8.53333"}, {"country": "DE", "name": "Gammertingen", "lat": "48.2524", "lng": "9.22349"}, {"country": "DE", "name": "Gammelshausen", "lat": "48.64023", "lng": "9.65072"}, {"country": "DE", "name": "Gammelsdorf", "lat": "48.55", "lng": "11.95"}, {"country": "DE", "name": "Gai\u00dfach", "lat": "47.75", "lng": "11.58333"}, {"country": "DE", "name": "Gaimersheim", "lat": "48.80705", "lng": "11.36801"}, {"country": "DE", "name": "Gailingen", "lat": "47.69711", "lng": "8.75567"}, {"country": "DE", "name": "Gaildorf", "lat": "49.00027", "lng": "9.76953"}, {"country": "DE", "name": "Gaienhofen", "lat": "47.68333", "lng": "8.98333"}, {"country": "DE", "name": "Gaiberg", "lat": "49.36639", "lng": "8.74972"}, {"country": "DE", "name": "Gaggenau", "lat": "48.8", "lng": "8.33333"}, {"country": "DE", "name": "G\u00e4gelow", "lat": "53.68558", "lng": "11.89639"}, {"country": "DE", "name": "Gadheim", "lat": "49.84584", "lng": "9.90566"}, {"country": "DE", "name": "Gadebusch", "lat": "53.70137", "lng": "11.11676"}, {"country": "DE", "name": "Gachenbach", "lat": "48.5", "lng": "11.23333"}, {"country": "DE", "name": "Gablingen", "lat": "48.45", "lng": "10.81667"}, {"country": "DE", "name": "Gablenz", "lat": "51.53333", "lng": "14.66667"}, {"country": "DE", "name": "Gemeinde Friedland", "lat": "51.41667", "lng": "9.93333"}, {"country": "DE", "name": "Gutenzell-H\u00fcrbel", "lat": "48.11667", "lng": "9.98333"}, {"country": "DE", "name": "Giesen", "lat": "52.19716", "lng": "9.8989"}, {"country": "DE", "name": "Gossersweiler-Stein", "lat": "49.15", "lng": "7.93333"}, {"country": "DE", "name": "Gondershausen", "lat": "50.15", "lng": "7.5"},