[{"country": "AD", "name": "les Escaldes", "lat": "42.50729", "lng": "1.53414"}, {"country": "AD", "name": "la Massana", "lat": "42.54499", "lng": "1.51483"}, {"country": "AF", "name": "L\u0101sh", "lat": "35.3782", "lng": "64.77457"}, {"country": "AF", "name": "Lashkar G\u0101h", "lat": "31.59382", "lng": "64.37161"}, {"country": "AF", "name": "L\u0101sh-e Juwayn", "lat": "31.71382", "lng": "61.62272"}, {"country": "AF", "name": "Larkird", "lat": "35.48936", "lng": "66.66409"}, {"country": "AF", "name": "La\u2018l", "lat": "34.50141", "lng": "66.27997"}, {"country": "AF", "name": "Langar", "lat": "35.99474", "lng": "68.05081"}, {"country": "AF", "name": "Lab-Sar", "lat": "36.02634", "lng": "66.83799"}, {"country": "AG", "name": "Liberta", "lat": "17.03333", "lng": "-61.78333"}, {"country": "AL", "name": "Livadhja", "lat": "39.78917", "lng": "20.12194"}, {"country": "AL", "name": "Lunik", "lat": "41.28917", "lng": "20.32361"}, {"country": "AL", "name": "Llugaj", "lat": "42.34139", "lng": "20.10861"}, {"country": "AL", "name": "Lis", "lat": "41.6275", "lng": "20.08528"}, {"country": "AL", "name": "Liqenas", "lat": "40.78667", "lng": "20.90222"}, {"country": "AL", "name": "Librazhd", "lat": "41.17944", "lng": "20.315"}, {"country": "AL", "name": "Libonik", "lat": "40.70444", "lng": "20.70861"}, {"country": "AL", "name": "Libohov\u00eb", "lat": "40.03111", "lng": "20.26306"}, {"country": "AL", "name": "Leskovik", "lat": "40.15139", "lng": "20.59722"}, {"country": "AL", "name": "Leshnj\u00eb", "lat": "40.53694", "lng": "20.31333"}, {"country": "AL", "name": "Lenias", "lat": "40.76667", "lng": "20.39139"}, {"country": "AL", "name": "Lekas", "lat": "40.60222", "lng": "20.5125"}, {"country": "AL", "name": "Lazarat", "lat": "40.04667", "lng": "20.1475"}, {"country": "AL", "name": "Labinot-Mal", "lat": "41.20083", "lng": "20.15222"}, {"country": "AL", "name": "Labinot-Fush\u00eb", "lat": "41.14056", "lng": "20.14611"}, {"country": "AL", "name": "Librazhd-Qend\u00ebr", "lat": "41.19694", "lng": "20.33556"}, {"country": "AL", "name": "Lukov\u00eb", "lat": "39.99222", "lng": "19.91389"}, {"country": "AL", "name": "Luzi i Vog\u00ebl", "lat": "41.1275", "lng": "19.57389"}, {"country": "AL", "name": "Lushnj\u00eb", "lat": "40.94194", "lng": "19.705"}, {"country": "AL", "name": "Luftinj\u00eb", "lat": "40.44278", "lng": "19.95444"}, {"country": "AL", "name": "Libofsh\u00eb", "lat": "40.83444", "lng": "19.55222"}, {"country": "AL", "name": "Lezh\u00eb", "lat": "41.78361", "lng": "19.64361"}, {"country": "AL", "name": "Levan", "lat": "40.67611", "lng": "19.48972"}, {"country": "AL", "name": "Lekbibaj", "lat": "42.29472", "lng": "19.93167"}, {"country": "AL", "name": "Lekaj", "lat": "41.11444", "lng": "19.60972"}, {"country": "AL", "name": "La\u00e7", "lat": "41.63556", "lng": "19.71306"}, {"country": "AM", "name": "Lukashin", "lat": "40.18726", "lng": "44.0039"}, {"country": "AM", "name": "Lorut", "lat": "40.93717", "lng": "44.77142"}, {"country": "AM", "name": "Lichk\u2019", "lat": "40.15933", "lng": "45.23467"}, {"country": "AM", "name": "Lerrnavan", "lat": "40.7882", "lng": "44.16024"}, {"country": "AM", "name": "Lerrnapat", "lat": "40.81538", "lng": "44.39344"}, {"country": "AM", "name": "Lerrnants\u2019k\u2019", "lat": "40.79532", "lng": "44.27435"}, {"country": "AM", "name": "Lerrnanist", "lat": "40.46676", "lng": "44.79249"}, {"country": "AM", "name": "Lerrnakert", "lat": "40.5625", "lng": "43.9389"}, {"country": "AM", "name": "Lchashen", "lat": "40.51947", "lng": "44.93048"}, {"country": "AM", "name": "Lchap\u2019", "lat": "40.45569", "lng": "45.07507"}, {"country": "AM", "name": "Lanjaghbyur", "lat": "40.26947", "lng": "45.14447"}, {"country": "AM", "name": "Lenughi", "lat": "40.12512", "lng": "43.96393"}, {"country": "AO", "name": "Lucapa", "lat": "-8.41915", "lng": "20.74466"}, {"country": "AO", "name": "Lumeje", "lat": "-11.55", "lng": "20.78333"}, {"country": "AO", "name": "Luau", "lat": "-10.70727", "lng": "22.22466"}, {"country": "AO", "name": "L\u00e9ua", "lat": "-11.65", "lng": "20.45"}, {"country": "AO", "name": "Luanda", "lat": "-8.83682", "lng": "13.23432"}, {"country": "AO", "name": "Luena", "lat": "-11.78333", "lng": "19.91667"}, {"country": "AO", "name": "Lubango", "lat": "-14.91717", "lng": "13.4925"}, {"country": "AO", "name": "Longonjo", "lat": "-12.90667", "lng": "15.25333"}, {"country": "AO", "name": "Lobito", "lat": "-12.3644", "lng": "13.53601"}, {"country": "AR", "name": "Luj\u00e1n", "lat": "-34.57028", "lng": "-59.105"}, {"country": "AR", "name": "Lucas Gonz\u00e1lez", "lat": "-32.3843", "lng": "-59.53013"}, {"country": "AR", "name": "Los Helechos", "lat": "-27.5576", "lng": "-55.07683"}, {"country": "AR", "name": "Los Conquistadores", "lat": "-30.5908", "lng": "-58.46773"}, {"country": "AR", "name": "Los Charr\u00faas", "lat": "-31.17548", "lng": "-58.18774"}, {"country": "AR", "name": "Loreto", "lat": "-27.76834", "lng": "-57.27531"}, {"country": "AR", "name": "Loreto", "lat": "-27.33635", "lng": "-55.52225"}, {"country": "AR", "name": "Lomas de Zamora", "lat": "-34.76088", "lng": "-58.40632"}, {"country": "AR", "name": "Lomas de Vallejos", "lat": "-27.73501", "lng": "-57.9185"}, {"country": "AR", "name": "Lobos", "lat": "-35.18286", "lng": "-59.08975"}, {"country": "AR", "name": "Lober\u00eda", "lat": "-38.15574", "lng": "-58.7913"}, {"country": "AR", "name": "Libertad", "lat": "-30.043", "lng": "-57.8202"}, {"country": "AR", "name": "Leandro N. Alem", "lat": "-27.60341", "lng": "-55.32491"}, {"country": "AR", "name": "La Verde", "lat": "-27.12634", "lng": "-59.37352"}, {"country": "AR", "name": "Las Toscas", "lat": "-28.3529", "lng": "-59.25795"}, {"country": "AR", "name": "Las Garcitas", "lat": "-26.58333", "lng": "-59.8"}, {"country": "AR", "name": "Las Flores", "lat": "-36.01403", "lng": "-59.09984"}, {"country": "AR", "name": "Larroque", "lat": "-33.03595", "lng": "-59.00125"}, {"country": "AR", "name": "La Plata", "lat": "-34.92145", "lng": "-57.95453"}, {"country": "AR", "name": "La Paz", "lat": "-30.74485", "lng": "-59.64566"}, {"country": "AR", "name": "Lapachito", "lat": "-27.15997", "lng": "-59.38605"}, {"country": "AR", "name": "Lan\u00fas", "lat": "-34.70252", "lng": "-58.3955"}, {"country": "AR", "name": "La Leonesa", "lat": "-27.03786", "lng": "-58.70347"}, {"country": "AR", "name": "Laguna Naick-Neck", "lat": "-25.24769", "lng": "-58.09383"}, {"country": "AR", "name": "Laguna Limpia", "lat": "-26.49565", "lng": "-59.68083"}, {"country": "AR", "name": "La Escondida", "lat": "-27.10724", "lng": "-59.44784"}, {"country": "AR", "name": "La Eduvigis", "lat": "-26.85545", "lng": "-59.06842"}, {"country": "AR", "name": "La Cruz", "lat": "-29.17443", "lng": "-56.64326"}, {"country": "AR", "name": "La Criolla", "lat": "-31.26904", "lng": "-58.10558"}, {"country": "AR", "name": "Luj\u00e1n de Cuyo", "lat": "-33.03547", "lng": "-68.87782"}, {"country": "AR", "name": "Luj\u00e1n", "lat": "-32.3757", "lng": "-65.9296"}, {"country": "AR", "name": "Los Varela", "lat": "-27.95482", "lng": "-65.8655"}, {"country": "AR", "name": "Los Telares", "lat": "-28.98479", "lng": "-63.44889"}, {"country": "AR", "name": "Los Surgentes", "lat": "-32.98454", "lng": "-62.02191"}, {"country": "AR", "name": "Los Menucos", "lat": "-40.84402", "lng": "-68.08718"}, {"country": "AR", "name": "Los Jur\u00edes", "lat": "-28.46539", "lng": "-62.10862"}, {"country": "AR", "name": "Los Frentones", "lat": "-26.4077", "lng": "-61.41367"}, {"country": "AR", "name": "Los C\u00f3ndores", "lat": "-32.31983", "lng": "-64.27751"}, {"country": "AR", "name": "Los Antiguos", "lat": "-46.54972", "lng": "-71.63086"}, {"country": "AR", "name": "Los Altos", "lat": "-28.04845", "lng": "-65.49945"}, {"country": "AR", "name": "Lonquimay", "lat": "-36.46546", "lng": "-63.62429"}, {"country": "AR", "name": "Londres", "lat": "-27.71439", "lng": "-67.13349"}, {"country": "AR", "name": "Loncopu\u00e9", "lat": "-38.07284", "lng": "-70.61609"}, {"country": "AR", "name": "Lincoln", "lat": "-34.86649", "lng": "-61.5302"}, {"country": "AR", "name": "Limay Mahuida", "lat": "-37.15959", "lng": "-66.67595"}, {"country": "AR", "name": "Libertador General San Mart\u00edn", "lat": "-32.41074", "lng": "-65.67586"}, {"country": "AR", "name": "Libertador General San Mart\u00edn", "lat": "-23.80644", "lng": "-64.78757"}, {"country": "AR", "name": "Leones", "lat": "-32.66174", "lng": "-62.29678"}, {"country": "AR", "name": "Leleque", "lat": "-42.41225", "lng": "-71.06797"}, {"country": "AR", "name": "La Vi\u00f1a", "lat": "-25.46642", "lng": "-65.5663"}, {"country": "AR", "name": "La Toma", "lat": "-33.05258", "lng": "-65.62385"}, {"country": "AR", "name": "La Tigra", "lat": "-27.10996", "lng": "-60.58719"}, {"country": "AR", "name": "Las Varillas", "lat": "-31.87208", "lng": "-62.71946"}, {"country": "AR", "name": "Las Varas", "lat": "-31.8026", "lng": "-62.61655"}, {"country": "AR", "name": "Las Rosas", "lat": "-32.47661", "lng": "-61.58041"}, {"country": "AR", "name": "Las Plumas", "lat": "-43.72058", "lng": "-67.28319"}, {"country": "AR", "name": "Las Perdices", "lat": "-32.69794", "lng": "-63.70634"}, {"country": "AR", "name": "Las Parejas", "lat": "-32.68478", "lng": "-61.51637"}, {"country": "AR", "name": "Las Ovejas", "lat": "-36.98881", "lng": "-70.74991"}, {"country": "AR", "name": "Las Lomitas", "lat": "-24.70955", "lng": "-60.59303"}, {"country": "AR", "name": "Las Lajitas", "lat": "-24.68333", "lng": "-64.25"}, {"country": "AR", "name": "Las Lajas", "lat": "-38.52322", "lng": "-70.36745"}, {"country": "AR", "name": "Las Junturas", "lat": "-31.83125", "lng": "-63.45016"}, {"country": "AR", "name": "Las Higueras", "lat": "-33.09231", "lng": "-64.28899"}, {"country": "AR", "name": "Las Heras", "lat": "-46.54186", "lng": "-68.93593"}, {"country": "AR", "name": "Las Heras", "lat": "-32.85273", "lng": "-68.82837"}, {"country": "AR", "name": "Las Coloradas", "lat": "-39.55534", "lng": "-70.59491"}, {"country": "AR", "name": "Las Bre\u00f1as", "lat": "-27.08966", "lng": "-61.08161"}, {"country": "AR", "name": "Las Acequias", "lat": "-33.28155", "lng": "-63.9761"}, {"country": "AR", "name": "La Rioja", "lat": "-29.41105", "lng": "-66.85067"}, {"country": "AR", "name": "La Quiaca", "lat": "-22.10236", "lng": "-65.59299"}, {"country": "AR", "name": "La Puerta de San Jos\u00e9", "lat": "-27.55", "lng": "-67.01667"}, {"country": "AR", "name": "La Puerta", "lat": "-28.17036", "lng": "-65.79015"}, {"country": "AR", "name": "Laprida", "lat": "-37.54415", "lng": "-60.79969"}, {"country": "AR", "name": "La Poma", "lat": "-24.72196", "lng": "-66.20106"}, {"country": "AR", "name": "La Playosa", "lat": "-32.10002", "lng": "-63.03088"}, {"country": "AR", "name": "La Paz", "lat": "-33.46091", "lng": "-67.54956"}, {"country": "AR", "name": "La Para", "lat": "-30.89416", "lng": "-63.00107"}, {"country": "AR", "name": "La Merced", "lat": "-28.15195", "lng": "-65.66029"}, {"country": "AR", "name": "La Mendieta", "lat": "-24.31187", "lng": "-64.96377"}, {"country": "AR", "name": "La Maruja", "lat": "-35.6736", "lng": "-64.93997"}, {"country": "AR", "name": "Lamarque", "lat": "-39.42304", "lng": "-65.70208"}, {"country": "AR", "name": "Laguna Yema", "lat": "-24.25391", "lng": "-61.24466"}, {"country": "AR", "name": "Laguna Paiva", "lat": "-31.30391", "lng": "-60.65894"}, {"country": "AR", "name": "Laguna Larga", "lat": "-31.77652", "lng": "-63.80104"}, {"country": "AR", "name": "La Granja", "lat": "-31.00919", "lng": "-64.26869"}, {"country": "AR", "name": "Lago Puelo", "lat": "-42.08095", "lng": "-71.61405"}, {"country": "AR", "name": "La Francia", "lat": "-31.40675", "lng": "-62.63396"}, {"country": "AR", "name": "La Falda", "lat": "-31.08841", "lng": "-64.48987"}, {"country": "AR", "name": "La Cumbre", "lat": "-30.98201", "lng": "-64.49139"}, {"country": "AR", "name": "La Consulta", "lat": "-33.73579", "lng": "-69.12181"}, {"country": "AR", "name": "La Cocha", "lat": "-27.77729", "lng": "-65.57035"}, {"country": "AR", "name": "La Clotilde", "lat": "-27.13333", "lng": "-60.66667"}, {"country": "AR", "name": "La Cesira", "lat": "-33.95115", "lng": "-62.97238"}, {"country": "AR", "name": "La Carlota", "lat": "-33.41993", "lng": "-63.29769"}, {"country": "AR", "name": "La Candelaria", "lat": "-26.12708", "lng": "-65.0496"}, {"country": "AR", "name": "La Ca\u00f1ada", "lat": "-27.70826", "lng": "-63.77366"}, {"country": "AR", "name": "La Calera", "lat": "-31.34377", "lng": "-64.33529"}, {"country": "AR", "name": "La Caldera", "lat": "-24.60159", "lng": "-65.38098"}, {"country": "AR", "name": "Laboulaye", "lat": "-34.12662", "lng": "-63.39119"}, {"country": "AR", "name": "Laborde", "lat": "-33.15319", "lng": "-62.85661"}, {"country": "AR", "name": "La Banda", "lat": "-27.73348", "lng": "-64.24278"}, {"country": "AR", "name": "La Punta", "lat": "-33.18368", "lng": "-66.3127"}, {"country": "AR", "name": "Los Laureles", "lat": "-29.36847", "lng": "-59.73634"}, {"country": "AR", "name": "La Adela", "lat": "-38.98333", "lng": "-64.08333"}, {"country": "AS", "name": "Leone", "lat": "-14.34389", "lng": "-170.785"}, {"country": "AT", "name": "Lutzmannsburg", "lat": "47.46373", "lng": "16.63665"}, {"country": "AT", "name": "Lustenau", "lat": "47.42642", "lng": "9.65851"}, {"country": "AT", "name": "Lunz am See", "lat": "47.8612", "lng": "15.02998"}, {"country": "AT", "name": "Ludmannsdorf", "lat": "46.54139", "lng": "14.13425"}, {"country": "AT", "name": "Ludesch", "lat": "47.2", "lng": "9.78306"}, {"country": "AT", "name": "Losenstein", "lat": "47.92428", "lng": "14.43672"}, {"country": "AT", "name": "Lor\u00fcns", "lat": "47.13306", "lng": "9.85"}, {"country": "AT", "name": "Loretto", "lat": "47.91559", "lng": "16.5179"}, {"country": "AT", "name": "Loosdorf", "lat": "48.2", "lng": "15.4"}, {"country": "AT", "name": "Loipersdorf bei F\u00fcrstenfeld", "lat": "47", "lng": "16.1"}, {"country": "AT", "name": "Loipersbach im Burgenland", "lat": "47.69656", "lng": "16.47919"}, {"country": "AT", "name": "Loich", "lat": "47.99578", "lng": "15.40163"}, {"country": "AT", "name": "Lofer", "lat": "47.58475", "lng": "12.69333"}, {"country": "AT", "name": "L\u00f6dersdorf", "lat": "46.95861", "lng": "15.94333"}, {"country": "AT", "name": "Lochau", "lat": "47.53333", "lng": "9.75"}, {"country": "AT", "name": "Litzelsdorf", "lat": "47.20826", "lng": "16.1717"}, {"country": "AT", "name": "Litschau", "lat": "48.94409", "lng": "15.04483"}, {"country": "AT", "name": "Linz", "lat": "48.30639", "lng": "14.28611"}, {"country": "AT", "name": "Lilienfeld", "lat": "48.01312", "lng": "15.59664"}, {"country": "AT", "name": "Ligist", "lat": "46.99389", "lng": "15.21083"}, {"country": "AT", "name": "Liezen", "lat": "47.56667", "lng": "14.23333"}, {"country": "AT", "name": "Lienz", "lat": "46.8289", "lng": "12.76903"}, {"country": "AT", "name": "Lieboch", "lat": "46.97417", "lng": "15.3375"}, {"country": "AT", "name": "Lichtenw\u00f6rth", "lat": "47.82756", "lng": "16.29873"}, {"country": "AT", "name": "Lichtenegg", "lat": "47.6", "lng": "16.2"}, {"country": "AT", "name": "Leutschach", "lat": "46.66722", "lng": "15.46889"}, {"country": "AT", "name": "Lermoos", "lat": "47.40358", "lng": "10.8807"}, {"country": "AT", "name": "Leopoldsdorf im Marchfelde", "lat": "48.22261", "lng": "16.68858"}, {"country": "AT", "name": "Leopoldsdorf", "lat": "48.11557", "lng": "16.39126"}, {"country": "AT", "name": "Leonding", "lat": "48.27965", "lng": "14.2533"}, {"country": "AT", "name": "Leogang", "lat": "47.43906", "lng": "12.76109"}, {"country": "AT", "name": "Leobersdorf", "lat": "47.92796", "lng": "16.21651"}, {"country": "AT", "name": "Leobendorf", "lat": "48.38333", "lng": "16.31667"}, {"country": "AT", "name": "Leoben", "lat": "47.3765", "lng": "15.09144"}, {"country": "AT", "name": "Lenzing", "lat": "47.97326", "lng": "13.60846"}, {"country": "AT", "name": "Lengenfeld", "lat": "48.47187", "lng": "15.5987"}, {"country": "AT", "name": "Lendorf", "lat": "46.83528", "lng": "13.43028"}, {"country": "AT", "name": "Lend", "lat": "47.29856", "lng": "13.05176"}, {"country": "AT", "name": "Leitzersdorf", "lat": "48.41918", "lng": "16.24513"}, {"country": "AT", "name": "Leithaprodersdorf", "lat": "47.93348", "lng": "16.47915"}, {"country": "AT", "name": "Leitersdorf im Raabtal", "lat": "46.94182", "lng": "15.93365"}, {"country": "AT", "name": "Leisach", "lat": "46.8125", "lng": "12.74861"}, {"country": "AT", "name": "Leibnitz", "lat": "46.78161", "lng": "15.53836"}, {"country": "AT", "name": "Leiben", "lat": "48.24628", "lng": "15.2746"}, {"country": "AT", "name": "Lechaschau", "lat": "47.48804", "lng": "10.70652"}, {"country": "AT", "name": "Lech", "lat": "47.20797", "lng": "10.14184"}, {"country": "AT", "name": "Laxenburg", "lat": "48.06833", "lng": "16.35607"}, {"country": "AT", "name": "Lavant", "lat": "46.79889", "lng": "12.83806"}, {"country": "AT", "name": "Lavam\u00fcnd", "lat": "46.64019", "lng": "14.94733"}, {"country": "AT", "name": "Lauterach", "lat": "47.48306", "lng": "9.73306"}, {"country": "AT", "name": "Laussa", "lat": "47.95", "lng": "14.45"}, {"country": "AT", "name": "Lassing", "lat": "47.53374", "lng": "14.25808"}, {"country": "AT", "name": "Lassee", "lat": "48.22479", "lng": "16.8223"}, {"country": "AT", "name": "Lanzenkirchen", "lat": "47.73621", "lng": "16.21985"}, {"country": "AT", "name": "Lans", "lat": "47.23833", "lng": "11.43139"}, {"country": "AT", "name": "Lannach", "lat": "46.94611", "lng": "15.33722"}, {"country": "AT", "name": "Langschlag", "lat": "48.57448", "lng": "14.88459"}, {"country": "AT", "name": "Langenzersdorf", "lat": "48.30432", "lng": "16.36143"}, {"country": "AT", "name": "Langenwang", "lat": "47.56667", "lng": "15.61667"}, {"country": "AT", "name": "Langenrohr", "lat": "48.30489", "lng": "16.01034"}, {"country": "AT", "name": "Langenlois", "lat": "48.46667", "lng": "15.66667"}, {"country": "AT", "name": "Langegg bei Graz", "lat": "47.05", "lng": "15.63333"}, {"country": "AT", "name": "Langau", "lat": "48.83207", "lng": "15.7156"}, {"country": "AT", "name": "Lang", "lat": "46.83765", "lng": "15.50471"}, {"country": "AT", "name": "Landl", "lat": "47.65666", "lng": "14.73189"}, {"country": "AT", "name": "Landeck", "lat": "47.13988", "lng": "10.56593"}, {"country": "AT", "name": "Lamprechtshausen", "lat": "47.99098", "lng": "12.95481"}, {"country": "AT", "name": "Lambach", "lat": "48.09276", "lng": "13.87453"}, {"country": "AT", "name": "Lafnitz", "lat": "47.36667", "lng": "16.01667"}, {"country": "AT", "name": "Ladis", "lat": "47.07459", "lng": "10.64949"}, {"country": "AT", "name": "Ladendorf", "lat": "48.53333", "lng": "16.48333"}, {"country": "AT", "name": "Lackendorf", "lat": "47.58996", "lng": "16.50404"}, {"country": "AT", "name": "Lackenbach", "lat": "47.59042", "lng": "16.46533"}, {"country": "AT", "name": "Labuch", "lat": "47.06667", "lng": "15.66667"}, {"country": "AT", "name": "Laakirchen", "lat": "47.98188", "lng": "13.82166"}, {"country": "AT", "name": "Laab im Walde", "lat": "48.15486", "lng": "16.17359"}, {"country": "AT", "name": "Laa an der Thaya", "lat": "48.71667", "lng": "16.38333"}, {"country": "AT", "name": "Leutasch", "lat": "47.3689", "lng": "11.14404"}, {"country": "AT", "name": "Lanzendorf", "lat": "48.11056", "lng": "16.445"}, {"country": "AT", "name": "Liebenfels", "lat": "46.73778", "lng": "14.28667"}, {"country": "AT", "name": "Langkampfen", "lat": "47.54878", "lng": "12.10127"}, {"country": "AT", "name": "Lockenhaus", "lat": "47.40753", "lng": "16.41623"}, {"country": "AT", "name": "Loitzenberg", "lat": "48.27291", "lng": "14.55259"}, {"country": "AT", "name": "Lerchenfeld", "lat": "48.41234", "lng": "15.63183"}, {"country": "AU", "name": "Lyndoch", "lat": "-34.60124", "lng": "138.89094"}, {"country": "AU", "name": "Lower Chittering", "lat": "-31.58333", "lng": "116.11667"}, {"country": "AU", "name": "Lobethal", "lat": "-34.90455", "lng": "138.87477"}, {"country": "AU", "name": "Little Hampton", "lat": "-35.05", "lng": "138.85"}, {"country": "AU", "name": "Lewiston", "lat": "-34.60449", "lng": "138.59125"}, {"country": "AU", "name": "Langhorne Creek", "lat": "-35.29596", "lng": "139.03591"}, {"country": "AU", "name": "Larrakeyah", "lat": "-12.45527", "lng": "130.83172"}, {"country": "AU", "name": "Leanyer", "lat": "-12.36667", "lng": "130.9"}, {"country": "AU", "name": "Ludmilla", "lat": "-12.42032", "lng": "130.85506"}, {"country": "AU", "name": "Lower King", "lat": "-34.95778", "lng": "117.93833"}, {"country": "AU", "name": "Lysterfield", "lat": "-37.93333", "lng": "145.3"}, {"country": "AU", "name": "Luddenham", "lat": "-33.8785", "lng": "150.68863"}, {"country": "AU", "name": "Loxton", "lat": "-34.4502", "lng": "140.56908"}, {"country": "AU", "name": "Lower Plenty", "lat": "-37.73333", "lng": "145.11667"}, {"country": "AU", "name": "Loveday", "lat": "-34.28333", "lng": "140.43333"}, {"country": "AU", "name": "Lorn", "lat": "-32.73333", "lng": "151.56667"}, {"country": "AU", "name": "Long Jetty", "lat": "-33.35795", "lng": "151.48135"}, {"country": "AU", "name": "Longford", "lat": "-41.60512", "lng": "147.11887"}, {"country": "AU", "name": "Liverpool", "lat": "-33.9", "lng": "150.93333"}, {"country": "AU", "name": "Little River", "lat": "-37.96667", "lng": "144.5"}, {"country": "AU", "name": "Lithgow", "lat": "-33.4845", "lng": "150.14903"}, {"country": "AU", "name": "Lismore", "lat": "-28.81354", "lng": "153.2773"}, {"country": "AU", "name": "Lisarow", "lat": "-33.38333", "lng": "151.36667"}, {"country": "AU", "name": "Lindisfarne", "lat": "-42.84837", "lng": "147.36192"}, {"country": "AU", "name": "Lindfield", "lat": "-33.78333", "lng": "151.16667"}, {"country": "AU", "name": "Lilydale", "lat": "-37.75", "lng": "145.35"}, {"country": "AU", "name": "Lightning Ridge", "lat": "-29.42743", "lng": "147.97865"}, {"country": "AU", "name": "Lidcombe", "lat": "-33.86436", "lng": "151.0397"}, {"country": "AU", "name": "Leura", "lat": "-33.71667", "lng": "150.33333"}, {"country": "AU", "name": "Leumeah", "lat": "-34.05", "lng": "150.83333"}, {"country": "AU", "name": "Leopold", "lat": "-38.19001", "lng": "144.46825"}, {"country": "AU", "name": "Leichhardt", "lat": "-33.88341", "lng": "151.15625"}, {"country": "AU", "name": "Leeton", "lat": "-34.55105", "lng": "146.40483"}, {"country": "AU", "name": "Lawson", "lat": "-33.72064", "lng": "150.42975"}, {"country": "AU", "name": "Lavington", "lat": "-36.03976", "lng": "146.93958"}, {"country": "AU", "name": "Launceston", "lat": "-41.43876", "lng": "147.13467"}, {"country": "AU", "name": "Lauderdale", "lat": "-42.91364", "lng": "147.48747"}, {"country": "AU", "name": "Latrobe", "lat": "-41.24641", "lng": "146.42458"}, {"country": "AU", "name": "Larnook", "lat": "-28.65162", "lng": "153.11077"}, {"country": "AU", "name": "Largs", "lat": "-32.7", "lng": "151.6"}, {"country": "AU", "name": "Lara", "lat": "-38.02388", "lng": "144.40617"}, {"country": "AU", "name": "Langwarrin", "lat": "-38.16667", "lng": "145.16667"}, {"country": "AU", "name": "Lane Cove", "lat": "-33.8157", "lng": "151.16679"}, {"country": "AU", "name": "Lalor", "lat": "-37.66667", "lng": "145.01667"}, {"country": "AU", "name": "Lakes Entrance", "lat": "-37.86679", "lng": "148.00159"}, {"country": "AU", "name": "Lakemba", "lat": "-33.91972", "lng": "151.07592"}, {"country": "AU", "name": "Lake Illawarra", "lat": "-34.54658", "lng": "150.85645"}, {"country": "AU", "name": "Lake Cargelligo", "lat": "-33.29884", "lng": "146.37296"}, {"country": "AU", "name": "Lake Albert", "lat": "-35.16667", "lng": "147.38333"}, {"country": "AU", "name": "Lower Plenty", "lat": "-37.75", "lng": "145.11667"}, {"country": "AU", "name": "Lambton", "lat": "-32.91667", "lng": "151.7"}, {"country": "AU", "name": "Loftus", "lat": "-34.04467", "lng": "151.04646"}, {"country": "AU", "name": "Lugarno", "lat": "-33.98267", "lng": "151.04184"}, {"country": "AU", "name": "Lutana", "lat": "-42.83475", "lng": "147.31152"}, {"country": "AU", "name": "Lake Heights", "lat": "-34.48667", "lng": "150.875"}, {"country": "AU", "name": "Laverton", "lat": "-37.86201", "lng": "144.76979"}, {"country": "AU", "name": "Lilyfield", "lat": "-33.87499", "lng": "151.1653"}, {"country": "AU", "name": "Longueville", "lat": "-33.83285", "lng": "151.16531"}, {"country": "AU", "name": "Logan City", "lat": "-27.63917", "lng": "153.10944"}, {"country": "AU", "name": "Launching Place", "lat": "-37.78058", "lng": "145.56834"}, {"country": "AU", "name": "Leederville", "lat": "-31.93628", "lng": "115.8419"}, {"country": "AU", "name": "Lynbrook", "lat": "-38.05588", "lng": "145.25615"}, {"country": "AU", "name": "Long Gully", "lat": "-36.74305", "lng": "144.25788"}, {"country": "AU", "name": "Little Mountain", "lat": "-26.78436", "lng": "153.09218"}, {"country": "AU", "name": "Langford", "lat": "-32.04092", "lng": "115.94157"}, {"country": "AU", "name": "Lane Cove North", "lat": "-33.80543", "lng": "151.16638"}, {"country": "AU", "name": "Logan Reserve", "lat": "-27.72414", "lng": "153.09002"}, {"country": "AU", "name": "Langwarrin South", "lat": "-38.19868", "lng": "145.18068"}, {"country": "AU", "name": "Lane Cove West", "lat": "-33.81613", "lng": "151.15145"}, {"country": "AU", "name": "Lewisham", "lat": "-33.89719", "lng": "151.14883"}, {"country": "AU", "name": "Leabrook", "lat": "-34.92976", "lng": "138.65862"}, {"country": "AU", "name": "Linden Park", "lat": "-34.94728", "lng": "138.65287"}, {"country": "AU", "name": "Lower Beechmont", "lat": "-28.04751", "lng": "153.24572"}, {"country": "AU", "name": "Lakelands", "lat": "-32.47754", "lng": "115.75573"}, {"country": "AU", "name": "Little Jilliby", "lat": "-33.24066", "lng": "151.37006"}, {"country": "AU", "name": "Lake Wendouree", "lat": "-37.54993", "lng": "143.8473"}, {"country": "AU", "name": "Liverpool", "lat": "-33.92292", "lng": "150.92176"}, {"country": "AX", "name": "Lumparland", "lat": "60.11695", "lng": "20.25819"}, {"country": "AX", "name": "Lemland", "lat": "60.07178", "lng": "20.08472"}, {"country": "AZ", "name": "Lerik", "lat": "38.77388", "lng": "48.41497"}, {"country": "AZ", "name": "Lankaran", "lat": "38.75428", "lng": "48.85062"}, {"country": "AZ", "name": "La\u00e7\u0131n", "lat": "39.59881", "lng": "46.55045"}, {"country": "AZ", "name": "L\u00f6kbatan", "lat": "40.3256", "lng": "49.73376"}, {"country": "BA", "name": "Lukavica", "lat": "44.76452", "lng": "18.16887"}, {"country": "BA", "name": "Lukavica", "lat": "43.82693", "lng": "18.38318"}, {"country": "BA", "name": "Lukavac", "lat": "44.54245", "lng": "18.52618"}, {"country": "BA", "name": "Lopare", "lat": "44.63498", "lng": "18.8434"}, {"country": "BA", "name": "Lokvine", "lat": "44.20466", "lng": "17.85665"}, {"country": "BA", "name": "Ljubu\u0161ki", "lat": "43.19694", "lng": "17.545"}, {"country": "BA", "name": "Ljubinje", "lat": "42.9512", "lng": "18.08702"}, {"country": "BA", "name": "Livno", "lat": "43.82695", "lng": "17.00746"}, {"country": "BA", "name": "Lakta\u0161i", "lat": "44.90857", "lng": "17.30135"}, {"country": "BA", "name": "Lamovita", "lat": "44.92018", "lng": "16.89933"}, {"country": "BA", "name": "Lije\u0161nica", "lat": "44.49497", "lng": "18.07644"}, {"country": "BD", "name": "Lalmonirhat", "lat": "25.91719", "lng": "89.44595"}, {"country": "BD", "name": "L\u0101ksh\u0101m", "lat": "23.24018", "lng": "91.12143"}, {"country": "BD", "name": "L\u0101lmohan", "lat": "22.33774", "lng": "90.73708"}, {"country": "BD", "name": "Lakshm\u012bpur", "lat": "22.9443", "lng": "90.83005"}, {"country": "BE", "name": "Lummen", "lat": "50.98772", "lng": "5.19121"}, {"country": "BE", "name": "Lubbeek", "lat": "50.88278", "lng": "4.83896"}, {"country": "BE", "name": "Lovendegem", "lat": "51.10168", "lng": "3.61298"}, {"country": "BE", "name": "Louvain-la-Neuve", "lat": "50.66829", "lng": "4.61443"}, {"country": "BE", "name": "Lontzen", "lat": "50.68126", "lng": "6.00712"}, {"country": "BE", "name": "Londerzeel", "lat": "51.00468", "lng": "4.30304"}, {"country": "BE", "name": "Lommel", "lat": "51.23074", "lng": "5.31349"}, {"country": "BE", "name": "Lokeren", "lat": "51.10364", "lng": "3.99339"}, {"country": "BE", "name": "Lochristi", "lat": "51.09644", "lng": "3.83194"}, {"country": "BE", "name": "Lobbes", "lat": "50.35258", "lng": "4.26716"}, {"country": "BE", "name": "Lint", "lat": "51.12707", "lng": "4.49669"}, {"country": "BE", "name": "Linkebeek", "lat": "50.76781", "lng": "4.33688"}, {"country": "BE", "name": "Lincent", "lat": "50.71222", "lng": "5.03654"}, {"country": "BE", "name": "Limbourg", "lat": "50.61222", "lng": "5.9412"}, {"country": "BE", "name": "Lille", "lat": "51.24197", "lng": "4.82313"}, {"country": "BE", "name": "Lier", "lat": "51.13128", "lng": "4.57041"}, {"country": "BE", "name": "Lierneux", "lat": "50.28477", "lng": "5.79236"}, {"country": "BE", "name": "Li\u00e8ge", "lat": "50.63373", "lng": "5.56749"}, {"country": "BE", "name": "Liedekerke", "lat": "50.86892", "lng": "4.08743"}, {"country": "BE", "name": "Lichtervelde", "lat": "51.03333", "lng": "3.15"}, {"country": "BE", "name": "Libin", "lat": "49.98107", "lng": "5.25612"}, {"country": "BE", "name": "Leuven", "lat": "50.87959", "lng": "4.70093"}, {"country": "BE", "name": "Lessines", "lat": "50.71104", "lng": "3.83579"}, {"country": "BE", "name": "Leopoldsburg", "lat": "51.11667", "lng": "5.25"}, {"country": "BE", "name": "Lens", "lat": "50.55696", "lng": "3.89946"}, {"country": "BE", "name": "Lendelede", "lat": "50.88626", "lng": "3.23747"}, {"country": "BE", "name": "L\u00e9glise", "lat": "49.79985", "lng": "5.53652"}, {"country": "BE", "name": "Ledegem", "lat": "50.85785", "lng": "3.12409"}, {"country": "BE", "name": "Ledeberg", "lat": "51.03859", "lng": "3.74458"}, {"country": "BE", "name": "Ledeberg", "lat": "50.84356", "lng": "4.09112"}, {"country": "BE", "name": "Lede", "lat": "50.96626", "lng": "3.98594"}, {"country": "BE", "name": "Lebbeke", "lat": "51.00464", "lng": "4.13457"}, {"country": "BE", "name": "La Roche-en-Ardenne", "lat": "50.18361", "lng": "5.57547"}, {"country": "BE", "name": "Landen", "lat": "50.75267", "lng": "5.082"}, {"country": "BE", "name": "Lanaken", "lat": "50.89318", "lng": "5.6468"}, {"country": "BE", "name": "La Louvi\u00e8re", "lat": "50.48657", "lng": "4.18785"}, {"country": "BE", "name": "La Hulpe", "lat": "50.73091", "lng": "4.48577"}, {"country": "BE", "name": "La Calamine", "lat": "50.71809", "lng": "6.01107"}, {"country": "BE", "name": "La Bruy\u00e8re", "lat": "50.39478", "lng": "4.61444"}, {"country": "BE", "name": "Laarne", "lat": "51.03078", "lng": "3.85077"}, {"country": "BF", "name": "L\u00e9o", "lat": "11.10033", "lng": "-2.10654"}, {"country": "BG", "name": "Lyubimets", "lat": "41.83333", "lng": "26.08333"}, {"country": "BG", "name": "Lyaskovets", "lat": "43.11111", "lng": "25.72833"}, {"country": "BG", "name": "Lukovit", "lat": "43.2", "lng": "24.16667"}, {"country": "BG", "name": "Laki", "lat": "41.85", "lng": "24.81667"}, {"country": "BG", "name": "Loznitsa", "lat": "43.36667", "lng": "26.6"}, {"country": "BG", "name": "Lovech", "lat": "43.13333", "lng": "24.71667"}, {"country": "BG", "name": "Lom", "lat": "43.81389", "lng": "23.23611"}, {"country": "BG", "name": "Levski", "lat": "43.36667", "lng": "25.13333"}, {"country": "BG", "name": "Letnitsa", "lat": "43.31167", "lng": "25.07333"}, {"country": "BG", "name": "Lesichovo", "lat": "42.35626", "lng": "24.1119"}, {"country": "BG", "name": "Lakatnik", "lat": "43.05", "lng": "23.4"}, {"country": "BJ", "name": "Lokossa", "lat": "6.63869", "lng": "1.71674"}, {"country": "BO", "name": "Los Negros", "lat": "-17.73333", "lng": "-63.43333"}, {"country": "BO", "name": "Llallagua", "lat": "-18.42426", "lng": "-66.58388"}, {"country": "BO", "name": "Limoncito", "lat": "-18.03104", "lng": "-63.40523"}, {"country": "BO", "name": "La Paz", "lat": "-16.5", "lng": "-68.15"}, {"country": "BO", "name": "Lahuachaca", "lat": "-17.37054", "lng": "-67.67501"}, {"country": "BO", "name": "La B\u00e9lgica", "lat": "-17.55", "lng": "-63.21667"}, {"country": "BR", "name": "Luzil\u00e2ndia", "lat": "-3.45778", "lng": "-42.37028"}, {"country": "BR", "name": "Lu\u00eds Correia", "lat": "-2.87917", "lng": "-41.66694"}, {"country": "BR", "name": "Limoeiro do Norte", "lat": "-5.14556", "lng": "-38.09806"}, {"country": "BR", "name": "Limoeiro do Ajuru", "lat": "-1.89528", "lng": "-49.38056"}, {"country": "BR", "name": "Limoeiro de Anadia", "lat": "-9.74056", "lng": "-36.50278"}, {"country": "BR", "name": "Limoeiro", "lat": "-7.87472", "lng": "-35.45028"}, {"country": "BR", "name": "Lavras da Mangabeira", "lat": "-6.75333", "lng": "-38.96444"}, {"country": "BR", "name": "Lajedo", "lat": "-8.66361", "lng": "-36.32"}, {"country": "BR", "name": "Lago da Pedra", "lat": "-4.28674", "lng": "-45.23824"}, {"country": "BR", "name": "Lagoa Seca", "lat": "-7.17083", "lng": "-35.85361"}, {"country": "BR", "name": "Lagoa Nova", "lat": "-6.1", "lng": "-36.48333"}, {"country": "BR", "name": "Lagoa do Itaenga", "lat": "-7.93611", "lng": "-35.29028"}, {"country": "BR", "name": "Lagoa da Canoa", "lat": "-9.82972", "lng": "-36.73778"}, {"country": "BR", "name": "Luzi\u00e2nia", "lat": "-16.2525", "lng": "-47.95028"}, {"country": "BR", "name": "Luz", "lat": "-19.80139", "lng": "-45.68556"}, {"country": "BR", "name": "Luc\u00e9lia", "lat": "-21.72028", "lng": "-51.01889"}, {"country": "BR", "name": "Lucas", "lat": "-16.33333", "lng": "-55.93333"}, {"country": "BR", "name": "Louveira", "lat": "-23.08639", "lng": "-46.95056"}, {"country": "BR", "name": "Lorena", "lat": "-22.73083", "lng": "-45.12472"}, {"country": "BR", "name": "Londrina", "lat": "-23.31028", "lng": "-51.16278"}, {"country": "BR", "name": "Loanda", "lat": "-22.92306", "lng": "-53.13722"}, {"country": "BR", "name": "Livramento do Brumado", "lat": "-13.65145", "lng": "-41.84564"}, {"country": "BR", "name": "Lins", "lat": "-21.67861", "lng": "-49.7425"}, {"country": "BR", "name": "Linhares", "lat": "-19.39111", "lng": "-40.07222"}, {"country": "BR", "name": "Limeira", "lat": "-22.56472", "lng": "-47.40167"}, {"country": "BR", "name": "Lima Duarte", "lat": "-21.8425", "lng": "-43.79306"}, {"country": "BR", "name": "Leopoldina", "lat": "-21.53194", "lng": "-42.64306"}, {"country": "BR", "name": "Len\u00e7\u00f3is Paulista", "lat": "-22.59861", "lng": "-48.80028"}, {"country": "BR", "name": "Leme", "lat": "-22.18556", "lng": "-47.39028"}, {"country": "BR", "name": "Lavras", "lat": "-21.24528", "lng": "-44.99972"}, {"country": "BR", "name": "Lauro Muller", "lat": "-28.39278", "lng": "-49.39667"}, {"country": "BR", "name": "Laranjeiras do Sul", "lat": "-25.40778", "lng": "-52.41611"}, {"country": "BR", "name": "Laranjeiras", "lat": "-10.80639", "lng": "-37.17"}, {"country": "BR", "name": "Laranjal Paulista", "lat": "-23.04972", "lng": "-47.83667"}, {"country": "BR", "name": "Laranja da Terra", "lat": "-19.89889", "lng": "-41.05667"}, {"country": "BR", "name": "Lap\u00e3o", "lat": "-11.38333", "lng": "-41.83194"}, {"country": "BR", "name": "Lapa", "lat": "-25.76972", "lng": "-49.71583"}, {"country": "BR", "name": "Lambari", "lat": "-21.97556", "lng": "-45.35028"}, {"country": "BR", "name": "Lajinha", "lat": "-20.15139", "lng": "-41.62278"}, {"country": "BR", "name": "Lages", "lat": "-27.81611", "lng": "-50.32611"}, {"country": "BR", "name": "Lajeado", "lat": "-29.46694", "lng": "-51.96139"}, {"country": "BR", "name": "Laje", "lat": "-10.18708", "lng": "-40.97076"}, {"country": "BR", "name": "Laguna", "lat": "-28.4825", "lng": "-48.78083"}, {"country": "BR", "name": "Lagoa Vermelha", "lat": "-28.20861", "lng": "-51.52583"}, {"country": "BR", "name": "Lagoa Santa", "lat": "-19.63006", "lng": "-43.9009"}, {"country": "BR", "name": "Lagoa Formosa", "lat": "-18.77861", "lng": "-46.4075"}, {"country": "BR", "name": "Lagoa da Prata", "lat": "-20.0225", "lng": "-45.54361"}, {"country": "BR", "name": "Lagoa", "lat": "-27.60491", "lng": "-48.46713"}, {"country": "BR", "name": "Lagarto", "lat": "-10.91722", "lng": "-37.65"}, {"country": "BR", "name": "Lad\u00e1rio", "lat": "-19.00472", "lng": "-57.60167"}, {"country": "BR", "name": "Lago dos Rodrigues", "lat": "-4.61304", "lng": "-44.98009"}, {"country": "BR", "name": "Lauro de Freitas", "lat": "-12.89444", "lng": "-38.32722"}, {"country": "BR", "name": "Lucas do Rio Verde", "lat": "-13.07045", "lng": "-55.9235"}, {"country": "BS", "name": "Lucaya", "lat": "26.53333", "lng": "-78.66667"}, {"country": "BT", "name": "Lhuentse", "lat": "27.66787", "lng": "91.18393"}, {"country": "BT", "name": "Lungtenzampa", "lat": "27.46821", "lng": "89.64441"}, {"country": "BW", "name": "Lokwabe", "lat": "-24.16667", "lng": "21.83333"}, {"country": "BW", "name": "Lobatse", "lat": "-25.22435", "lng": "25.67728"}, {"country": "BW", "name": "Letlhakeng", "lat": "-24.09442", "lng": "25.02977"}, {"country": "BW", "name": "Letlhakane", "lat": "-21.41494", "lng": "25.59263"}, {"country": "BW", "name": "Lenchwe Le Tau", "lat": "-24.38333", "lng": "25.85"}, {"country": "BW", "name": "Lehututu", "lat": "-23.96667", "lng": "21.86667"}, {"country": "BW", "name": "Letsheng", "lat": "-22.66384", "lng": "27.2239"}, {"country": "BY", "name": "Lyubcha", "lat": "53.7522", "lng": "26.0603"}, {"country": "BY", "name": "Lyuban\u2019", "lat": "52.7985", "lng": "28.0048"}, {"country": "BY", "name": "Lyntupy", "lat": "55.0516", "lng": "26.3103"}, {"country": "BY", "name": "Lyepyel\u2019", "lat": "54.8814", "lng": "28.699"}, {"country": "BY", "name": "Lyakhavichy", "lat": "53.0388", "lng": "26.2656"}, {"country": "BY", "name": "Luninyets", "lat": "52.2472", "lng": "26.8047"}, {"country": "BY", "name": "Luhavaya Slabada", "lat": "53.7823", "lng": "27.8434"}, {"country": "BY", "name": "Loyew", "lat": "51.9458", "lng": "30.7953"}, {"country": "BY", "name": "Loshnitsa", "lat": "54.2796", "lng": "28.7649"}, {"country": "BY", "name": "Lahoysk", "lat": "54.2064", "lng": "27.8512"}, {"country": "BY", "name": "Lyozna", "lat": "55.0247", "lng": "30.797"}, {"country": "BY", "name": "Lida", "lat": "53.88333", "lng": "25.29972"}, {"country": "BY", "name": "Lyel\u2019chytsy", "lat": "51.7862", "lng": "28.3288"}, {"country": "BY", "name": "Lahishyn", "lat": "52.339", "lng": "25.9867"}, {"country": "BY", "name": "Lyeskawka", "lat": "54.0024", "lng": "27.7108"}, {"country": "BY", "name": "Lyasny", "lat": "54.0072", "lng": "27.6963"}, {"country": "CA", "name": "Labelle", "lat": "46.28339", "lng": "-74.73255"}, {"country": "CA", "name": "Labrador City", "lat": "52.94626", "lng": "-66.91137"}, {"country": "CA", "name": "La Broquerie", "lat": "49.51688", "lng": "-96.50029"}, {"country": "CA", "name": "Lac-Brome", "lat": "45.21678", "lng": "-72.51581"}, {"country": "CA", "name": "Lac du Bonnet", "lat": "50.2536", "lng": "-96.06116"}, {"country": "CA", "name": "Lachute", "lat": "45.65008", "lng": "-74.33253"}, {"country": "CA", "name": "Lac La Biche", "lat": "54.7669", "lng": "-111.96861"}, {"country": "CA", "name": "Lac-M\u00e9gantic", "lat": "45.58338", "lng": "-70.88234"}, {"country": "CA", "name": "Lacolle", "lat": "45.08338", "lng": "-73.36585"}, {"country": "CA", "name": "Lacombe", "lat": "52.46681", "lng": "-113.7353"}, {"country": "CA", "name": "La Conception", "lat": "46.15009", "lng": "-74.69925"}, {"country": "CA", "name": "Ladysmith", "lat": "48.99016", "lng": "-123.81699"}, {"country": "CA", "name": "Lake Cowichan", "lat": "48.82495", "lng": "-124.05461"}, {"country": "CA", "name": "Lambton Shores", "lat": "43.16678", "lng": "-81.93309"}, {"country": "CA", "name": "La Minerve", "lat": "46.25009", "lng": "-74.93257"}, {"country": "CA", "name": "Lamont", "lat": "53.76686", "lng": "-112.80195"}, {"country": "CA", "name": "Langenburg", "lat": "50.84999", "lng": "-101.71763"}, {"country": "CA", "name": "Langford", "lat": "48.44963", "lng": "-123.50261"}, {"country": "CA", "name": "Langham", "lat": "52.3668", "lng": "-106.96793"}, {"country": "CA", "name": "Langley", "lat": "49.10107", "lng": "-122.65883"}, {"country": "CA", "name": "Langley", "lat": "49.08297", "lng": "-122.58589"}, {"country": "CA", "name": "Lanigan", "lat": "51.85006", "lng": "-105.03443"}, {"country": "CA", "name": "Lanoraie", "lat": "45.96677", "lng": "-73.21585"}, {"country": "CA", "name": "La Prairie", "lat": "45.41678", "lng": "-73.49917"}, {"country": "CA", "name": "La Ronge", "lat": "55.10013", "lng": "-105.28422"}, {"country": "CA", "name": "La Sarre", "lat": "48.80019", "lng": "-79.19964"}, {"country": "CA", "name": "L'Assomption", "lat": "45.82318", "lng": "-73.4294"}, {"country": "CA", "name": "La Tuque", "lat": "47.43337", "lng": "-72.7824"}, {"country": "CA", "name": "Laval", "lat": "45.56995", "lng": "-73.692"}, {"country": "CA", "name": "Lavaltrie", "lat": "45.88338", "lng": "-73.28245"}, {"country": "CA", "name": "Lebel-sur-Qu\u00e9villon", "lat": "49.05018", "lng": "-76.98273"}, {"country": "CA", "name": "Leduc", "lat": "53.26682", "lng": "-113.55201"}, {"country": "CA", "name": "L'\u00c9piphanie", "lat": "45.85008", "lng": "-73.48246"}, {"country": "CA", "name": "Les C\u00e8dres", "lat": "45.30008", "lng": "-74.04922"}, {"country": "CA", "name": "Les Coteaux", "lat": "45.28338", "lng": "-74.23254"}, {"country": "CA", "name": "Lethbridge", "lat": "49.69999", "lng": "-112.81856"}, {"country": "CA", "name": "Lewisporte", "lat": "49.24993", "lng": "-55.04816"}, {"country": "CA", "name": "L'\u00cele-Perrot", "lat": "45.38338", "lng": "-73.9492"}, {"country": "CA", "name": "Lions Bay", "lat": "49.45218", "lng": "-123.2376"}, {"country": "CA", "name": "Little Current", "lat": "45.97927", "lng": "-81.9248"}, {"country": "CA", "name": "Lloydminster", "lat": "53.28346", "lng": "-110.00157"}, {"country": "CA", "name": "Logan Lake", "lat": "50.49976", "lng": "-120.80253"}, {"country": "CA", "name": "London", "lat": "42.98339", "lng": "-81.23304"}, {"country": "CA", "name": "Longueuil", "lat": "45.53121", "lng": "-73.51806"}, {"country": "CA", "name": "Lorraine", "lat": "45.68338", "lng": "-73.78249"}, {"country": "CA", "name": "Louiseville", "lat": "46.25594", "lng": "-72.94145"}, {"country": "CA", "name": "Lumby", "lat": "50.24979", "lng": "-118.96904"}, {"country": "CA", "name": "Lumsden", "lat": "50.65009", "lng": "-104.86783"}, {"country": "CA", "name": "Lunenburg", "lat": "44.37847", "lng": "-64.31658"}, {"country": "CA", "name": "Lutes Mountain", "lat": "46.13544", "lng": "-64.90504"}, {"country": "CA", "name": "L'Ange-Gardien", "lat": "46.91976", "lng": "-71.08253"}, {"country": "CA", "name": "L\u00e9vis", "lat": "46.80326", "lng": "-71.17793"}, {"country": "CA", "name": "L'Ancienne-Lorette", "lat": "46.79392", "lng": "-71.35191"}, {"country": "CA", "name": "Lillooet", "lat": "50.6856", "lng": "-121.942"}, {"country": "CA", "name": "La Malbaie", "lat": "47.654", "lng": "-70.15268"}, {"country": "CA", "name": "Les Escoumins", "lat": "48.35191", "lng": "-69.40724"}, {"country": "CA", "name": "La Pocati\u00e8re", "lat": "47.36733", "lng": "-70.03484"}, {"country": "CA", "name": "Ladner", "lat": "49.08938", "lng": "-123.08241"}, {"country": "CA", "name": "Lower Sackville", "lat": "44.77599", "lng": "-63.67865"}, {"country": "CA", "name": "le Plateau", "lat": "45.43514", "lng": "-75.7803"}, {"country": "CA", "name": "Laurel", "lat": "53.44667", "lng": "-113.38197"}, {"country": "CA", "name": "Larkspur", "lat": "53.47942", "lng": "-113.38142"}, {"country": "CD", "name": "Lusambo", "lat": "-4.97503", "lng": "23.44391"}, {"country": "CD", "name": "Luebo", "lat": "-5.35218", "lng": "21.42192"}, {"country": "CD", "name": "Lubao", "lat": "-5.38771", "lng": "25.74885"}, {"country": "CD", "name": "Lodja", "lat": "-3.52105", "lng": "23.6005"}, {"country": "CD", "name": "Lisala", "lat": "2.15127", "lng": "21.51672"}, {"country": "CD", "name": "Lubumbashi", "lat": "-11.66089", "lng": "27.47938"}, {"country": "CD", "name": "Likasi", "lat": "-10.98303", "lng": "26.7384"}, {"country": "CD", "name": "Lukolela", "lat": "-1.06046", "lng": "17.1821"}, {"country": "CD", "name": "Libenge", "lat": "3.65332", "lng": "18.63566"}, {"country": "CG", "name": "Loango", "lat": "-4.65194", "lng": "11.8125"}, {"country": "CG", "name": "Loandjili", "lat": "-4.75611", "lng": "11.85778"}, {"country": "CH", "name": "La Punt Chamues-ch", "lat": "46.57887", "lng": "9.92015"}, {"country": "CH", "name": "Lyssach", "lat": "47.06445", "lng": "7.58228"}, {"country": "CH", "name": "Lyss", "lat": "47.0741", "lng": "7.30655"}, {"country": "CH", "name": "Luzern", "lat": "47.05048", "lng": "8.30635"}, {"country": "CH", "name": "Luzein", "lat": "46.91957", "lng": "9.7608"}, {"country": "CH", "name": "L\u00fctzelfl\u00fch", "lat": "47.00757", "lng": "7.69165"}, {"country": "CH", "name": "Lutry", "lat": "46.50241", "lng": "6.68647"}, {"country": "CH", "name": "L\u00fctisburg", "lat": "47.39451", "lng": "9.08312"}, {"country": "CH", "name": "Luthern", "lat": "47.05753", "lng": "7.91692"}, {"country": "CH", "name": "Luterbach", "lat": "47.21426", "lng": "7.58463"}, {"country": "CH", "name": "Lungern", "lat": "46.78578", "lng": "8.15984"}, {"country": "CH", "name": "Lumino", "lat": "46.2302", "lng": "9.0642"}, {"country": "CH", "name": "Lugano", "lat": "46.01008", "lng": "8.96004"}, {"country": "CH", "name": "Luchsingen", "lat": "46.9664", "lng": "9.03715"}, {"country": "CH", "name": "Lucens", "lat": "46.70854", "lng": "6.83931"}, {"country": "CH", "name": "Lotzwil", "lat": "47.19135", "lng": "7.79102"}, {"country": "CH", "name": "Lostorf", "lat": "47.38372", "lng": "7.94655"}, {"country": "CH", "name": "Losone", "lat": "46.16866", "lng": "8.75928"}, {"country": "CH", "name": "Lodrino", "lat": "46.30016", "lng": "8.97986"}, {"country": "CH", "name": "Locarno", "lat": "46.17086", "lng": "8.79953"}, {"country": "CH", "name": "Littau", "lat": "47.05", "lng": "8.26274"}, {"country": "CH", "name": "Linthal", "lat": "46.92127", "lng": "8.99799"}, {"country": "CH", "name": "Linden", "lat": "46.8469", "lng": "7.67831"}, {"country": "CH", "name": "Ligornetto", "lat": "45.86161", "lng": "8.95166"}, {"country": "CH", "name": "Liestal", "lat": "47.48455", "lng": "7.73446"}, {"country": "CH", "name": "Liesberg", "lat": "47.40398", "lng": "7.42787"}, {"country": "CH", "name": "Lichtensteig", "lat": "47.32381", "lng": "9.08758"}, {"country": "CH", "name": "Leytron", "lat": "46.1866", "lng": "7.2078"}, {"country": "CH", "name": "Leysin", "lat": "46.34183", "lng": "7.01151"}, {"country": "CH", "name": "Le Vaud", "lat": "46.47753", "lng": "6.23603"}, {"country": "CH", "name": "Leuzigen", "lat": "47.17458", "lng": "7.45775"}, {"country": "CH", "name": "Leukerbad", "lat": "46.37943", "lng": "7.62687"}, {"country": "CH", "name": "Leuk", "lat": "46.31736", "lng": "7.63412"}, {"country": "CH", "name": "Les Ponts-de-Martel", "lat": "46.99735", "lng": "6.73059"}, {"country": "CH", "name": "Les Geneveys-sur-Coffrane", "lat": "47.01528", "lng": "6.8513"}, {"country": "CH", "name": "Les Breuleux", "lat": "47.21099", "lng": "7.00792"}, {"country": "CH", "name": "Les Brenets", "lat": "47.06774", "lng": "6.70478"}, {"country": "CH", "name": "Les Bois", "lat": "47.17715", "lng": "6.90498"}, {"country": "CH", "name": "Lenzerheide", "lat": "46.72215", "lng": "9.55905"}, {"country": "CH", "name": "Lenzburg", "lat": "47.38853", "lng": "8.17503"}, {"country": "CH", "name": "Lens", "lat": "46.28298", "lng": "7.44976"}, {"country": "CH", "name": "Le Noirmont", "lat": "47.22464", "lng": "6.95784"}, {"country": "CH", "name": "Lenk", "lat": "46.45826", "lng": "7.44298"}, {"country": "CH", "name": "Lengnau", "lat": "47.18155", "lng": "7.36814"}, {"country": "CH", "name": "Le Mont-sur-Lausanne", "lat": "46.55815", "lng": "6.63145"}, {"country": "CH", "name": "Le Locle", "lat": "47.05619", "lng": "6.74913"}, {"country": "CH", "name": "Le Landeron", "lat": "47.05702", "lng": "7.07052"}, {"country": "CH", "name": "Leibstadt", "lat": "47.5879", "lng": "8.17611"}, {"country": "CH", "name": "Le Chenit", "lat": "46.60688", "lng": "6.23062"}, {"country": "CH", "name": "Lavertezzo", "lat": "46.25893", "lng": "8.83756"}, {"country": "CH", "name": "Lauterbrunnen", "lat": "46.59307", "lng": "7.90938"}, {"country": "CH", "name": "Lausen", "lat": "47.47139", "lng": "7.7603"}, {"country": "CH", "name": "Lausanne", "lat": "46.516", "lng": "6.63282"}, {"country": "CH", "name": "Lauperswil", "lat": "46.96564", "lng": "7.74214"}, {"country": "CH", "name": "Laupersdorf", "lat": "47.3126", "lng": "7.65465"}, {"country": "CH", "name": "Laupen", "lat": "46.90214", "lng": "7.23973"}, {"country": "CH", "name": "Laufenburg", "lat": "47.55985", "lng": "8.06225"}, {"country": "CH", "name": "Laufen", "lat": "47.42193", "lng": "7.49946"}, {"country": "CH", "name": "L\u00e4ufelfingen", "lat": "47.39457", "lng": "7.85578"}, {"country": "CH", "name": "La Tour-de-Tr\u00eame", "lat": "46.61061", "lng": "7.06496"}, {"country": "CH", "name": "La Tour-de-Peilz", "lat": "46.45312", "lng": "6.85856"}, {"country": "CH", "name": "La Sarraz", "lat": "46.65863", "lng": "6.51077"}, {"country": "CH", "name": "La Roche", "lat": "46.6962", "lng": "7.13721"}, {"country": "CH", "name": "Langrickenbach", "lat": "47.59353", "lng": "9.24727"}, {"country": "CH", "name": "Langnau / Langnau (Dorf)", "lat": "47.28643", "lng": "8.53627"}, {"country": "CH", "name": "Langnau", "lat": "46.93936", "lng": "7.78738"}, {"country": "CH", "name": "Langenthal", "lat": "47.21526", "lng": "7.79607"}, {"country": "CH", "name": "Langenbruck", "lat": "47.34917", "lng": "7.76802"}, {"country": "CH", "name": "La Neuveville", "lat": "47.06592", "lng": "7.09717"}, {"country": "CH", "name": "Landquart", "lat": "46.95", "lng": "9.56667"}, {"country": "CH", "name": "Lachen", "lat": "47.19927", "lng": "8.85432"}, {"country": "CH", "name": "La Chaux-de-Fonds", "lat": "47.09993", "lng": "6.82586"}, {"country": "CH", "name": "L'Abbaye", "lat": "46.64966", "lng": "6.31907"}, {"country": "CH", "name": "Laax", "lat": "46.80452", "lng": "9.25787"}, {"country": "CH", "name": "Le Grand-Saconnex", "lat": "46.23188", "lng": "6.12091"}, {"country": "CH", "name": "Langnau / Vitaquartier", "lat": "47.29377", "lng": "8.53758"}, {"country": "CH", "name": "Langnau am Albis", "lat": "47.28885", "lng": "8.5411"}, {"country": "CH", "name": "Langendorf", "lat": "47.21974", "lng": "7.51469"}, {"country": "CH", "name": "Lancy", "lat": "46.18981", "lng": "6.11441"}, {"country": "CH", "name": "L\u00f6hningen", "lat": "47.70121", "lng": "8.55236"}, {"country": "CH", "name": "Lauffohr (Brugg)", "lat": "47.50154", "lng": "8.23122"}, {"country": "CH", "name": "Les Avanchets", "lat": "46.22168", "lng": "6.10814"}, {"country": "CH", "name": "La Chaux", "lat": "46.61714", "lng": "6.47223"}, {"country": "CH", "name": "Les Cl\u00e9es", "lat": "46.7321", "lng": "6.46266"}, {"country": "CI", "name": "Lakota", "lat": "5.84752", "lng": "-5.682"}, {"country": "CL", "name": "Lota", "lat": "-37.08994", "lng": "-73.1577"}, {"country": "CL", "name": "Los \u00c1ngeles", "lat": "-37.46973", "lng": "-72.35366"}, {"country": "CL", "name": "Los Andes", "lat": "-32.83369", "lng": "-70.59827"}, {"country": "CL", "name": "Longav\u00ed", "lat": "-35.96496", "lng": "-71.6836"}, {"country": "CL", "name": "Loncoche", "lat": "-39.36708", "lng": "-72.63087"}, {"country": "CL", "name": "Llaillay", "lat": "-32.84043", "lng": "-70.95623"}, {"country": "CL", "name": "Linares", "lat": "-35.84667", "lng": "-71.59308"}, {"country": "CL", "name": "Limache", "lat": "-33.01667", "lng": "-71.26667"}, {"country": "CL", "name": "Lebu", "lat": "-37.60825", "lng": "-73.65356"}, {"country": "CL", "name": "Lautaro", "lat": "-38.53066", "lng": "-72.43652"}, {"country": "CL", "name": "La Uni\u00f3n", "lat": "-40.29313", "lng": "-73.08167"}, {"country": "CL", "name": "La Serena", "lat": "-29.90453", "lng": "-71.24894"}, {"country": "CL", "name": "Lampa", "lat": "-33.2863", "lng": "-70.87561"}, {"country": "CL", "name": "La Ligua", "lat": "-32.45242", "lng": "-71.23106"}, {"country": "CL", "name": "La Laja", "lat": "-37.28415", "lng": "-72.71105"}, {"country": "CL", "name": "La Ensenada", "lat": "-41.20746", "lng": "-72.5384"}, {"country": "CL", "name": "La Junta", "lat": "-43.97434", "lng": "-72.40554"}, {"country": "CL", "name": "Las Gaviotas", "lat": "-39.86653", "lng": "-73.18834"}, {"country": "CL", "name": "Las Animas", "lat": "-39.80867", "lng": "-73.21821"}, {"country": "CL", "name": "La Pintana", "lat": "-33.58331", "lng": "-70.63419"}, {"country": "CL", "name": "Lo Prado", "lat": "-33.4443", "lng": "-70.72552"}, {"country": "CM", "name": "Loum", "lat": "4.7182", "lng": "9.7351"}, {"country": "CM", "name": "Lolodorf", "lat": "3.23333", "lng": "10.73333"}, {"country": "CM", "name": "Limbe", "lat": "4.02356", "lng": "9.20607"}, {"country": "CM", "name": "Lagdo", "lat": "9.05828", "lng": "13.66605"}, {"country": "CN", "name": "Luobuqiongzi", "lat": "29.16667", "lng": "89.25"}, {"country": "CN", "name": "Luzhang", "lat": "25.97309", "lng": "98.82345"}, {"country": "CN", "name": "Luring", "lat": "32.26667", "lng": "84.2"}, {"country": "CN", "name": "Lop", "lat": "37.07403", "lng": "80.18231"}, {"country": "CN", "name": "Longshan", "lat": "24.60089", "lng": "98.70418"}, {"country": "CN", "name": "Lhasa", "lat": "29.65", "lng": "91.1"}, {"country": "CN", "name": "Laojunmiao", "lat": "39.83333", "lng": "97.73333"}, {"country": "CN", "name": "Laojie", "lat": "25.44829", "lng": "99.5561"}, {"country": "CN", "name": "Luntai", "lat": "41.77389", "lng": "84.24417"}, {"country": "CN", "name": "Lintan Chengguanzhen", "lat": "34.68885", "lng": "103.35242"}, {"country": "CN", "name": "Liaoyang", "lat": "37.07977", "lng": "113.33986"}, {"country": "CN", "name": "Leping", "lat": "37.61469", "lng": "113.66499"}, {"country": "CN", "name": "Longquan", "lat": "36.69525", "lng": "110.95564"}, {"country": "CN", "name": "Longquan", "lat": "25.90139", "lng": "112.21167"}, {"country": "CN", "name": "Longxing", "lat": "35.61297", "lng": "111.21925"}, {"country": "CN", "name": "Laocheng", "lat": "37.14278", "lng": "115.88833"}, {"country": "CN", "name": "Leiyang", "lat": "30.12043", "lng": "116.68292"}, {"country": "CN", "name": "Linjiang", "lat": "36.3275", "lng": "112.88194"}, {"country": "CN", "name": "Loushanguan", "lat": "28.1368", "lng": "106.822"}, {"country": "CN", "name": "Laixi", "lat": "36.85917", "lng": "120.52694"}, {"country": "CN", "name": "Longbo", "lat": "25.92922", "lng": "111.6222"}, {"country": "CN", "name": "Lingquan", "lat": "36.99949", "lng": "110.844"}, {"country": "CN", "name": "Longquan", "lat": "39.08446", "lng": "112.19119"}, {"country": "CN", "name": "Linjiang", "lat": "25.05167", "lng": "116.4203"}, {"country": "CN", "name": "Lechang", "lat": "35.64201", "lng": "111.46722"}, {"country": "CN", "name": "Longgang", "lat": "35.68941", "lng": "112.15798"}, {"country": "CN", "name": "Longcheng", "lat": "29.89688", "lng": "116.55546"}, {"country": "CN", "name": "Luzhou", "lat": "28.8903", "lng": "105.42575"}, {"country": "CN", "name": "Luzhai", "lat": "24.49754", "lng": "109.73315"}, {"country": "CN", "name": "Luyuan", "lat": "34.53596", "lng": "109.08508"}, {"country": "CN", "name": "Luyang", "lat": "27.62389", "lng": "110.09889"}, {"country": "CN", "name": "Luxu", "lat": "23.22117", "lng": "108.80299"}, {"country": "CN", "name": "Luxia", "lat": "26.93", "lng": "118.80722"}, {"country": "CN", "name": "Luxi", "lat": "27.63618", "lng": "114.03529"}, {"country": "CN", "name": "Luwan", "lat": "31.20908", "lng": "121.46335"}, {"country": "CN", "name": "L\u00fcshun", "lat": "38.8", "lng": "121.26667"}, {"country": "CN", "name": "Lushi Chengguanzhen", "lat": "34.04861", "lng": "111.03278"}, {"country": "CN", "name": "Lushar", "lat": "36.48416", "lng": "101.56328"}, {"country": "CN", "name": "Luyang", "lat": "33.73564", "lng": "112.90508"}, {"country": "CN", "name": "Luqiao", "lat": "29.93246", "lng": "102.23163"}, {"country": "CN", "name": "Luqiao", "lat": "28.58023", "lng": "121.37491"}, {"country": "CN", "name": "Luoyang", "lat": "34.68361", "lng": "112.45361"}, {"country": "CN", "name": "Luoyang", "lat": "27.56139", "lng": "119.71139"}, {"country": "CN", "name": "Luoyang", "lat": "24.95938", "lng": "118.683"}, {"country": "CN", "name": "Luoyang", "lat": "23.16244", "lng": "114.27342"}, {"country": "CN", "name": "Luoxiong", "lat": "24.88558", "lng": "104.29225"}, {"country": "CN", "name": "Luoshan Chengguanzhen", "lat": "32.20318", "lng": "114.50942"}, {"country": "CN", "name": "Luorong", "lat": "24.40583", "lng": "109.60861"}, {"country": "CN", "name": "Luoqiao", "lat": "26.47265", "lng": "119.00392"}, {"country": "CN", "name": "Luoning Chengguanzhen", "lat": "34.38778", "lng": "111.65583"}, {"country": "CN", "name": "Luojiu", "lat": "27.51583", "lng": "109.80889"}, {"country": "CN", "name": "Luojiang", "lat": "31.30497", "lng": "104.50484"}, {"country": "CN", "name": "Luohe", "lat": "33.56394", "lng": "114.04272"}, {"country": "CN", "name": "Luocheng", "lat": "22.76953", "lng": "111.56882"}, {"country": "CN", "name": "Luocheng", "lat": "30.98021", "lng": "104.28081"}, {"country": "CN", "name": "Luocheng", "lat": "29.38481", "lng": "104.02862"}, {"country": "CN", "name": "Luocheng", "lat": "25.03231", "lng": "118.79495"}, {"country": "CN", "name": "Lufu", "lat": "24.7602", "lng": "103.26647"}, {"country": "CN", "name": "Lukou", "lat": "27.70292", "lng": "113.15202"}, {"country": "CN", "name": "Lucheng", "lat": "31.23357", "lng": "117.28057"}, {"country": "CN", "name": "Luhua", "lat": "32.06708", "lng": "102.98786"}, {"country": "CN", "name": "Lufeng", "lat": "27.90944", "lng": "110.58583"}, {"country": "CN", "name": "L\u00fceyang Chengguanzhen", "lat": "33.33205", "lng": "106.15496"}, {"country": "CN", "name": "Luhua", "lat": "36.33139", "lng": "113.22444"}, {"country": "CN", "name": "Lucheng", "lat": "31.76324", "lng": "120.04588"}, {"country": "CN", "name": "Lubu", "lat": "23.17233", "lng": "112.28298"}, {"country": "CN", "name": "Luanzhou", "lat": "39.75", "lng": "118.73333"}, {"country": "CN", "name": "Luanchuan Chengguanzhen", "lat": "33.7808", "lng": "111.613"}, {"country": "CN", "name": "Luancheng", "lat": "37.87917", "lng": "114.65167"}, {"country": "CN", "name": "Lu\u2019an", "lat": "31.73561", "lng": "116.51688"}, {"country": "CN", "name": "Loufan", "lat": "38.0918", "lng": "111.80721"}, {"country": "CN", "name": "Loudi", "lat": "27.73444", "lng": "111.99444"}, {"country": "CN", "name": "Longzhou", "lat": "22.39967", "lng": "106.78967"}, {"country": "CN", "name": "Longyan", "lat": "25.10722", "lng": "117.0225"}, {"country": "CN", "name": "Longxu", "lat": "23.41667", "lng": "111.23333"}, {"country": "CN", "name": "Longxian Chengguanzhen", "lat": "34.90734", "lng": "106.84965"}, {"country": "CN", "name": "Longtou\u2019an", "lat": "27.67028", "lng": "110.33611"}, {"country": "CN", "name": "Longtan", "lat": "27.41139", "lng": "110.53639"}, {"country": "CN", "name": "Longsheng", "lat": "25.79361", "lng": "110.00917"}, {"country": "CN", "name": "Longquan", "lat": "30.5613", "lng": "104.26893"}, {"country": "CN", "name": "Longquan", "lat": "24.67193", "lng": "102.1613"}, {"country": "CN", "name": "Longnan", "lat": "24.9", "lng": "114.78333"}, {"country": "CN", "name": "Longmen", "lat": "24.95972", "lng": "118.08889"}, {"country": "CN", "name": "Longlisuo", "lat": "26.41417", "lng": "109.10222"}, {"country": "CN", "name": "Longgang", "lat": "37.65181", "lng": "120.33063"}, {"country": "CN", "name": "Longjin", "lat": "26.18197", "lng": "116.81464"}, {"country": "CN", "name": "Longde Chengguanzhen", "lat": "35.6125", "lng": "106.11667"}, {"country": "CN", "name": "Longchuan", "lat": "25.16152", "lng": "101.29418"}, {"country": "CN", "name": "Longcheng", "lat": "34.18448", "lng": "116.95077"}, {"country": "CN", "name": "Longcheng", "lat": "24.89827", "lng": "102.79965"}, {"country": "CN", "name": "Long\u2019an", "lat": "32.40934", "lng": "104.52868"}, {"country": "CN", "name": "Long\u2019an Chengxiangzhen", "lat": "23.20712", "lng": "107.6509"}, {"country": "CN", "name": "Lizhuangzi", "lat": "39.00417", "lng": "117.52556"}, {"country": "CN", "name": "Liyuan", "lat": "29.39537", "lng": "110.15591"}, {"country": "CN", "name": "Liyang", "lat": "31.71772", "lng": "118.35731"}, {"country": "CN", "name": "Licheng", "lat": "31.42813", "lng": "119.48353"}, {"country": "CN", "name": "Lixiqiao", "lat": "26.79472", "lng": "110.41806"}, {"country": "CN", "name": "Lixin Chengguanzhen", "lat": "33.14328", "lng": "116.22718"}, {"country": "CN", "name": "Liyang", "lat": "29.6518", "lng": "111.752"}, {"country": "CN", "name": "Liuzikou", "lat": "39.87028", "lng": "117.34667"}, {"country": "CN", "name": "Liuwudian", "lat": "24.55552", "lng": "118.19558"}, {"country": "CN", "name": "Liupai", "lat": "25.04", "lng": "107.17315"}, {"country": "CN", "name": "Liulin", "lat": "37.45333", "lng": "110.90189"}, {"country": "CN", "name": "Liukuaizhuang", "lat": "39.24789", "lng": "117.33941"}, {"country": "CN", "name": "Liujiaxia", "lat": "35.934", "lng": "103.31831"}, {"country": "CN", "name": "Liuduzhai", "lat": "27.36611", "lng": "110.935"}, {"country": "CN", "name": "Liucheng", "lat": "30.7", "lng": "103.83771"}, {"country": "CN", "name": "Liuba", "lat": "33.61861", "lng": "106.91889"}, {"country": "CN", "name": "Liu\u2019anzhuang", "lat": "39.23868", "lng": "117.19819"}, {"country": "CN", "name": "Lishui", "lat": "28.46042", "lng": "119.91029"}, {"country": "CN", "name": "Lishi", "lat": "37.51556", "lng": "111.13417"}, {"country": "CN", "name": "Lishi", "lat": "24.80459", "lng": "115.03325"}, {"country": "CN", "name": "Lintong", "lat": "34.37803", "lng": "109.20892"}, {"country": "CN", "name": "Lishan", "lat": "31.85764", "lng": "113.29505"}, {"country": "CN", "name": "Liquan Chengguanzhen", "lat": "34.48111", "lng": "108.42361"}, {"country": "CN", "name": "Liuzhou", "lat": "24.31258", "lng": "109.38916"}, {"country": "CN", "name": "Linyi", "lat": "35.06306", "lng": "118.34278"}, {"country": "CN", "name": "Linquan", "lat": "37.97965", "lng": "111.02059"}, {"country": "CN", "name": "Linxia Chengguanzhen", "lat": "35.60028", "lng": "103.20639"}, {"country": "CN", "name": "Linxi", "lat": "39.71183", "lng": "118.44954"}, {"country": "CN", "name": "Linwu Chengguanzhen", "lat": "25.23247", "lng": "112.53981"}, {"country": "CN", "name": "Lintingkou", "lat": "39.63028", "lng": "117.50028"}, {"country": "CN", "name": "Linshui", "lat": "36.42472", "lng": "114.20472"}, {"country": "CN", "name": "Linquan Chengguanzhen", "lat": "33.08506", "lng": "115.29023"}, {"country": "CN", "name": "Linqu", "lat": "36.51556", "lng": "118.53972"}, {"country": "CN", "name": "Linqiong", "lat": "30.41587", "lng": "103.46089"}, {"country": "CN", "name": "Linping", "lat": "30.4225", "lng": "120.29722"}, {"country": "CN", "name": "Linli", "lat": "29.45", "lng": "111.65"}, {"country": "CN", "name": "Linkou", "lat": "26.24806", "lng": "109.86361"}, {"country": "CN", "name": "Linhai", "lat": "28.85535", "lng": "121.1447"}, {"country": "CN", "name": "Lingcheng", "lat": "37.33133", "lng": "116.56953"}, {"country": "CN", "name": "Lingxi", "lat": "29.005", "lng": "109.84472"}, {"country": "CN", "name": "Lingjiang", "lat": "31.7346", "lng": "105.93162"}, {"country": "CN", "name": "Lingcheng", "lat": "33.53766", "lng": "117.53357"}, {"country": "CN", "name": "Lingcheng", "lat": "22.70722", "lng": "110.34917"}, {"country": "CN", "name": "Lingcheng", "lat": "22.42317", "lng": "109.29303"}, {"country": "CN", "name": "Lincheng", "lat": "19.90778", "lng": "109.68583"}, {"country": "CN", "name": "Linfen", "lat": "36.08889", "lng": "111.51889"}, {"country": "CN", "name": "Lincheng", "lat": "26.86932", "lng": "109.66336"}, {"country": "CN", "name": "Lin\u2019an", "lat": "30.23583", "lng": "119.71806"}, {"country": "CN", "name": "Lijiang", "lat": "23.5711", "lng": "102.00417"}, {"country": "CN", "name": "Lichuan", "lat": "30.3", "lng": "108.85"}, {"country": "CN", "name": "Lihou", "lat": "36.50289", "lng": "113.36945"}, {"country": "CN", "name": "Licheng", "lat": "24.50649", "lng": "110.38919"}, {"country": "CN", "name": "Licheng", "lat": "23.29549", "lng": "113.82465"}, {"country": "CN", "name": "Liaogao", "lat": "28.17", "lng": "109.195"}, {"country": "CN", "name": "Liaocheng", "lat": "36.45596", "lng": "115.97766"}, {"country": "CN", "name": "Lianzhou", "lat": "24.78186", "lng": "112.3712"}, {"country": "CN", "name": "Lianzhou", "lat": "21.66621", "lng": "109.20116"}, {"country": "CN", "name": "Lianran", "lat": "24.92271", "lng": "102.48496"}, {"country": "CN", "name": "Lianhe", "lat": "24.57298", "lng": "118.34171"}, {"country": "CN", "name": "Liangyaping", "lat": "27.71833", "lng": "110.67083"}, {"country": "CN", "name": "Liangxiang", "lat": "39.73598", "lng": "116.13295"}, {"country": "CN", "name": "Liangshan", "lat": "30.67409", "lng": "107.7938"}, {"country": "CN", "name": "Liangdang Chengguanzhen", "lat": "33.90972", "lng": "106.30222"}, {"country": "CN", "name": "Liangcunchang", "lat": "28.40667", "lng": "106.42444"}, {"country": "CN", "name": "Lianfeng", "lat": "25.70441", "lng": "116.72162"}, {"country": "CN", "name": "Liancheng", "lat": "24.05192", "lng": "105.07497"}, {"country": "CN", "name": "Lianjiang", "lat": "21.64673", "lng": "110.28172"}, {"country": "CN", "name": "Leshan", "lat": "29.56227", "lng": "103.76386"}, {"country": "CN", "name": "Leping", "lat": "28.96667", "lng": "117.11667"}, {"country": "CN", "name": "Lengshuitan", "lat": "26.4111", "lng": "111.59559"}, {"country": "CN", "name": "Lengshuijiang", "lat": "27.68806", "lng": "111.42944"}, {"country": "CN", "name": "Leli", "lat": "24.35405", "lng": "106.2437"}, {"country": "CN", "name": "Leiyang", "lat": "26.40238", "lng": "112.85908"}, {"country": "CN", "name": "Lecheng", "lat": "25.128", "lng": "113.35041"}, {"country": "CN", "name": "Laohekou", "lat": "32.38583", "lng": "111.66778"}, {"country": "CN", "name": "Lanzhou", "lat": "36.05701", "lng": "103.83987"}, {"country": "CN", "name": "Lanxi", "lat": "29.21588", "lng": "119.47156"}, {"country": "CN", "name": "Lianyuan", "lat": "27.68833", "lng": "111.66417"}, {"country": "CN", "name": "Lantian", "lat": "27.025", "lng": "109.29472"}, {"country": "CN", "name": "Lanli", "lat": "27.88694", "lng": "109.91861"}, {"country": "CN", "name": "Languan", "lat": "34.15754", "lng": "109.31415"}, {"country": "CN", "name": "Langfang", "lat": "39.50972", "lng": "116.69472"}, {"country": "CN", "name": "Langao Chengguanzhen", "lat": "32.30028", "lng": "108.89306"}, {"country": "CN", "name": "Lankao Chengguanzhen", "lat": "34.83294", "lng": "114.80718"}, {"country": "CN", "name": "Laizhou", "lat": "37.18073", "lng": "119.94217"}, {"country": "CN", "name": "Laiyang", "lat": "36.97583", "lng": "120.71361"}, {"country": "CN", "name": "Laiwu", "lat": "36.19278", "lng": "117.65694"}, {"country": "CN", "name": "Laibin", "lat": "23.7", "lng": "109.26667"}, {"country": "CN", "name": "Labuleng", "lat": "35.20125", "lng": "102.52117"}, {"country": "CN", "name": "Labu", "lat": "24.25985", "lng": "109.33415"}, {"country": "CN", "name": "Lanyi", "lat": "38.71983", "lng": "111.59783"}, {"country": "CN", "name": "Liulin", "lat": "34.58972", "lng": "103.50417"}, {"country": "CN", "name": "Lianzhu", "lat": "23.40844", "lng": "101.71028"}, {"country": "CN", "name": "Lin\u2019an", "lat": "23.60255", "lng": "102.83092"}, {"country": "CN", "name": "Longquan", "lat": "36.11736", "lng": "113.18571"}, {"country": "CN", "name": "Lingbao Chengguanzhen", "lat": "34.51972", "lng": "110.86444"}, {"country": "CN", "name": "Lingchuan", "lat": "25.40951", "lng": "110.32278"}, {"country": "CN", "name": "Lijiang", "lat": "26.86879", "lng": "100.22072"}, {"country": "CN", "name": "Langchi", "lat": "31.07952", "lng": "106.56514"}, {"country": "CN", "name": "Langzhong", "lat": "31.55037", "lng": "105.99381"}, {"country": "CN", "name": "Langxia", "lat": "30.16778", "lng": "121.075"}, {"country": "CN", "name": "Longzhouwan", "lat": "29.37861", "lng": "106.54"}, {"country": "CN", "name": "Luogang", "lat": "23.17789", "lng": "113.50104"}, {"country": "CN", "name": "Lianghu", "lat": "29.99152", "lng": "120.89845"}, {"country": "CN", "name": "Lingcheng", "lat": "35.534", "lng": "116.918"}, {"country": "CN", "name": "Liulinzhou", "lat": "29.45639", "lng": "113.01028"}, {"country": "CN", "name": "Longquan", "lat": "40.3638", "lng": "113.66616"}, {"country": "CN", "name": "Lianhe", "lat": "47.13333", "lng": "129.27426"}, {"country": "CN", "name": "Lubei", "lat": "44.60866", "lng": "120.9556"}, {"country": "CN", "name": "Luanping", "lat": "40.91667", "lng": "117.28333"}, {"country": "CN", "name": "Longjing", "lat": "42.77139", "lng": "129.42333"}, {"country": "CN", "name": "Longjiang", "lat": "47.33072", "lng": "123.17816"}, {"country": "CN", "name": "Longhua", "lat": "41.31167", "lng": "117.725"}, {"country": "CN", "name": "Longfeng", "lat": "46.53168", "lng": "125.1038"}, {"country": "CN", "name": "Liuhe", "lat": "42.24007", "lng": "125.71717"}, {"country": "CN", "name": "Lishu", "lat": "45.08978", "lng": "130.69136"}, {"country": "CN", "name": "Lishu", "lat": "43.30472", "lng": "124.32778"}, {"country": "CN", "name": "Linxi", "lat": "43.51667", "lng": "118.03333"}, {"country": "CN", "name": "Linkou", "lat": "45.28606", "lng": "130.26151"}, {"country": "CN", "name": "Linjiang", "lat": "41.80694", "lng": "126.90778"}, {"country": "CN", "name": "Lingyuan", "lat": "41.24", "lng": "119.40111"}, {"country": "CN", "name": "Lingdong", "lat": "46.56694", "lng": "131.14528"}, {"country": "CN", "name": "Lindong", "lat": "43.98333", "lng": "119.18333"}, {"country": "CN", "name": "Lindian", "lat": "47.18258", "lng": "124.86773"}, {"country": "CN", "name": "Liaozhong", "lat": "41.50611", "lng": "122.72417"}, {"country": "CN", "name": "Liaoyuan", "lat": "42.90361", "lng": "125.13583"}, {"country": "CN", "name": "Liaoyang", "lat": "41.27194", "lng": "123.17306"}, {"country": "CN", "name": "Lanxi", "lat": "46.25785", "lng": "126.28269"}, {"country": "CN", "name": "Langxiang", "lat": "46.94985", "lng": "128.86849"}, {"country": "CN", "name": "Langtou", "lat": "40.02611", "lng": "124.32861"}, {"country": "CN", "name": "Lianshan", "lat": "40.76432", "lng": "120.85327"}, {"country": "CN", "name": "Linghai", "lat": "41.16528", "lng": "121.36667"}, {"country": "CN", "name": "Liangshi", "lat": "27.20636", "lng": "111.73714"}, {"country": "CN", "name": "Lianjiang", "lat": "22.59018", "lng": "113.07642"}, {"country": "CN", "name": "Leicheng", "lat": "20.91558", "lng": "110.08371"}, {"country": "CN", "name": "Luozhou", "lat": "21.60589", "lng": "110.27705"}, {"country": "CN", "name": "Lianhu", "lat": "34.25848", "lng": "108.92421"}, {"country": "CN", "name": "Longgang", "lat": "40.72146", "lng": "120.92558"}, {"country": "CN", "name": "Laxi", "lat": "31.92125", "lng": "94.04757"}, {"country": "CN", "name": "Liuxiang", "lat": "37.87143", "lng": "112.56054"}, {"country": "CN", "name": "Lanjiang", "lat": "29.21511", "lng": "119.46121"}, {"country": "CN", "name": "Longshan", "lat": "40.32015", "lng": "116.62909"}, {"country": "CN", "name": "Lugu", "lat": "39.89672", "lng": "116.22037"}, {"country": "CN", "name": "Lubei", "lat": "28.58633", "lng": "121.36998"}, {"country": "CN", "name": "Lizhi", "lat": "29.70317", "lng": "107.39521"}, {"country": "CN", "name": "Longhua", "lat": "47.33847", "lng": "123.97919"}, {"country": "CN", "name": "Liupanshui", "lat": "26.59444", "lng": "104.83333"}, {"country": "CN", "name": "Louqiao", "lat": "28.01061", "lng": "120.63218"}, {"country": "CN", "name": "Lianyungang", "lat": "34.59845", "lng": "119.21556"}, {"country": "CN", "name": "Longnan", "lat": "33.39791", "lng": "104.91703"}, {"country": "CO", "name": "Luruaco", "lat": "10.61712", "lng": "-75.15146"}, {"country": "CO", "name": "Lourdes", "lat": "7.94411", "lng": "-72.83253"}, {"country": "CO", "name": "Los Patios", "lat": "7.83793", "lng": "-72.5037"}, {"country": "CO", "name": "Los Palmitos", "lat": "9.37899", "lng": "-75.26769"}, {"country": "CO", "name": "Los C\u00f3rdobas", "lat": "8.89403", "lng": "-76.35455"}, {"country": "CO", "name": "Lorica", "lat": "9.23648", "lng": "-75.8135"}, {"country": "CO", "name": "L\u00f3pez", "lat": "2.43333", "lng": "-76.8"}, {"country": "CO", "name": "Llor\u00f3", "lat": "5.49605", "lng": "-76.54945"}, {"country": "CO", "name": "Linares", "lat": "1.35783", "lng": "-77.52725"}, {"country": "CO", "name": "Liborina", "lat": "6.6779", "lng": "-75.81218"}, {"country": "CO", "name": "L\u00edbano", "lat": "4.9218", "lng": "-75.06232"}, {"country": "CO", "name": "Leticia", "lat": "-4.21528", "lng": "-69.94056"}, {"country": "CO", "name": "L\u00e9rida", "lat": "4.86242", "lng": "-74.90977"}, {"country": "CO", "name": "Lenguazaque", "lat": "5.30711", "lng": "-73.71152"}, {"country": "CO", "name": "Leiva", "lat": "1.93389", "lng": "-77.30253"}, {"country": "CO", "name": "Lebrija", "lat": "7.11317", "lng": "-73.2178"}, {"country": "CO", "name": "La Virginia", "lat": "4.89972", "lng": "-75.8825"}, {"country": "CO", "name": "La Victoria", "lat": "4.52483", "lng": "-76.03921"}, {"country": "CO", "name": "La Vega", "lat": "5.00177", "lng": "-74.34174"}, {"country": "CO", "name": "La Vega", "lat": "2.00628", "lng": "-76.78028"}, {"country": "CO", "name": "La Uvita", "lat": "6.32064", "lng": "-72.56281"}, {"country": "CO", "name": "La Uni\u00f3n", "lat": "8.86056", "lng": "-75.28056"}, {"country": "CO", "name": "La Uni\u00f3n", "lat": "5.97431", "lng": "-75.36195"}, {"country": "CO", "name": "La Uni\u00f3n", "lat": "4.53282", "lng": "-76.10318"}, {"country": "CO", "name": "La Uni\u00f3n", "lat": "1.6045", "lng": "-77.13152"}, {"country": "CO", "name": "La Tebaida", "lat": "4.45265", "lng": "-75.78746"}, {"country": "CO", "name": "La Sierra", "lat": "2.17835", "lng": "-76.76265"}, {"country": "CO", "name": "La Primavera", "lat": "5.49056", "lng": "-70.40917"}, {"country": "CO", "name": "La Playa", "lat": "8.21639", "lng": "-73.24139"}, {"country": "CO", "name": "La Plata", "lat": "2.39341", "lng": "-75.89232"}, {"country": "CO", "name": "La Pintada", "lat": "5.74867", "lng": "-75.60626"}, {"country": "CO", "name": "La Pe\u00f1a", "lat": "5.19847", "lng": "-74.39368"}, {"country": "CO", "name": "La Paz", "lat": "10.38439", "lng": "-73.17332"}, {"country": "CO", "name": "La Paz", "lat": "6.17848", "lng": "-73.58948"}, {"country": "CO", "name": "Land\u00e1zuri", "lat": "6.21826", "lng": "-73.81121"}, {"country": "CO", "name": "La Monta\u00f1ita", "lat": "1.4766", "lng": "-75.4398"}, {"country": "CO", "name": "La Mesa", "lat": "5.26667", "lng": "-73.91667"}, {"country": "CO", "name": "La Merced", "lat": "5.40194", "lng": "-75.88472"}, {"country": "CO", "name": "La Llanada", "lat": "1.48997", "lng": "-77.58347"}, {"country": "CO", "name": "La Jagua de Ibirico", "lat": "9.56228", "lng": "-73.33405"}, {"country": "CO", "name": "La Gloria", "lat": "8.61868", "lng": "-73.80265"}, {"country": "CO", "name": "La Florida", "lat": "1.29851", "lng": "-77.40614"}, {"country": "CO", "name": "La Estrella", "lat": "6.15769", "lng": "-75.64317"}, {"country": "CO", "name": "La Esperanza", "lat": "8.21043", "lng": "-72.46399"}, {"country": "CO", "name": "La Dorada", "lat": "5.44783", "lng": "-74.66311"}, {"country": "CO", "name": "La Cruz", "lat": "1.60301", "lng": "-76.96901"}, {"country": "CO", "name": "La Celia", "lat": "5.04333", "lng": "-76.01667"}, {"country": "CO", "name": "La Ceja", "lat": "6.03131", "lng": "-75.43333"}, {"country": "CO", "name": "La Capilla", "lat": "5.70493", "lng": "-73.47527"}, {"country": "CO", "name": "La Calera", "lat": "4.72069", "lng": "-73.96926"}, {"country": "CO", "name": "La Belleza", "lat": "5.86371", "lng": "-73.96167"}, {"country": "CO", "name": "Los Santos", "lat": "7.17", "lng": "-73.09306"}, {"country": "CO", "name": "Lejan\u00edas", "lat": "3.52762", "lng": "-74.02335"}, {"country": "CO", "name": "La Cumbre", "lat": "3.7225", "lng": "-76.02083"}, {"country": "CO", "name": "La Tola", "lat": "2.41083", "lng": "-78.24278"}, {"country": "CO", "name": "La Argentina", "lat": "2.19611", "lng": "-75.98"}, {"country": "CO", "name": "La Macarena", "lat": "2.18266", "lng": "-73.7871"}, {"country": "CR", "name": "Lim\u00f3n", "lat": "9.99074", "lng": "-83.03596"}, {"country": "CR", "name": "Los Chiles", "lat": "11.03333", "lng": "-84.71667"}, {"country": "CR", "name": "Llorente", "lat": "9.99844", "lng": "-84.15448"}, {"country": "CR", "name": "Liberia", "lat": "10.63504", "lng": "-85.43772"}, {"country": "CR", "name": "La Virgen", "lat": "10.40174", "lng": "-84.13348"}, {"country": "CR", "name": "La Suiza", "lat": "9.85065", "lng": "-83.6169"}, {"country": "CR", "name": "La Cruz", "lat": "11.07377", "lng": "-85.63272"}, {"country": "CR", "name": "La Asunci\u00f3n", "lat": "9.97961", "lng": "-84.17281"}, {"country": "CR", "name": "La Fortuna", "lat": "10.47089", "lng": "-84.64535"}, {"country": "CU", "name": "Los Palacios", "lat": "22.58882", "lng": "-83.24671"}, {"country": "CU", "name": "Los Arabos", "lat": "22.72969", "lng": "-80.72081"}, {"country": "CU", "name": "Limonar", "lat": "22.95035", "lng": "-81.41059"}, {"country": "CU", "name": "Las Tunas", "lat": "20.96167", "lng": "-76.95111"}, {"country": "CU", "name": "La Sierpe", "lat": "21.77241", "lng": "-79.26832"}, {"country": "CU", "name": "La Salud", "lat": "22.87199", "lng": "-82.42328"}, {"country": "CU", "name": "La Palma", "lat": "22.74995", "lng": "-83.55415"}, {"country": "CU", "name": "Lajas", "lat": "22.41479", "lng": "-80.2931"}, {"country": "CU", "name": "La Habana Vieja", "lat": "23.13028", "lng": "-82.35306"}, {"country": "CU", "name": "La M\u00e1quina", "lat": "20.19198", "lng": "-74.22719"}, {"country": "CY", "name": "Lythrod\u00f3ntas", "lat": "34.95105", "lng": "33.29777"}, {"country": "CY", "name": "L\u00fdmpia", "lat": "34.99889", "lng": "33.46175"}, {"country": "CY", "name": "Liv\u00e1dia", "lat": "34.95118", "lng": "33.62658"}, {"country": "CY", "name": "Liop\u00e9tri", "lat": "35.00885", "lng": "33.89256"}, {"country": "CY", "name": "Limassol", "lat": "34.68406", "lng": "33.03794"}, {"country": "CY", "name": "Leon\u00e1risso", "lat": "35.46892", "lng": "34.13886"}, {"country": "CY", "name": "Lefk\u00f3noiko", "lat": "35.2598", "lng": "33.73189"}, {"country": "CY", "name": "L\u00e9fka", "lat": "35.11199", "lng": "32.84997"}, {"country": "CY", "name": "Larnaca", "lat": "34.92291", "lng": "33.6233"}, {"country": "CY", "name": "L\u00e1pithos", "lat": "35.33823", "lng": "33.17368"}, {"country": "CZ", "name": "Lysice", "lat": "49.4516", "lng": "16.53716"}, {"country": "CZ", "name": "Lys\u00e1 nad Labem", "lat": "50.20143", "lng": "14.83281"}, {"country": "CZ", "name": "Lu\u017en\u00e1", "lat": "50.12377", "lng": "13.77004"}, {"country": "CZ", "name": "Lu\u017eice", "lat": "48.84098", "lng": "17.07104"}, {"country": "CZ", "name": "Lu\u017eec nad Vltavou", "lat": "50.32138", "lng": "14.40022"}, {"country": "CZ", "name": "Lu\u017ee", "lat": "49.89341", "lng": "16.0285"}, {"country": "CZ", "name": "Lut\u00edn", "lat": "49.55845", "lng": "17.13572"}, {"country": "CZ", "name": "Lu\u0161t\u011bnice", "lat": "50.32296", "lng": "14.93667"}, {"country": "CZ", "name": "Lukov", "lat": "49.29027", "lng": "17.72959"}, {"country": "CZ", "name": "Lukavice", "lat": "50.06029", "lng": "16.48207"}, {"country": "CZ", "name": "Lukavec", "lat": "49.56541", "lng": "14.99041"}, {"country": "CZ", "name": "Luka nad Jihlavou", "lat": "49.37403", "lng": "15.70194"}, {"country": "CZ", "name": "Luha\u010dovice", "lat": "49.09982", "lng": "17.75747"}, {"country": "CZ", "name": "Ludge\u0159ovice", "lat": "49.89042", "lng": "18.24008"}, {"country": "CZ", "name": "Lu\u010dany nad Nisou", "lat": "50.74136", "lng": "15.22046"}, {"country": "CZ", "name": "Luby", "lat": "50.25248", "lng": "12.40595"}, {"country": "CZ", "name": "Lubenec", "lat": "50.13207", "lng": "13.31319"}, {"country": "CZ", "name": "Lovosice", "lat": "50.51504", "lng": "14.05103"}, {"country": "CZ", "name": "Louny", "lat": "50.35699", "lng": "13.79667"}, {"country": "CZ", "name": "Louka", "lat": "48.91517", "lng": "17.48927"}, {"country": "CZ", "name": "Lou\u010dovice", "lat": "48.62019", "lng": "14.25747"}, {"country": "CZ", "name": "Lou\u010dn\u00e1 nad Desnou", "lat": "50.07433", "lng": "17.09052"}, {"country": "CZ", "name": "Lou\u010de\u0148", "lat": "50.28537", "lng": "15.02049"}, {"country": "CZ", "name": "Lo\u0161tice", "lat": "49.7447", "lng": "16.92892"}, {"country": "CZ", "name": "Lom u Mostu", "lat": "50.59328", "lng": "13.65729"}, {"country": "CZ", "name": "Lomnice nad Popelkou", "lat": "50.53062", "lng": "15.37341"}, {"country": "CZ", "name": "Lomnice nad Lu\u017enic\u00ed", "lat": "49.08468", "lng": "14.71727"}, {"country": "CZ", "name": "Lomnice", "lat": "50.21174", "lng": "12.63267"}, {"country": "CZ", "name": "Lomnice", "lat": "49.40462", "lng": "16.41359"}, {"country": "CZ", "name": "Loket", "lat": "50.186", "lng": "12.75405"}, {"country": "CZ", "name": "Lod\u011bnice", "lat": "49.99486", "lng": "14.15785"}, {"country": "CZ", "name": "Lochovice", "lat": "49.85318", "lng": "13.98126"}, {"country": "CZ", "name": "Litv\u00ednovice", "lat": "48.96207", "lng": "14.45146"}, {"country": "CZ", "name": "Litv\u00ednov", "lat": "50.6042", "lng": "13.61812"}, {"country": "CZ", "name": "Litovel", "lat": "49.70121", "lng": "17.07615"}, {"country": "CZ", "name": "Litomy\u0161l", "lat": "49.86809", "lng": "16.31298"}, {"country": "CZ", "name": "Litom\u011b\u0159ice", "lat": "50.53348", "lng": "14.1318"}, {"country": "CZ", "name": "Li\u0161ov", "lat": "49.01597", "lng": "14.60838"}, {"country": "CZ", "name": "Lip\u016fvka", "lat": "49.33933", "lng": "16.55313"}, {"country": "CZ", "name": "Lipt\u00e1l", "lat": "49.29051", "lng": "17.92177"}, {"country": "CZ", "name": "Lipovec", "lat": "49.38394", "lng": "16.80583"}, {"country": "CZ", "name": "Lipov", "lat": "48.90495", "lng": "17.46171"}, {"country": "CZ", "name": "Lipn\u00edk nad Be\u010dvou", "lat": "49.52721", "lng": "17.58594"}, {"country": "CZ", "name": "L\u00edpa", "lat": "49.55418", "lng": "15.54465"}, {"country": "CZ", "name": "L\u00edn\u011b", "lat": "49.69472", "lng": "13.25693"}, {"country": "CZ", "name": "Lide\u010dko", "lat": "49.20303", "lng": "18.0513"}, {"country": "CZ", "name": "Lichnov", "lat": "50.00786", "lng": "17.6264"}, {"country": "CZ", "name": "Lichnov (o. Nov\u00fd Ji\u010d\u00edn)", "lat": "49.56423", "lng": "18.16898"}, {"country": "CZ", "name": "Libu\u0161\u00edn", "lat": "50.16819", "lng": "14.05458"}, {"country": "CZ", "name": "Libouchec", "lat": "50.75854", "lng": "14.04071"}, {"country": "CZ", "name": "Libochovice", "lat": "50.40626", "lng": "14.04439"}, {"country": "CZ", "name": "Libi\u0161", "lat": "50.27417", "lng": "14.5024"}, {"country": "CZ", "name": "Libice nad Cidlinou", "lat": "50.12677", "lng": "15.1782"}, {"country": "CZ", "name": "L\u00edbeznice", "lat": "50.19198", "lng": "14.49357"}, {"country": "CZ", "name": "Lib\u011b\u0161ice", "lat": "50.56886", "lng": "14.28906"}, {"country": "CZ", "name": "Liberec", "lat": "50.76711", "lng": "15.05619"}, {"country": "CZ", "name": "Libe\u0148", "lat": "50.10819", "lng": "14.47457"}, {"country": "CZ", "name": "Lib\u010dice nad Vltavou", "lat": "50.19778", "lng": "14.36385"}, {"country": "CZ", "name": "Lib\u00e1\u0148", "lat": "50.37542", "lng": "15.21684"}, {"country": "CZ", "name": "Lhenice", "lat": "48.99479", "lng": "14.1498"}, {"country": "CZ", "name": "Letovice", "lat": "49.54709", "lng": "16.57357"}, {"country": "CZ", "name": "Letonice", "lat": "49.17726", "lng": "16.95913"}, {"country": "CZ", "name": "Letohrad", "lat": "50.0358", "lng": "16.49879"}, {"country": "CZ", "name": "Let\u0148any", "lat": "50.13333", "lng": "14.51667"}, {"country": "CZ", "name": "Le\u0161tina", "lat": "49.86879", "lng": "16.92748"}, {"country": "CZ", "name": "Le\u0161n\u00e1", "lat": "49.52055", "lng": "17.93004"}, {"country": "CZ", "name": "Lene\u0161ice", "lat": "50.37516", "lng": "13.7659"}, {"country": "CZ", "name": "Lelekovice", "lat": "49.29144", "lng": "16.57874"}, {"country": "CZ", "name": "Lednice", "lat": "48.79992", "lng": "16.80339"}, {"country": "CZ", "name": "Ledenice", "lat": "48.93329", "lng": "14.61886"}, {"country": "CZ", "name": "Lede\u010d nad S\u00e1zavou", "lat": "49.69517", "lng": "15.27772"}, {"country": "CZ", "name": "L\u00e1zn\u011b Kyn\u017evart", "lat": "50.01058", "lng": "12.62474"}, {"country": "CZ", "name": "L\u00e1zn\u011b B\u011blohrad", "lat": "50.42874", "lng": "15.58269"}, {"country": "CZ", "name": "Lan\u017ehot", "lat": "48.72443", "lng": "16.96695"}, {"country": "CZ", "name": "L\u00e1ny", "lat": "50.12471", "lng": "13.95041"}, {"country": "CZ", "name": "Lan\u0161kroun", "lat": "49.91217", "lng": "16.6119"}, {"country": "CZ", "name": "L\u00e1zn\u011b Bohdane\u010d", "lat": "50.0756", "lng": "15.67978"}, {"country": "CZ", "name": "Lu\u010dina", "lat": "49.72082", "lng": "18.44776"}, {"country": "DE", "name": "Langfurth", "lat": "49.10112", "lng": "10.45359"}, {"country": "DE", "name": "Lychen", "lat": "53.21242", "lng": "13.31483"}, {"country": "DE", "name": "L\u00fctzow", "lat": "53.65345", "lng": "11.17582"}, {"country": "DE", "name": "Lutzerath", "lat": "50.12695", "lng": "7.0074"}, {"country": "DE", "name": "L\u00fctzen", "lat": "51.25671", "lng": "12.14164"}, {"country": "DE", "name": "L\u00fctzelbach", "lat": "49.74233", "lng": "8.76687"}, {"country": "DE", "name": "Lutter am Barenberge", "lat": "51.98943", "lng": "10.2693"}, {"country": "DE", "name": "L\u00fctjensee", "lat": "53.65", "lng": "10.36667"}, {"country": "DE", "name": "L\u00fctjenburg", "lat": "54.29188", "lng": "10.58945"}, {"country": "DE", "name": "Lustadt", "lat": "49.24476", "lng": "8.27407"}, {"country": "DE", "name": "Lurup", "lat": "53.59266", "lng": "9.87697"}, {"country": "DE", "name": "L\u00fcrschau", "lat": "54.55", "lng": "9.5"}, {"country": "DE", "name": "Lupburg", "lat": "49.1551", "lng": "11.7564"}, {"country": "DE", "name": "Lunzenau", "lat": "50.96269", "lng": "12.75594"}, {"country": "DE", "name": "Lunestedt", "lat": "53.43621", "lng": "8.75193"}, {"country": "DE", "name": "L\u00fcnen", "lat": "51.61634", "lng": "7.52872"}, {"country": "DE", "name": "L\u00fcneburg", "lat": "53.2509", "lng": "10.41409"}, {"country": "DE", "name": "Lunden", "lat": "54.33131", "lng": "9.02523"}, {"country": "DE", "name": "Luisenthal", "lat": "50.78333", "lng": "10.73333"}, {"country": "DE", "name": "Luhe-Wildenau", "lat": "49.58367", "lng": "12.14921"}, {"country": "DE", "name": "Luhden", "lat": "52.22538", "lng": "9.09256"}, {"country": "DE", "name": "L\u00fcgde", "lat": "51.95828", "lng": "9.24706"}, {"country": "DE", "name": "Lugau", "lat": "50.73843", "lng": "12.74861"}, {"country": "DE", "name": "Ludwigsstadt", "lat": "50.48605", "lng": "11.38734"}, {"country": "DE", "name": "Ludwigslust", "lat": "53.32917", "lng": "11.49714"}, {"country": "DE", "name": "Ludwigshafen am Rhein", "lat": "49.48121", "lng": "8.44641"}, {"country": "DE", "name": "Ludwigsfelde", "lat": "52.30322", "lng": "13.25405"}, {"country": "DE", "name": "Ludwigsburg", "lat": "48.89731", "lng": "9.19161"}, {"country": "DE", "name": "L\u00fcdinghausen", "lat": "51.7683", "lng": "7.44379"}, {"country": "DE", "name": "L\u00fcdersfeld", "lat": "52.35993", "lng": "9.25422"}, {"country": "DE", "name": "L\u00fcdersdorf", "lat": "53.86835", "lng": "11.74902"}, {"country": "DE", "name": "L\u00fcderitz", "lat": "52.50912", "lng": "11.74301"}, {"country": "DE", "name": "L\u00fcder", "lat": "52.80878", "lng": "10.66609"}, {"country": "DE", "name": "L\u00fcdenscheid", "lat": "51.21977", "lng": "7.6273"}, {"country": "DE", "name": "Luckenwalde", "lat": "52.09029", "lng": "13.16772"}, {"country": "DE", "name": "Luckau", "lat": "51.85245", "lng": "13.70735"}, {"country": "DE", "name": "Lucka", "lat": "51.09727", "lng": "12.33336"}, {"country": "DE", "name": "L\u00fcchow", "lat": "52.96811", "lng": "11.15397"}, {"country": "DE", "name": "L\u00fcbz", "lat": "53.46261", "lng": "12.02917"}, {"country": "DE", "name": "L\u00fcbtheen", "lat": "53.30118", "lng": "11.08368"}, {"country": "DE", "name": "L\u00fcbstorf", "lat": "53.72561", "lng": "11.41471"}, {"country": "DE", "name": "L\u00fcbow", "lat": "53.85256", "lng": "11.5244"}, {"country": "DE", "name": "Lubmin", "lat": "54.13509", "lng": "13.61687"}, {"country": "DE", "name": "L\u00fcbeck", "lat": "53.86893", "lng": "10.68729"}, {"country": "DE", "name": "L\u00fcbbenau", "lat": "51.86217", "lng": "13.95168"}, {"country": "DE", "name": "L\u00fcbben", "lat": "51.93814", "lng": "13.88826"}, {"country": "DE", "name": "L\u00fcbbecke", "lat": "52.30699", "lng": "8.61423"}, {"country": "DE", "name": "L\u00fcbars", "lat": "52.61591", "lng": "13.3535"}, {"country": "DE", "name": "Loxstedt", "lat": "53.46667", "lng": "8.65"}, {"country": "DE", "name": "L\u00f6wenstein", "lat": "49.09558", "lng": "9.38"}, {"country": "DE", "name": "Lottstetten", "lat": "47.63333", "lng": "8.56667"}, {"country": "DE", "name": "Lotte", "lat": "52.28333", "lng": "7.91667"}, {"country": "DE", "name": "Lostau", "lat": "52.20871", "lng": "11.73795"}, {"country": "DE", "name": "L\u00f6\u00dfnitz", "lat": "50.62181", "lng": "12.73147"}, {"country": "DE", "name": "Lo\u00dfburg", "lat": "48.4", "lng": "8.45"}, {"country": "DE", "name": "Losheim", "lat": "49.5099", "lng": "6.74549"}, {"country": "DE", "name": "L\u00f6rzweiler", "lat": "49.89833", "lng": "8.29472"}, {"country": "DE", "name": "Lorup", "lat": "52.92495", "lng": "7.64339"}, {"country": "DE", "name": "Lorsch", "lat": "49.65", "lng": "8.56667"}, {"country": "DE", "name": "L\u00f6rrach", "lat": "47.61497", "lng": "7.66457"}, {"country": "DE", "name": "Lorch", "lat": "48.79833", "lng": "9.6914"}, {"country": "DE", "name": "Lonsee", "lat": "48.5434", "lng": "9.91999"}, {"country": "DE", "name": "Lonnig", "lat": "50.31002", "lng": "7.40509"}, {"country": "DE", "name": "Lonnerstadt", "lat": "49.69882", "lng": "10.76711"}, {"country": "DE", "name": "L\u00f6ningen", "lat": "52.73678", "lng": "7.75809"}, {"country": "DE", "name": "Longuich", "lat": "49.80841", "lng": "6.76832"}, {"country": "DE", "name": "Longkamp", "lat": "49.89044", "lng": "7.11764"}, {"country": "DE", "name": "Lommatzsch", "lat": "51.19537", "lng": "13.30917"}, {"country": "DE", "name": "Lollar", "lat": "50.64652", "lng": "8.70495"}, {"country": "DE", "name": "Loitz", "lat": "53.44205", "lng": "13.38802"}, {"country": "DE", "name": "Loiching", "lat": "48.61667", "lng": "12.43333"}, {"country": "DE", "name": "Lohsa", "lat": "51.38333", "lng": "14.4"}, {"country": "DE", "name": "Lohra", "lat": "50.73333", "lng": "8.63333"}, {"country": "DE", "name": "Lohr am Main", "lat": "49.98922", "lng": "9.57223"}, {"country": "DE", "name": "Lohne", "lat": "52.66625", "lng": "8.2375"}, {"country": "DE", "name": "Lohne", "lat": "52.49778", "lng": "7.22629"}, {"country": "DE", "name": "L\u00f6hne", "lat": "52.18848", "lng": "8.6922"}, {"country": "DE", "name": "L\u00f6hnberg", "lat": "50.51299", "lng": "8.27202"}, {"country": "DE", "name": "Lohmen", "lat": "50.98831", "lng": "14.00268"}, {"country": "DE", "name": "Lohmar", "lat": "50.83868", "lng": "7.21399"}, {"country": "DE", "name": "Lohfelden", "lat": "51.26667", "lng": "9.53333"}, {"country": "DE", "name": "Lohberg", "lat": "49.17604", "lng": "13.10549"}, {"country": "DE", "name": "L\u00f6ffingen", "lat": "47.88405", "lng": "8.34384"}, {"country": "DE", "name": "Loffenau", "lat": "48.77214", "lng": "8.38463"}, {"country": "DE", "name": "L\u00f6f", "lat": "50.23333", "lng": "7.43333"}, {"country": "DE", "name": "Loddin", "lat": "54.02252", "lng": "14.00754"}, {"country": "DE", "name": "L\u00f6cknitz", "lat": "53.28694", "lng": "11.78108"}, {"country": "DE", "name": "L\u00f6chgau", "lat": "49.00361", "lng": "9.10639"}, {"country": "DE", "name": "Lochau", "lat": "51.39738", "lng": "12.05303"}, {"country": "DE", "name": "Loburg", "lat": "52.11509", "lng": "12.0784"}, {"country": "DE", "name": "Lobst\u00e4dt", "lat": "51.13361", "lng": "12.44861"}, {"country": "DE", "name": "L\u00f6bnitz", "lat": "51.59238", "lng": "12.46347"}, {"country": "DE", "name": "L\u00f6bichau", "lat": "50.89383", "lng": "12.26366"}, {"country": "DE", "name": "L\u00f6beritz", "lat": "51.65393", "lng": "12.14655"}, {"country": "DE", "name": "L\u00f6bej\u00fcn", "lat": "51.63533", "lng": "11.90106"}, {"country": "DE", "name": "L\u00f6bau", "lat": "51.09954", "lng": "14.66738"}, {"country": "DE", "name": "Litzendorf", "lat": "49.91444", "lng": "11.01028"}, {"country": "DE", "name": "List", "lat": "55.01917", "lng": "8.43132"}, {"country": "DE", "name": "Lissendorf", "lat": "50.31667", "lng": "6.6"}, {"country": "DE", "name": "Lippstadt", "lat": "51.67369", "lng": "8.34482"}, {"country": "DE", "name": "Linz am Rhein", "lat": "50.56884", "lng": "7.28445"}, {"country": "DE", "name": "Lintig", "lat": "53.60341", "lng": "8.87876"}, {"country": "DE", "name": "Linnich", "lat": "50.98002", "lng": "6.27049"}, {"country": "DE", "name": "Lingenfeld", "lat": "49.25389", "lng": "8.33861"}, {"country": "DE", "name": "Lingen", "lat": "52.52143", "lng": "7.31845"}, {"country": "DE", "name": "Lindwedel", "lat": "52.60784", "lng": "9.68737"}, {"country": "DE", "name": "Lindow", "lat": "52.96689", "lng": "12.98498"}, {"country": "DE", "name": "Lindlar", "lat": "51.01959", "lng": "7.37758"}, {"country": "DE", "name": "Lindhorst", "lat": "52.35789", "lng": "9.28319"}, {"country": "DE", "name": "Lindewitt", "lat": "54.7", "lng": "9.2"}, {"country": "DE", "name": "Lindenfels", "lat": "49.68369", "lng": "8.78151"}, {"country": "DE", "name": "Lindenberg", "lat": "49.38028", "lng": "8.09861"}, {"country": "DE", "name": "Linden", "lat": "49.35", "lng": "7.65"}, {"country": "DE", "name": "Lindberg", "lat": "49.0368", "lng": "13.25423"}, {"country": "DE", "name": "Lindau", "lat": "54.38333", "lng": "9.9"}, {"country": "DE", "name": "Lindau", "lat": "52.03751", "lng": "12.10788"}, {"country": "DE", "name": "Lindau", "lat": "47.54612", "lng": "9.68431"}, {"country": "DE", "name": "Linau", "lat": "53.64446", "lng": "10.46853"}, {"country": "DE", "name": "Limburgerhof", "lat": "49.42444", "lng": "8.39194"}, {"country": "DE", "name": "Limburg an der Lahn", "lat": "50.3836", "lng": "8.0503"}, {"country": "DE", "name": "Limbach-Oberfrohna", "lat": "50.85882", "lng": "12.76165"}, {"country": "DE", "name": "Limbach", "lat": "50.58333", "lng": "12.25"}, {"country": "DE", "name": "Lilienthal", "lat": "53.14193", "lng": "8.90338"}, {"country": "DE", "name": "Lieskau", "lat": "51.50395", "lng": "11.86208"}, {"country": "DE", "name": "Lieser", "lat": "49.91667", "lng": "7.01667"}, {"country": "DE", "name": "Lienen", "lat": "52.15", "lng": "7.98333"}, {"country": "DE", "name": "Liebstadt", "lat": "50.86417", "lng": "13.85694"}, {"country": "DE", "name": "Lieberose", "lat": "51.98491", "lng": "14.29987"}, {"country": "DE", "name": "Liebenwalde", "lat": "52.87125", "lng": "13.39465"}, {"country": "DE", "name": "Liebenburg", "lat": "52.02176", "lng": "10.43169"}, {"country": "DE", "name": "Liebenau", "lat": "52.60362", "lng": "9.09719"}, {"country": "DE", "name": "Liebenau", "lat": "51.49699", "lng": "9.28207"}, {"country": "DE", "name": "Lichterfelde", "lat": "52.4333", "lng": "13.30762"}, {"country": "DE", "name": "Lichtentanne", "lat": "50.69255", "lng": "12.42585"}, {"country": "DE", "name": "Lichtenstein", "lat": "50.75659", "lng": "12.63025"}, {"country": "DE", "name": "Lichtenrade", "lat": "52.39844", "lng": "13.40637"}, {"country": "DE", "name": "Lichtenfels", "lat": "50.14567", "lng": "11.05928"}, {"country": "DE", "name": "Lichtenberg", "lat": "52.51395", "lng": "13.49975"}, {"country": "DE", "name": "Lichtenberg", "lat": "51.18333", "lng": "13.96667"}, {"country": "DE", "name": "Lichtenberg", "lat": "50.83492", "lng": "13.42478"}, {"country": "DE", "name": "Lichtenberg", "lat": "50.38335", "lng": "11.67624"}, {"country": "DE", "name": "Lichtenau", "lat": "51.61707", "lng": "8.89665"}, {"country": "DE", "name": "Lichtenau", "lat": "49.15979", "lng": "10.37935"}, {"country": "DE", "name": "Lichtenau", "lat": "48.72607", "lng": "8.00486"}, {"country": "DE", "name": "Lichte", "lat": "50.51667", "lng": "11.18333"}, {"country": "DE", "name": "Lich", "lat": "50.52085", "lng": "8.81567"}, {"country": "DE", "name": "Leverkusen", "lat": "51.0303", "lng": "6.98432"}, {"country": "DE", "name": "Leutkirch im Allg\u00e4u", "lat": "47.82672", "lng": "10.0205"}, {"country": "DE", "name": "Leutesdorf", "lat": "50.45", "lng": "7.38333"}, {"country": "DE", "name": "Leutershausen", "lat": "49.29869", "lng": "10.41189"}, {"country": "DE", "name": "Leutersdorf", "lat": "50.95", "lng": "14.65"}, {"country": "DE", "name": "Leutenberg", "lat": "50.56354", "lng": "11.45619"}, {"country": "DE", "name": "Leutenbach", "lat": "49.7095", "lng": "11.17224"}, {"country": "DE", "name": "Leutenbach", "lat": "48.88791", "lng": "9.39267"}, {"country": "DE", "name": "Leupoldsgr\u00fcn", "lat": "50.3", "lng": "11.8"}, {"country": "DE", "name": "Leuna", "lat": "51.31783", "lng": "12.01589"}, {"country": "DE", "name": "Leun", "lat": "50.55129", "lng": "8.35836"}, {"country": "DE", "name": "Leuchtenberg", "lat": "49.59737", "lng": "12.2584"}, {"country": "DE", "name": "Leubsdorf", "lat": "50.8", "lng": "13.16667"}, {"country": "DE", "name": "Leubsdorf", "lat": "50.55", "lng": "7.3"}, {"country": "DE", "name": "Leubnitz", "lat": "50.72313", "lng": "12.3566"}, {"country": "DE", "name": "Letzlingen", "lat": "52.44615", "lng": "11.48518"}, {"country": "DE", "name": "Letschin", "lat": "52.64379", "lng": "14.36007"}, {"country": "DE", "name": "Leopoldsh\u00f6he", "lat": "52.01246", "lng": "8.69834"}, {"country": "DE", "name": "Leonberg", "lat": "49.94708", "lng": "12.2852"}, {"country": "DE", "name": "Leonberg", "lat": "48.8", "lng": "9.01667"}, {"country": "DE", "name": "Lenzkirch", "lat": "47.86832", "lng": "8.20211"}, {"country": "DE", "name": "Lenzen", "lat": "53.09176", "lng": "11.47453"}, {"country": "DE", "name": "Lentf\u00f6hrden", "lat": "53.86667", "lng": "9.88333"}, {"country": "DE", "name": "Lensahn", "lat": "54.21652", "lng": "10.88326"}, {"country": "DE", "name": "Lennestadt", "lat": "51.11721", "lng": "8.06707"}, {"country": "DE", "name": "Lenggries", "lat": "47.68333", "lng": "11.56667"}, {"country": "DE", "name": "Lengerich", "lat": "52.55381", "lng": "7.53164"}, {"country": "DE", "name": "Lengerich", "lat": "52.18661", "lng": "7.86043"}, {"country": "DE", "name": "Lengenwang", "lat": "47.7", "lng": "10.6"}, {"country": "DE", "name": "Lengenfeld", "lat": "50.5694", "lng": "12.36408"}, {"country": "DE", "name": "Lengefeld", "lat": "50.71911", "lng": "13.1929"}, {"country": "DE", "name": "Lengede", "lat": "52.20487", "lng": "10.30775"}, {"country": "DE", "name": "Lengdorf", "lat": "48.25737", "lng": "12.04973"}, {"country": "DE", "name": "Lemwerder", "lat": "53.16667", "lng": "8.61667"}, {"country": "DE", "name": "Lemsahl-Mellingstedt", "lat": "53.68998", "lng": "10.09648"}, {"country": "DE", "name": "Lemgo", "lat": "52.02786", "lng": "8.89901"}, {"country": "DE", "name": "Lemf\u00f6rde", "lat": "52.46557", "lng": "8.37621"}, {"country": "DE", "name": "Lemberg", "lat": "49.17309", "lng": "7.65111"}, {"country": "DE", "name": "Leiwen", "lat": "49.81667", "lng": "6.88333"}, {"country": "DE", "name": "Leitzkau", "lat": "52.05818", "lng": "11.95203"}, {"country": "DE", "name": "Lei\u00dfling", "lat": "51.1826", "lng": "11.90954"}, {"country": "DE", "name": "Leisnig", "lat": "51.15743", "lng": "12.9279"}, {"country": "DE", "name": "Leipzig", "lat": "51.33962", "lng": "12.37129"}, {"country": "DE", "name": "Leipheim", "lat": "48.45004", "lng": "10.22278"}, {"country": "DE", "name": "Leinzell", "lat": "48.84941", "lng": "9.8775"}, {"country": "DE", "name": "Leinfelden-Echterdingen", "lat": "48.69406", "lng": "9.16809"}, {"country": "DE", "name": "Leinefelde-Worbis", "lat": "51.38796", "lng": "10.3262"}, {"country": "DE", "name": "Leinburg", "lat": "49.45167", "lng": "11.31"}, {"country": "DE", "name": "Leimersheim", "lat": "49.12421", "lng": "8.34531"}, {"country": "DE", "name": "Leimen", "lat": "49.34737", "lng": "8.68733"}, {"country": "DE", "name": "Leimbach", "lat": "50.81667", "lng": "10.2"},