[{"country": "AE", "name": "Ras al-Khaimah", "lat": "25.78953", "lng": "55.9432"}, {"country": "AF", "name": "R\u016b-ye Sang", "lat": "35.31999", "lng": "67.63387"}, {"country": "AF", "name": "R\u016bdb\u0101r", "lat": "30.15", "lng": "62.6"}, {"country": "AF", "name": "Rust\u0101q", "lat": "37.12604", "lng": "69.83045"}, {"country": "AF", "name": "Rab\u0101\u0163-e Sang\u012b-ye P\u0101\u2019\u012bn", "lat": "34.79951", "lng": "62.13917"}, {"country": "AF", "name": "R\u0101mak", "lat": "33.52234", "lng": "68.6264"}, {"country": "AL", "name": "Rukaj", "lat": "41.68361", "lng": "20.01917"}, {"country": "AL", "name": "Rajc\u00eb", "lat": "41.09028", "lng": "20.57639"}, {"country": "AL", "name": "Roshnik", "lat": "40.73278", "lng": "20.03944"}, {"country": "AL", "name": "Ruzhdie", "lat": "40.67083", "lng": "19.69833"}, {"country": "AL", "name": "Rubik", "lat": "41.77444", "lng": "19.78611"}, {"country": "AL", "name": "Rrogozhin\u00eb", "lat": "41.07639", "lng": "19.66528"}, {"country": "AL", "name": "Rr\u00ebshen", "lat": "41.7675", "lng": "19.87556"}, {"country": "AL", "name": "Rrashbull", "lat": "41.32278", "lng": "19.51028"}, {"country": "AL", "name": "Rrasa e Sip\u00ebrme", "lat": "40.96778", "lng": "19.82111"}, {"country": "AL", "name": "Rrap\u00eb", "lat": "42.04444", "lng": "19.97056"}, {"country": "AL", "name": "Roskovec", "lat": "40.7375", "lng": "19.70222"}, {"country": "AL", "name": "Remas", "lat": "40.88639", "lng": "19.51139"}, {"country": "AM", "name": "Rrind", "lat": "39.76111", "lng": "45.17792"}, {"country": "AR", "name": "Ruiz de Montoya", "lat": "-26.98333", "lng": "-55.05"}, {"country": "AR", "name": "Rosario del Tala", "lat": "-32.30286", "lng": "-59.14545"}, {"country": "AR", "name": "Roque P\u00e9rez", "lat": "-35.39794", "lng": "-59.33271"}, {"country": "AR", "name": "Riachuelo", "lat": "-27.57754", "lng": "-58.73945"}, {"country": "AR", "name": "Riacho Eh-Eh", "lat": "-25.36209", "lng": "-58.2775"}, {"country": "AR", "name": "Retiro", "lat": "-34.58333", "lng": "-58.38333"}, {"country": "AR", "name": "Resistencia", "lat": "-27.46056", "lng": "-58.98389"}, {"country": "AR", "name": "Reconquista", "lat": "-29.15", "lng": "-59.65"}, {"country": "AR", "name": "Rauch", "lat": "-36.7745", "lng": "-59.08973"}, {"country": "AR", "name": "Ranchos", "lat": "-35.51619", "lng": "-58.31733"}, {"country": "AR", "name": "Rufino", "lat": "-34.26827", "lng": "-62.71262"}, {"country": "AR", "name": "Rosario de Lerma", "lat": "-24.98206", "lng": "-65.57891"}, {"country": "AR", "name": "Rosario de la Frontera", "lat": "-25.79693", "lng": "-64.97094"}, {"country": "AR", "name": "Rosario", "lat": "-32.94682", "lng": "-60.63932"}, {"country": "AR", "name": "Rold\u00e1n", "lat": "-32.89846", "lng": "-60.90681"}, {"country": "AR", "name": "Rojas", "lat": "-34.19528", "lng": "-60.735"}, {"country": "AR", "name": "Rodeo", "lat": "-30.21186", "lng": "-69.13661"}, {"country": "AR", "name": "Rivadavia", "lat": "-33.19051", "lng": "-68.46081"}, {"country": "AR", "name": "Rivadavia", "lat": "-31.55389", "lng": "-68.6525"}, {"country": "AR", "name": "Rivadavia", "lat": "-24.18832", "lng": "-62.89021"}, {"country": "AR", "name": "R\u00edo Tercero", "lat": "-32.17301", "lng": "-64.11405"}, {"country": "AR", "name": "R\u00edo Segundo", "lat": "-31.6526", "lng": "-63.9099"}, {"country": "AR", "name": "R\u00edo Pico", "lat": "-44.17905", "lng": "-71.36847"}, {"country": "AR", "name": "R\u00edo Mayo", "lat": "-45.68573", "lng": "-70.25797"}, {"country": "AR", "name": "R\u00edo Grande", "lat": "-53.78769", "lng": "-67.70946"}, {"country": "AR", "name": "R\u00edo Gallegos", "lat": "-51.62261", "lng": "-69.21813"}, {"country": "AR", "name": "R\u00edo Cuarto", "lat": "-33.13067", "lng": "-64.34992"}, {"country": "AR", "name": "R\u00edo Colorado", "lat": "-38.99397", "lng": "-64.09295"}, {"country": "AR", "name": "R\u00edo Ceballos", "lat": "-31.16486", "lng": "-64.32241"}, {"country": "AR", "name": "Rinconada", "lat": "-22.44083", "lng": "-66.16779"}, {"country": "AR", "name": "Recreo", "lat": "-31.49076", "lng": "-60.73299"}, {"country": "AR", "name": "Recreo", "lat": "-29.28184", "lng": "-65.06096"}, {"country": "AR", "name": "Realic\u00f3", "lat": "-35.03658", "lng": "-64.2447"}, {"country": "AR", "name": "Rawson", "lat": "-43.30016", "lng": "-65.10228"}, {"country": "AR", "name": "Rancul", "lat": "-35.06862", "lng": "-64.68107"}, {"country": "AR", "name": "Ramallo", "lat": "-33.48508", "lng": "-60.00629"}, {"country": "AR", "name": "Rafaela", "lat": "-31.25033", "lng": "-61.4867"}, {"country": "AR", "name": "Rada Tilly", "lat": "-45.92462", "lng": "-67.55424"}, {"country": "AR", "name": "R\u00edo Turbio", "lat": "-51.53587", "lng": "-72.33673"}, {"country": "AR", "name": "Rinc\u00f3n de Los Sauces", "lat": "-37.39844", "lng": "-68.92874"}, {"country": "AT", "name": "Rohrbach an der G\u00f6lsen", "lat": "48.04699", "lng": "15.74169"}, {"country": "AT", "name": "Rutzenham", "lat": "48.06076", "lng": "13.71883"}, {"country": "AT", "name": "R\u00fcstorf", "lat": "48.04326", "lng": "13.78982"}, {"country": "AT", "name": "Rust", "lat": "47.80122", "lng": "16.67158"}, {"country": "AT", "name": "Ruprechtshofen", "lat": "48.13648", "lng": "15.27675"}, {"country": "AT", "name": "Rum", "lat": "47.28333", "lng": "11.45"}, {"country": "AT", "name": "Rudersdorf", "lat": "47.05", "lng": "16.11667"}, {"country": "AT", "name": "Ruden", "lat": "46.65833", "lng": "14.77639"}, {"country": "AT", "name": "Rottenmann", "lat": "47.51667", "lng": "14.35"}, {"country": "AT", "name": "R\u00f6this", "lat": "47.29332", "lng": "9.65484"}, {"country": "AT", "name": "R\u00f6thelstein", "lat": "47.31667", "lng": "15.36667"}, {"country": "AT", "name": "Rotenturm an der Pinka", "lat": "47.25", "lng": "16.25"}, {"country": "AT", "name": "Rosegg", "lat": "46.58833", "lng": "14.01718"}, {"country": "AT", "name": "R\u00f6schitz", "lat": "48.64312", "lng": "15.81774"}, {"country": "AT", "name": "Roppen", "lat": "47.21667", "lng": "10.81667"}, {"country": "AT", "name": "R\u00f6ns", "lat": "47.21667", "lng": "9.7"}, {"country": "AT", "name": "Roitham", "lat": "48.02432", "lng": "13.82166"}, {"country": "AT", "name": "Rohr im Gebirge", "lat": "47.89471", "lng": "15.73603"}, {"country": "AT", "name": "Rohr im Burgenland", "lat": "47.11667", "lng": "16.16667"}, {"country": "AT", "name": "R\u00f6hrenbach", "lat": "48.65", "lng": "15.5"}, {"country": "AT", "name": "Rohrbach bei Mattersburg", "lat": "47.7052", "lng": "16.43005"}, {"country": "AT", "name": "Rohrbach an der Lafnitz", "lat": "47.38333", "lng": "16"}, {"country": "AT", "name": "Rohrau", "lat": "48.06667", "lng": "16.85"}, {"country": "AT", "name": "Ritzing", "lat": "47.61316", "lng": "16.49546"}, {"country": "AT", "name": "Rinn", "lat": "47.25", "lng": "11.5"}, {"country": "AT", "name": "Riezlern", "lat": "47.35778", "lng": "10.18759"}, {"country": "AT", "name": "Rietz", "lat": "47.28593", "lng": "11.03075"}, {"country": "AT", "name": "Riegersburg", "lat": "47", "lng": "15.93028"}, {"country": "AT", "name": "Riefensberg", "lat": "47.50137", "lng": "9.95838"}, {"country": "AT", "name": "Riedlingsdorf", "lat": "47.35", "lng": "16.13333"}, {"country": "AT", "name": "Ried in der Riedmark", "lat": "48.27114", "lng": "14.52796"}, {"country": "AT", "name": "Ried im Oberinntal", "lat": "47.05", "lng": "10.65"}, {"country": "AT", "name": "Ried im Innkreis", "lat": "48.21123", "lng": "13.48855"}, {"country": "AT", "name": "Reutte", "lat": "47.48333", "lng": "10.71667"}, {"country": "AT", "name": "Reuthe", "lat": "47.37113", "lng": "9.89481"}, {"country": "AT", "name": "Retznei", "lat": "46.73333", "lng": "15.56667"}, {"country": "AT", "name": "Retz", "lat": "48.75712", "lng": "15.95485"}, {"country": "AT", "name": "Rettensch\u00f6ss", "lat": "47.65718", "lng": "12.26872"}, {"country": "AT", "name": "Rettenegg", "lat": "47.52694", "lng": "15.78104"}, {"country": "AT", "name": "Rennweg am Katschberg", "lat": "47.01667", "lng": "13.61667"}, {"country": "AT", "name": "Reith bei Seefeld", "lat": "47.3", "lng": "11.2"}, {"country": "AT", "name": "Reith bei Kitzb\u00fchel", "lat": "47.46667", "lng": "12.35"}, {"country": "AT", "name": "Reith im Alpbachtal", "lat": "47.41694", "lng": "11.87785"}, {"country": "AT", "name": "Reisenberg", "lat": "47.99406", "lng": "16.52018"}, {"country": "AT", "name": "Reinsberg", "lat": "47.98567", "lng": "15.07067"}, {"country": "AT", "name": "Reingers", "lat": "48.96667", "lng": "15.13333"}, {"country": "AT", "name": "Reifling", "lat": "47.13333", "lng": "14.66667"}, {"country": "AT", "name": "Reichraming", "lat": "47.88333", "lng": "14.45"}, {"country": "AT", "name": "Reichenthal", "lat": "48.54286", "lng": "14.38471"}, {"country": "AT", "name": "Reichenfels", "lat": "47.00718", "lng": "14.74425"}, {"country": "AT", "name": "Reichendorf", "lat": "47.18922", "lng": "15.7616"}, {"country": "AT", "name": "Reichenau im M\u00fchlkreis", "lat": "48.45704", "lng": "14.34875"}, {"country": "AT", "name": "Reichenau an der Rax", "lat": "47.69509", "lng": "15.84572"}, {"country": "AT", "name": "Redlham", "lat": "48.02443", "lng": "13.74738"}, {"country": "AT", "name": "Redleiten", "lat": "48.08138", "lng": "13.46894"}, {"country": "AT", "name": "Rechnitz", "lat": "47.30467", "lng": "16.44095"}, {"country": "AT", "name": "Raxendorf", "lat": "48.34108", "lng": "15.27666"}, {"country": "AT", "name": "Ravelsbach", "lat": "48.55", "lng": "15.85"}, {"country": "AT", "name": "Rauris", "lat": "47.22656", "lng": "12.99459"}, {"country": "AT", "name": "Rauchenwarth", "lat": "48.0833", "lng": "16.52794"}, {"country": "AT", "name": "Rattenberg", "lat": "47.43941", "lng": "11.89407"}, {"country": "AT", "name": "Ratten", "lat": "47.48333", "lng": "15.71667"}, {"country": "AT", "name": "Ratschendorf", "lat": "46.74222", "lng": "15.81583"}, {"country": "AT", "name": "Ratsch an der Weinstra\u00dfe", "lat": "46.68944", "lng": "15.57111"}, {"country": "AT", "name": "Rastenfeld", "lat": "48.57348", "lng": "15.33176"}, {"country": "AT", "name": "Rassach", "lat": "46.86028", "lng": "15.27"}, {"country": "AT", "name": "Rappottenstein", "lat": "48.52161", "lng": "15.07925"}, {"country": "AT", "name": "Ranten", "lat": "47.15949", "lng": "14.08349"}, {"country": "AT", "name": "Rankweil", "lat": "47.27108", "lng": "9.64308"}, {"country": "AT", "name": "Raning", "lat": "46.85", "lng": "15.81667"}, {"country": "AT", "name": "Ranggen", "lat": "47.25727", "lng": "11.2112"}, {"country": "AT", "name": "Rangersdorf", "lat": "46.86001", "lng": "12.94923"}, {"country": "AT", "name": "Randegg", "lat": "48.01198", "lng": "14.97334"}, {"country": "AT", "name": "Ramsau", "lat": "48.00313", "lng": "15.80332"}, {"country": "AT", "name": "Ramsau im Zillertal", "lat": "47.20383", "lng": "11.87545"}, {"country": "AT", "name": "Ramingstein", "lat": "47.07462", "lng": "13.83642"}, {"country": "AT", "name": "Rainbach im M\u00fchlkreis", "lat": "48.55758", "lng": "14.47449"}, {"country": "AT", "name": "Raiding", "lat": "47.56581", "lng": "16.53056"}, {"country": "AT", "name": "Ragnitz", "lat": "46.83667", "lng": "15.59278"}, {"country": "AT", "name": "Raggal", "lat": "47.21082", "lng": "9.83688"}, {"country": "AT", "name": "Radstadt", "lat": "47.38333", "lng": "13.45"}, {"country": "AT", "name": "Radfeld", "lat": "47.44806", "lng": "11.91424"}, {"country": "AT", "name": "Radenthein", "lat": "46.80056", "lng": "13.71167"}, {"country": "AT", "name": "Rachau", "lat": "47.21667", "lng": "14.9"}, {"country": "AT", "name": "Rabenwald", "lat": "47.4", "lng": "15.9"}, {"country": "AT", "name": "Rabenstein an der Pielach", "lat": "48.06535", "lng": "15.46772"}, {"country": "AT", "name": "Rabensburg", "lat": "48.65", "lng": "16.9"}, {"country": "AT", "name": "Raasdorf", "lat": "48.24657", "lng": "16.56532"}, {"country": "AT", "name": "Raach am Hochgebirge", "lat": "47.63333", "lng": "15.93333"}, {"country": "AT", "name": "Raabs an der Thaya", "lat": "48.85", "lng": "15.5"}, {"country": "AT", "name": "Raabau", "lat": "46.96278", "lng": "15.91167"}, {"country": "AT", "name": "Raaba", "lat": "47.03333", "lng": "15.5"}, {"country": "AT", "name": "Rohrberg", "lat": "47.23333", "lng": "11.91667"}, {"country": "AT", "name": "Ried im Zillertal", "lat": "47.3", "lng": "11.86667"}, {"country": "AT", "name": "Rossleithen", "lat": "47.7017", "lng": "14.2736"}, {"country": "AT", "name": "Regau", "lat": "47.99078", "lng": "13.68811"}, {"country": "AU", "name": "Roxby Downs", "lat": "-30.56305", "lng": "136.89546"}, {"country": "AU", "name": "Roseworthy", "lat": "-34.53397", "lng": "138.75023"}, {"country": "AU", "name": "Roebourne", "lat": "-20.77229", "lng": "117.14648"}, {"country": "AU", "name": "Rockingham", "lat": "-32.27682", "lng": "115.72978"}, {"country": "AU", "name": "Reynella", "lat": "-35.09372", "lng": "138.53082"}, {"country": "AU", "name": "Ravensthorpe", "lat": "-33.58303", "lng": "120.04688"}, {"country": "AU", "name": "Rye", "lat": "-38.36667", "lng": "144.81667"}, {"country": "AU", "name": "Rutherford", "lat": "-32.71667", "lng": "151.53333"}, {"country": "AU", "name": "Rowville", "lat": "-37.93333", "lng": "145.23333"}, {"country": "AU", "name": "Rosebud", "lat": "-38.35542", "lng": "144.9068"}, {"country": "AU", "name": "Rosebery", "lat": "-41.77941", "lng": "145.53825"}, {"country": "AU", "name": "Rosanna", "lat": "-37.75", "lng": "145.06667"}, {"country": "AU", "name": "Roma", "lat": "-26.56741", "lng": "148.78751"}, {"country": "AU", "name": "Rokeby", "lat": "-42.89875", "lng": "147.44917"}, {"country": "AU", "name": "Rocklea", "lat": "-27.53917", "lng": "153.00402"}, {"country": "AU", "name": "Rockhampton", "lat": "-23.38032", "lng": "150.50595"}, {"country": "AU", "name": "Rockbank", "lat": "-37.73353", "lng": "144.67003"}, {"country": "AU", "name": "Riverview", "lat": "-27.6", "lng": "152.85"}, {"country": "AU", "name": "Riverstone", "lat": "-33.68333", "lng": "150.86667"}, {"country": "AU", "name": "Ripponlea", "lat": "-37.88333", "lng": "145"}, {"country": "AU", "name": "Ringwood East", "lat": "-37.81667", "lng": "145.25"}, {"country": "AU", "name": "Richmond", "lat": "-37.81819", "lng": "145.00176"}, {"country": "AU", "name": "Richmond", "lat": "-33.59956", "lng": "150.75142"}, {"country": "AU", "name": "Rhodes", "lat": "-33.82663", "lng": "151.0881"}, {"country": "AU", "name": "Revesby", "lat": "-33.95", "lng": "151.01667"}, {"country": "AU", "name": "Reservoir", "lat": "-37.71667", "lng": "145"}, {"country": "AU", "name": "Research", "lat": "-37.7", "lng": "145.18333"}, {"country": "AU", "name": "Renmark West", "lat": "-34.16531", "lng": "140.7097"}, {"country": "AU", "name": "Renmark", "lat": "-34.17702", "lng": "140.74697"}, {"country": "AU", "name": "Regents Park", "lat": "-33.88333", "lng": "151.01667"}, {"country": "AU", "name": "Redlynch", "lat": "-16.88333", "lng": "145.7"}, {"country": "AU", "name": "Redland Bay", "lat": "-27.6113", "lng": "153.30022"}, {"country": "AU", "name": "Red Hill", "lat": "-20.31667", "lng": "148.5"}, {"country": "AU", "name": "Redhead", "lat": "-33.01178", "lng": "151.71142"}, {"country": "AU", "name": "Redfern", "lat": "-33.89279", "lng": "151.20415"}, {"country": "AU", "name": "Redbank", "lat": "-27.6", "lng": "152.86667"}, {"country": "AU", "name": "Raworth", "lat": "-32.73333", "lng": "151.61667"}, {"country": "AU", "name": "Ravenshoe", "lat": "-17.60901", "lng": "145.48413"}, {"country": "AU", "name": "Rathmines", "lat": "-33.03773", "lng": "151.58443"}, {"country": "AU", "name": "Raymond Terrace", "lat": "-32.75", "lng": "151.75"}, {"country": "AU", "name": "Ramsgate", "lat": "-33.9822", "lng": "151.14"}, {"country": "AU", "name": "Randwick", "lat": "-33.91439", "lng": "151.24895"}, {"country": "AU", "name": "Rainbow Beach", "lat": "-25.90432", "lng": "153.09174"}, {"country": "AU", "name": "Rouse Hill", "lat": "-33.68207", "lng": "150.9154"}, {"country": "AU", "name": "Roselands", "lat": "-33.93317", "lng": "151.0732"}, {"country": "AU", "name": "Raceview", "lat": "-27.63472", "lng": "152.77519"}, {"country": "AU", "name": "Redbank Plains", "lat": "-27.64613", "lng": "152.85965"}, {"country": "AU", "name": "Roxburgh Park", "lat": "-37.62581", "lng": "144.92555"}, {"country": "AU", "name": "Ridgewood", "lat": "-31.6615", "lng": "115.72261"}, {"country": "AU", "name": "Rossmoyne", "lat": "-32.03965", "lng": "115.86781"}, {"country": "AU", "name": "Redcliffe", "lat": "-31.93845", "lng": "115.94645"}, {"country": "AU", "name": "Robertson", "lat": "-27.56583", "lng": "153.05738"}, {"country": "AU", "name": "Richlands", "lat": "-27.59616", "lng": "152.95321"}, {"country": "AU", "name": "Riverhills", "lat": "-27.55928", "lng": "152.91106"}, {"country": "AU", "name": "Rochedale South", "lat": "-27.59521", "lng": "153.12332"}, {"country": "AU", "name": "Rosebud West", "lat": "-38.36444", "lng": "144.87748"}, {"country": "AU", "name": "Ramsgate Beach", "lat": "-33.98523", "lng": "151.14634"}, {"country": "AU", "name": "Roseville Chase", "lat": "-33.77852", "lng": "151.19677"}, {"country": "AU", "name": "Royal Park", "lat": "-34.87415", "lng": "138.51189"}, {"country": "AU", "name": "Royston Park", "lat": "-34.90045", "lng": "138.63605"}, {"country": "AU", "name": "Rivervale", "lat": "-31.95546", "lng": "115.91306"}, {"country": "AU", "name": "Rankin Park", "lat": "-32.92516", "lng": "151.68016"}, {"country": "AU", "name": "Rangeville", "lat": "-27.58318", "lng": "151.97997"}, {"country": "AZ", "name": "Ramana", "lat": "40.44222", "lng": "49.98056"}, {"country": "BA", "name": "Rumboci", "lat": "43.83154", "lng": "17.50273"}, {"country": "BA", "name": "Rudo", "lat": "43.61781", "lng": "19.36719"}, {"country": "BA", "name": "Rogatica", "lat": "43.79894", "lng": "19.00363"}, {"country": "BA", "name": "Rodo\u010d", "lat": "43.31453", "lng": "17.8029"}, {"country": "BA", "name": "Ravno", "lat": "42.88741", "lng": "17.96555"}, {"country": "BA", "name": "Radi\u0161i\u0107i", "lat": "43.22302", "lng": "17.54056"}, {"country": "BD", "name": "R\u0101mganj", "lat": "23.1006", "lng": "90.84989"}, {"country": "BD", "name": "R\u0101jsh\u0101hi", "lat": "24.374", "lng": "88.60114"}, {"country": "BD", "name": "Rangpur", "lat": "25.74664", "lng": "89.25166"}, {"country": "BD", "name": "R\u0101ipur", "lat": "23.0391", "lng": "90.76808"}, {"country": "BD", "name": "Raoj\u0101n", "lat": "22.53511", "lng": "91.91919"}, {"country": "BD", "name": "Ramnagar", "lat": "23.7772", "lng": "90.17604"}, {"country": "BE", "name": "Rumst", "lat": "51.08153", "lng": "4.42217"}, {"country": "BE", "name": "Rumes", "lat": "50.5545", "lng": "3.30535"}, {"country": "BE", "name": "Ruiselede", "lat": "51.04039", "lng": "3.39416"}, {"country": "BE", "name": "Rouvroy", "lat": "49.53771", "lng": "5.49031"}, {"country": "BE", "name": "Rotselaar", "lat": "50.95302", "lng": "4.71665"}, {"country": "BE", "name": "Ronse", "lat": "50.74574", "lng": "3.6005"}, {"country": "BE", "name": "Roeulx", "lat": "50.50365", "lng": "4.11163"}, {"country": "BE", "name": "Roeselare", "lat": "50.94653", "lng": "3.12269"}, {"country": "BE", "name": "Rochefort", "lat": "50.1631", "lng": "5.2216"}, {"country": "BE", "name": "Rixensart", "lat": "50.71229", "lng": "4.52529"}, {"country": "BE", "name": "Rijkevorsel", "lat": "51.34795", "lng": "4.76053"}, {"country": "BE", "name": "Riemst", "lat": "50.80995", "lng": "5.60131"}, {"country": "BE", "name": "Retie", "lat": "51.26652", "lng": "5.08242"}, {"country": "BE", "name": "Rendeux", "lat": "50.23423", "lng": "5.50414"}, {"country": "BE", "name": "Remicourt", "lat": "50.68069", "lng": "5.32785"}, {"country": "BE", "name": "Rebecq-Rognon", "lat": "50.65147", "lng": "4.10683"}, {"country": "BE", "name": "Ravels", "lat": "51.37274", "lng": "4.9921"}, {"country": "BE", "name": "Ranst", "lat": "51.18983", "lng": "4.56533"}, {"country": "BE", "name": "Ramillies", "lat": "50.63395", "lng": "4.90119"}, {"country": "BE", "name": "Raeren", "lat": "50.6672", "lng": "6.11535"}, {"country": "BF", "name": "R\u00e9o", "lat": "12.31963", "lng": "-2.47094"}, {"country": "BG", "name": "Ruzhintsi", "lat": "43.62179", "lng": "22.83286"}, {"country": "BG", "name": "Ruse", "lat": "43.85639", "lng": "25.97083"}, {"country": "BG", "name": "Ruen", "lat": "42.8", "lng": "27.28333"}, {"country": "BG", "name": "Rudozem", "lat": "41.48751", "lng": "24.84945"}, {"country": "BG", "name": "Roman", "lat": "43.15", "lng": "23.91667"}, {"country": "BG", "name": "Rila", "lat": "42.13333", "lng": "23.13333"}, {"country": "BG", "name": "Razlog", "lat": "41.8863", "lng": "23.46714"}, {"country": "BG", "name": "Razgrad", "lat": "43.53333", "lng": "26.51667"}, {"country": "BG", "name": "Ravda", "lat": "42.64185", "lng": "27.67713"}, {"country": "BG", "name": "Rakovski", "lat": "42.3", "lng": "24.96667"}, {"country": "BG", "name": "Rakitovo", "lat": "41.99012", "lng": "24.0873"}, {"country": "BG", "name": "Radomir", "lat": "42.54565", "lng": "22.96553"}, {"country": "BG", "name": "Radnevo", "lat": "42.3", "lng": "25.93333"}, {"country": "BI", "name": "Rumonge", "lat": "-3.9736", "lng": "29.4386"}, {"country": "BI", "name": "Ruyigi", "lat": "-3.47639", "lng": "30.24861"}, {"country": "BI", "name": "Rutana", "lat": "-3.9279", "lng": "29.992"}, {"country": "BO", "name": "Robor\u00e9", "lat": "-18.33473", "lng": "-59.76142"}, {"country": "BO", "name": "Rurrenabaque", "lat": "-14.44125", "lng": "-67.52781"}, {"country": "BO", "name": "Riberalta", "lat": "-11.00654", "lng": "-66.06312"}, {"country": "BO", "name": "Reyes", "lat": "-14.2952", "lng": "-67.33624"}, {"country": "BR", "name": "Russas", "lat": "-4.94028", "lng": "-37.97583"}, {"country": "BR", "name": "Rio Tinto", "lat": "-6.80306", "lng": "-35.08056"}, {"country": "BR", "name": "Rio Largo", "lat": "-9.47833", "lng": "-35.85333"}, {"country": "BR", "name": "Rio Formoso", "lat": "-8.66877", "lng": "-35.16277"}, {"country": "BR", "name": "Ribeir\u00e3o", "lat": "-8.51444", "lng": "-35.37778"}, {"country": "BR", "name": "Riach\u00e3o", "lat": "-7.36194", "lng": "-46.61722"}, {"country": "BR", "name": "Reriutaba", "lat": "-4.14167", "lng": "-40.58222"}, {"country": "BR", "name": "Rem\u00edgio", "lat": "-6.94646", "lng": "-35.78039"}, {"country": "BR", "name": "Regenera\u00e7\u00e3o", "lat": "-6.23122", "lng": "-42.68691"}, {"country": "BR", "name": "Reden\u00e7\u00e3o", "lat": "-4.22583", "lng": "-38.73056"}, {"country": "BR", "name": "Recife", "lat": "-8.05389", "lng": "-34.88111"}, {"country": "BR", "name": "Raposa", "lat": "-6.51667", "lng": "-44.18333"}, {"country": "BR", "name": "Ruy Barbosa", "lat": "-12.28389", "lng": "-40.49389"}, {"country": "BR", "name": "Rubiataba", "lat": "-15.16444", "lng": "-49.80333"}, {"country": "BR", "name": "Ros\u00e1rio Oeste", "lat": "-14.83611", "lng": "-56.4275"}, {"country": "BR", "name": "Ros\u00e1rio do Sul", "lat": "-30.25833", "lng": "-54.91417"}, {"country": "BR", "name": "Rondon\u00f3polis", "lat": "-16.47083", "lng": "-54.63556"}, {"country": "BR", "name": "Rolante", "lat": "-29.65056", "lng": "-50.57583"}, {"country": "BR", "name": "Rol\u00e2ndia", "lat": "-23.30972", "lng": "-51.36917"}, {"country": "BR", "name": "Rodeio", "lat": "-26.92278", "lng": "-49.36639"}, {"country": "BR", "name": "Rio Verde de Mato Grosso", "lat": "-18.91806", "lng": "-54.84417"}, {"country": "BR", "name": "Rio Tavares", "lat": "-27.64529", "lng": "-48.47486"}, {"country": "BR", "name": "Rio Real", "lat": "-11.48472", "lng": "-37.93278"}, {"country": "BR", "name": "Rio Pomba", "lat": "-21.27472", "lng": "-43.17917"}, {"country": "BR", "name": "Rio Piracicaba", "lat": "-19.92917", "lng": "-43.17417"}, {"country": "BR", "name": "Rio Pardo de Minas", "lat": "-15.60972", "lng": "-42.53972"}, {"country": "BR", "name": "Rio Pardo", "lat": "-29.98972", "lng": "-52.37806"}, {"country": "BR", "name": "Rio Novo do Sul", "lat": "-20.8625", "lng": "-40.93639"}, {"country": "BR", "name": "Rio Novo", "lat": "-21.47703", "lng": "-43.12589"}, {"country": "BR", "name": "Rio Negro", "lat": "-26.10583", "lng": "-49.7975"}, {"country": "BR", "name": "Rio Negrinho", "lat": "-26.25444", "lng": "-49.51833"}, {"country": "BR", "name": "Riol\u00e2ndia", "lat": "-19.98083", "lng": "-49.68194"}, {"country": "BR", "name": "Rio Grande da Serra", "lat": "-23.74417", "lng": "-46.39833"}, {"country": "BR", "name": "Rio Grande", "lat": "-32.035", "lng": "-52.09861"}, {"country": "BR", "name": "Rio do Sul", "lat": "-27.21417", "lng": "-49.64306"}, {"country": "BR", "name": "Rio de Janeiro", "lat": "-22.90642", "lng": "-43.18223"}, {"country": "BR", "name": "Rio das Pedras", "lat": "-22.84333", "lng": "-47.60611"}, {"country": "BR", "name": "Rio das Ostras", "lat": "-22.52694", "lng": "-41.945"}, {"country": "BR", "name": "Rio Claro", "lat": "-22.72306", "lng": "-44.13556"}, {"country": "BR", "name": "Rio Claro", "lat": "-22.41139", "lng": "-47.56139"}, {"country": "BR", "name": "Rio Casca", "lat": "-20.22611", "lng": "-42.65083"}, {"country": "BR", "name": "Rio Brilhante", "lat": "-21.80194", "lng": "-54.54639"}, {"country": "BR", "name": "Rio Branco do Sul", "lat": "-25.19", "lng": "-49.31417"}, {"country": "BR", "name": "Rio Bonito", "lat": "-22.70861", "lng": "-42.60972"}, {"country": "BR", "name": "Rio Bananal", "lat": "-19.265", "lng": "-40.33333"}, {"country": "BR", "name": "Ribeir\u00f3polis", "lat": "-10.53944", "lng": "-37.41667"}, {"country": "BR", "name": "Ribeir\u00e3o Preto", "lat": "-21.1775", "lng": "-47.81028"}, {"country": "BR", "name": "Ribeir\u00e3o Pires", "lat": "-23.71056", "lng": "-46.41333"}, {"country": "BR", "name": "Ribeir\u00e3o das Neves", "lat": "-19.76694", "lng": "-44.08667"}, {"country": "BR", "name": "Ribeir\u00e3o da Ilha", "lat": "-27.69934", "lng": "-48.53219"}, {"country": "BR", "name": "Ribeir\u00e3o Branco", "lat": "-24.22083", "lng": "-48.76556"}, {"country": "BR", "name": "Ribeir\u00e3o Bonito", "lat": "-22.06667", "lng": "-48.17611"}, {"country": "BR", "name": "Ribeira do Pombal", "lat": "-10.83444", "lng": "-38.53583"}, {"country": "BR", "name": "Ribas do Rio Pardo", "lat": "-20.44306", "lng": "-53.75917"}, {"country": "BR", "name": "Rialma", "lat": "-15.315", "lng": "-49.58444"}, {"country": "BR", "name": "Riacho de Santana", "lat": "-13.60917", "lng": "-42.93889"}, {"country": "BR", "name": "Riach\u00e3o do Jacu\u00edpe", "lat": "-11.80694", "lng": "-39.38556"}, {"country": "BR", "name": "Riach\u00e3o do Dantas", "lat": "-11.06889", "lng": "-37.725"}, {"country": "BR", "name": "Riach\u00e3o das Neves", "lat": "-11.74611", "lng": "-44.91"}, {"country": "BR", "name": "Resplendor", "lat": "-19.32556", "lng": "-41.25528"}, {"country": "BR", "name": "Reserva", "lat": "-24.65028", "lng": "-50.85056"}, {"country": "BR", "name": "Resende", "lat": "-22.46889", "lng": "-44.44667"}, {"country": "BR", "name": "Registro", "lat": "-24.4875", "lng": "-47.84361"}, {"country": "BR", "name": "Regente Feij\u00f3", "lat": "-22.22139", "lng": "-51.30278"}, {"country": "BR", "name": "Recreio", "lat": "-21.525", "lng": "-42.46917"}, {"country": "BR", "name": "Realeza", "lat": "-25.76889", "lng": "-53.5325"}, {"country": "BR", "name": "Raposos", "lat": "-19.96722", "lng": "-43.80417"}, {"country": "BR", "name": "Rancharia", "lat": "-22.22917", "lng": "-50.89306"}, {"country": "BR", "name": "Rio Branco", "lat": "-9.97472", "lng": "-67.81"}, {"country": "BR", "name": "Rio Preto da Eva", "lat": "-2.69795", "lng": "-59.70172"}, {"country": "BR", "name": "Residencia Moacir PU5BHV", "lat": "-26.90967", "lng": "-49.36547"}, {"country": "BW", "name": "Ratholo", "lat": "-22.72454", "lng": "27.57199"}, {"country": "BW", "name": "Ramotswa", "lat": "-24.87158", "lng": "25.86989"}, {"country": "BW", "name": "Ramokgonami", "lat": "-22.8645", "lng": "27.42391"}, {"country": "BW", "name": "Rakops", "lat": "-21.02257", "lng": "24.36052"}, {"country": "BY", "name": "Ruzhany", "lat": "52.86322", "lng": "24.89357"}, {"country": "BY", "name": "Rudzyensk", "lat": "53.5983", "lng": "27.8621"}, {"country": "BY", "name": "Rasony", "lat": "55.9058", "lng": "28.8135"}, {"country": "BY", "name": "Ros\u2019", "lat": "53.2858", "lng": "24.4128"}, {"country": "BY", "name": "Rahachow", "lat": "53.0934", "lng": "30.0495"}, {"country": "BY", "name": "Rechytsa", "lat": "52.3617", "lng": "30.3916"}, {"country": "BY", "name": "Rakaw", "lat": "53.9674", "lng": "27.0562"}, {"country": "BY", "name": "Radashkovichy", "lat": "54.1554", "lng": "27.2412"}, {"country": "BY", "name": "Ramanavichy", "lat": "53.8653", "lng": "30.5597"}, {"country": "CA", "name": "Rankin Inlet", "lat": "62.80906", "lng": "-92.08534"}, {"country": "CA", "name": "Rawdon", "lat": "46.05007", "lng": "-73.71587"}, {"country": "CA", "name": "Raymond", "lat": "49.44998", "lng": "-112.65185"}, {"country": "CA", "name": "Rayside-Balfour", "lat": "46.60873", "lng": "-81.20763"}, {"country": "CA", "name": "Red Deer", "lat": "52.26682", "lng": "-113.802"}, {"country": "CA", "name": "Red Lake", "lat": "51.01678", "lng": "-93.82736"}, {"country": "CA", "name": "Regina", "lat": "50.45008", "lng": "-104.6178"}, {"country": "CA", "name": "Renfrew", "lat": "45.46681", "lng": "-76.68272"}, {"country": "CA", "name": "Repentigny", "lat": "45.74222", "lng": "-73.45008"}, {"country": "CA", "name": "Revelstoke", "lat": "50.99712", "lng": "-118.1953"}, {"country": "CA", "name": "Richelieu", "lat": "45.44336", "lng": "-73.24602"}, {"country": "CA", "name": "Richibucto", "lat": "46.68073", "lng": "-64.88044"}, {"country": "CA", "name": "Richmond", "lat": "45.66677", "lng": "-72.1491"}, {"country": "CA", "name": "Richmond", "lat": "49.17003", "lng": "-123.13683"}, {"country": "CA", "name": "Richmond Hill", "lat": "43.87111", "lng": "-79.43725"}, {"country": "CA", "name": "Rideau Park", "lat": "53.47899", "lng": "-113.5047"}, {"country": "CA", "name": "Rigaud", "lat": "45.47927", "lng": "-74.30238"}, {"country": "CA", "name": "Rimbey", "lat": "52.6334", "lng": "-114.23532"}, {"country": "CA", "name": "Rivers", "lat": "50.03081", "lng": "-100.24029"}, {"country": "CA", "name": "Rivi\u00e8re-Rouge", "lat": "46.41679", "lng": "-74.86596"}, {"country": "CA", "name": "Roberval", "lat": "48.5168", "lng": "-72.23244"}, {"country": "CA", "name": "Roblin", "lat": "51.22999", "lng": "-101.3565"}, {"country": "CA", "name": "Rock Forest", "lat": "45.35699", "lng": "-71.99676"}, {"country": "CA", "name": "Rocky Mountain House", "lat": "52.36683", "lng": "-114.9188"}, {"country": "CA", "name": "Rosem\u00e8re", "lat": "45.63338", "lng": "-73.79919"}, {"country": "CA", "name": "Rosetown", "lat": "51.5501", "lng": "-108.00136"}, {"country": "CA", "name": "Rossland", "lat": "49.08313", "lng": "-117.80224"}, {"country": "CA", "name": "Rosthern", "lat": "52.66679", "lng": "-106.33446"}, {"country": "CA", "name": "Rougemont", "lat": "45.43338", "lng": "-73.04914"}, {"country": "CA", "name": "Rouyn-Noranda", "lat": "48.23656", "lng": "-79.02311"}, {"country": "CA", "name": "Rimouski", "lat": "48.44879", "lng": "-68.52396"}, {"country": "CA", "name": "Rivi\u00e8re-du-Loup", "lat": "47.82699", "lng": "-69.54243"}, {"country": "CH", "name": "R\u00fcti", "lat": "47.25603", "lng": "8.85552"}, {"country": "CH", "name": "R\u00fcthi", "lat": "47.2948", "lng": "9.53857"}, {"country": "CH", "name": "Ruswil", "lat": "47.08425", "lng": "8.12645"}, {"country": "CH", "name": "Russikon", "lat": "47.39669", "lng": "8.77515"}, {"country": "CH", "name": "R\u00fcschlikon", "lat": "47.30688", "lng": "8.55135"}, {"country": "CH", "name": "R\u00fcschegg", "lat": "46.77977", "lng": "7.39167"}, {"country": "CH", "name": "Rupperswil", "lat": "47.40131", "lng": "8.12877"}, {"country": "CH", "name": "R\u00fcmlang", "lat": "47.45041", "lng": "8.52993"}, {"country": "CH", "name": "R\u00fceggisberg", "lat": "46.82216", "lng": "7.4389"}, {"country": "CH", "name": "Rue", "lat": "46.61916", "lng": "6.82225"}, {"country": "CH", "name": "Rudolfstetten", "lat": "47.37101", "lng": "8.38083"}, {"country": "CH", "name": "R\u00fcderswil", "lat": "46.98374", "lng": "7.72167"}, {"country": "CH", "name": "Rubigen", "lat": "46.89868", "lng": "7.5446"}, {"country": "CH", "name": "Rotkreuz", "lat": "47.14283", "lng": "8.4314"}, {"country": "CH", "name": "Rothrist", "lat": "47.30508", "lng": "7.89196"}, {"country": "CH", "name": "Rothenthurm", "lat": "47.1042", "lng": "8.67585"}, {"country": "CH", "name": "R\u00f6schenz", "lat": "47.42366", "lng": "7.48024"}, {"country": "CH", "name": "Rorschach", "lat": "47.478", "lng": "9.4903"}, {"country": "CH", "name": "Rorbas", "lat": "47.53092", "lng": "8.57555"}, {"country": "CH", "name": "Root", "lat": "47.11458", "lng": "8.39021"}, {"country": "CH", "name": "Romont", "lat": "46.69652", "lng": "6.91898"}, {"country": "CH", "name": "R\u00f6merswil", "lat": "47.16881", "lng": "8.24528"}, {"country": "CH", "name": "Romanshorn", "lat": "47.56586", "lng": "9.37869"}, {"country": "CH", "name": "Romanel-sur-Lausanne", "lat": "46.56403", "lng": "6.60538"}, {"country": "CH", "name": "Rolle", "lat": "46.4582", "lng": "6.33499"}, {"country": "CH", "name": "Rohrbach", "lat": "47.13521", "lng": "7.81334"}, {"country": "CH", "name": "Rohr", "lat": "47.41029", "lng": "7.95333"}, {"country": "CH", "name": "Roggwil", "lat": "47.49981", "lng": "9.3958"}, {"country": "CH", "name": "Roggwil", "lat": "47.24119", "lng": "7.82141"}, {"country": "CH", "name": "Rodersdorf", "lat": "47.48082", "lng": "7.45767"}, {"country": "CH", "name": "Riva San Vitale", "lat": "45.90123", "lng": "8.97167"}, {"country": "CH", "name": "Ringgenberg", "lat": "46.70114", "lng": "7.89445"}, {"country": "CH", "name": "Riggisberg", "lat": "46.81028", "lng": "7.48014"}, {"country": "CH", "name": "Riedholz", "lat": "47.23158", "lng": "7.56829"}, {"country": "CH", "name": "Riddes", "lat": "46.17276", "lng": "7.2236"}, {"country": "CH", "name": "Rickenbach bei Wil", "lat": "47.44856", "lng": "9.04902"}, {"country": "CH", "name": "Richterswil", "lat": "47.20622", "lng": "8.69686"}, {"country": "CH", "name": "Riaz", "lat": "46.64224", "lng": "7.06183"}, {"country": "CH", "name": "Rheinfelden", "lat": "47.55437", "lng": "7.79403"}, {"country": "CH", "name": "Rheineck", "lat": "47.4663", "lng": "9.59028"}, {"country": "CH", "name": "Rh\u00e4z\u00fcns", "lat": "46.79891", "lng": "9.39764"}, {"country": "CH", "name": "Renens", "lat": "46.53989", "lng": "6.5881"}, {"country": "CH", "name": "Reinach", "lat": "47.25732", "lng": "8.18091"}, {"country": "CH", "name": "Reigoldswil", "lat": "47.39824", "lng": "7.68718"}, {"country": "CH", "name": "Reiden", "lat": "47.24719", "lng": "7.97135"}, {"country": "CH", "name": "Reichenburg", "lat": "47.17097", "lng": "8.97704"}, {"country": "CH", "name": "Rehetobel", "lat": "47.42611", "lng": "9.483"}, {"country": "CH", "name": "Regensdorf", "lat": "47.4341", "lng": "8.46874"}, {"country": "CH", "name": "Reconvilier", "lat": "47.23431", "lng": "7.22239"}, {"country": "CH", "name": "Rechthalten", "lat": "46.76766", "lng": "7.24028"}, {"country": "CH", "name": "Rebstein", "lat": "47.39812", "lng": "9.58503"}, {"country": "CH", "name": "Raron", "lat": "46.31196", "lng": "7.80029"}, {"country": "CH", "name": "Rapperswil", "lat": "47.22557", "lng": "8.82228"}, {"country": "CH", "name": "Randogne", "lat": "46.30952", "lng": "7.50058"}, {"country": "CH", "name": "Ramsen", "lat": "47.70797", "lng": "8.80949"}, {"country": "CH", "name": "Rafz", "lat": "47.60438", "lng": "8.54305"}, {"country": "CH", "name": "Radelfingen", "lat": "47.02146", "lng": "7.27178"}, {"country": "CH", "name": "Riehen", "lat": "47.57884", "lng": "7.64683"}, {"country": "CH", "name": "Regensdorf / Hofacher-Geeren", "lat": "47.43525", "lng": "8.4624"}, {"country": "CH", "name": "Regensdorf / Feldblumen-Riedthofstrasse", "lat": "47.43618", "lng": "8.46659"}, {"country": "CH", "name": "Regensdorf / Obstgarten", "lat": "47.42772", "lng": "8.46566"}, {"country": "CH", "name": "R\u00fcmlang / R\u00fcmlang (Dorfkern)", "lat": "47.4494", "lng": "8.53255"}, {"country": "CH", "name": "R\u00fcti / Westlicher Dorfteil", "lat": "47.25548", "lng": "8.8449"}, {"country": "CH", "name": "R\u00fcti / Dorfzentrum, S\u00fcdl. Teil", "lat": "47.25368", "lng": "8.85654"}, {"country": "CH", "name": "R\u00fcti / Oberdorf", "lat": "47.25894", "lng": "8.86512"}, {"country": "CH", "name": "Richterswil / Dorfkern", "lat": "47.20715", "lng": "8.70607"}, {"country": "CH", "name": "Richterswil / Richterswil (Dorfkern)", "lat": "47.20323", "lng": "8.70516"}, {"country": "CH", "name": "Richterswil / Burghalde", "lat": "47.20973", "lng": "8.69133"}, {"country": "CH", "name": "Rueyres", "lat": "46.69337", "lng": "6.69213"}, {"country": "CH", "name": "Rochefort", "lat": "46.97768", "lng": "6.80835"}, {"country": "CH", "name": "R\u00fcegsau", "lat": "47.02483", "lng": "7.67395"}, {"country": "CH", "name": "R\u00fcmligen", "lat": "46.82975", "lng": "7.49542"}, {"country": "CH", "name": "R\u00fcti bei Lyssach", "lat": "47.05684", "lng": "7.57679"}, {"country": "CL", "name": "R\u00edo Bueno", "lat": "-40.33494", "lng": "-72.95564"}, {"country": "CL", "name": "Rengo", "lat": "-34.40639", "lng": "-70.85834"}, {"country": "CL", "name": "Rauco", "lat": "-34.92546", "lng": "-71.31722"}, {"country": "CL", "name": "Rancagua", "lat": "-34.17083", "lng": "-70.74444"}, {"country": "CM", "name": "Rey Bouba", "lat": "8.6724", "lng": "14.1786"}, {"country": "CN", "name": "Rikaze", "lat": "29.25", "lng": "88.88333"}, {"country": "CN", "name": "Rutog", "lat": "33.41844", "lng": "79.63919"}, {"country": "CN", "name": "Ruoqiang", "lat": "39.02003", "lng": "88.16465"}, {"country": "CN", "name": "Racaka", "lat": "31.4", "lng": "96.51667"}, {"country": "CN", "name": "Ruyang Chengguanzhen", "lat": "34.15028", "lng": "112.45833"}, {"country": "CN", "name": "Ruoshui", "lat": "27.00194", "lng": "109.96667"}, {"country": "CN", "name": "Rende", "lat": "25.55821", "lng": "103.27604"}, {"country": "CN", "name": "Runing", "lat": "33.00111", "lng": "114.35417"}, {"country": "CN", "name": "Rulong", "lat": "30.94116", "lng": "100.31087"}, {"country": "CN", "name": "Rulin", "lat": "26.34704", "lng": "110.26627"}, {"country": "CN", "name": "Rucheng", "lat": "32.38833", "lng": "120.55528"}, {"country": "CN", "name": "Rucheng Chengguanzhen", "lat": "25.53641", "lng": "113.71547"}, {"country": "CN", "name": "Rongwo", "lat": "35.51483", "lng": "102.016"}, {"country": "CN", "name": "Rongshui", "lat": "25.06667", "lng": "109.25"}, {"country": "CN", "name": "Rongmei", "lat": "29.89333", "lng": "110.02611"}, {"country": "CN", "name": "Rongjiawan", "lat": "29.15", "lng": "113.10243"}, {"country": "CN", "name": "Rongjiang", "lat": "25.66247", "lng": "114.75034"}, {"country": "CN", "name": "Rongcheng", "lat": "30.64281", "lng": "117.83515"}, {"country": "CN", "name": "Rongcheng", "lat": "22.85842", "lng": "110.54643"}, {"country": "CN", "name": "Rizhao", "lat": "35.4275", "lng": "119.45528"}, {"country": "CN", "name": "Rifeng", "lat": "27.29728", "lng": "116.91107"}, {"country": "CN", "name": "Renqiu", "lat": "38.69889", "lng": "116.09361"}, {"country": "CN", "name": "Renhua", "lat": "25.09125", "lng": "113.74446"}, {"country": "CN", "name": "Renhe", "lat": "26.49926", "lng": "101.73861"}, {"country": "CN", "name": "Renfengzhuang", "lat": "39.31139", "lng": "117.66222"}, {"country": "CN", "name": "Ruzhou", "lat": "34.16167", "lng": "112.82972"}, {"country": "CN", "name": "Rong\u2019an", "lat": "25.23333", "lng": "109.38333"}, {"country": "CN", "name": "Runsong", "lat": "26.87", "lng": "109.097"}, {"country": "CN", "name": "Rong\u2019an", "lat": "26.12472", "lng": "119.12139"}, {"country": "CN", "name": "Renwu", "lat": "29.605", "lng": "89.005"}, {"country": "CN", "name": "Renminlu", "lat": "36.5512", "lng": "104.16952"}, {"country": "CN", "name": "Rizhao", "lat": "35.39579", "lng": "119.53217"}, {"country": "CN", "name": "Renhuai", "lat": "27.7914", "lng": "106.40104"}, {"country": "CO", "name": "Rovira", "lat": "4.23922", "lng": "-75.23996"}, {"country": "CO", "name": "Rosas", "lat": "2.26093", "lng": "-76.73986"}, {"country": "CO", "name": "Roncesvalles", "lat": "4.0108", "lng": "-75.60493"}, {"country": "CO", "name": "Roldanillo", "lat": "4.41256", "lng": "-76.15457"}, {"country": "CO", "name": "Rivera", "lat": "2.77717", "lng": "-75.25642"}, {"country": "CO", "name": "Risaralda", "lat": "5.16647", "lng": "-75.76595"}, {"country": "CO", "name": "R\u00edo Viejo", "lat": "8.5874", "lng": "-73.83901"}, {"country": "CO", "name": "Riosucio", "lat": "7.44348", "lng": "-77.11964"}, {"country": "CO", "name": "Riosucio", "lat": "5.42164", "lng": "-75.70318"}, {"country": "CO", "name": "Rionegro", "lat": "6.15515", "lng": "-75.37371"}, {"country": "CO", "name": "R\u00edohacha", "lat": "11.54444", "lng": "-72.90722"}, {"country": "CO", "name": "Riofr\u00edo", "lat": "4.1571", "lng": "-76.28852"}, {"country": "CO", "name": "R\u00edo de Oro", "lat": "8.2919", "lng": "-73.38485"}, {"country": "CO", "name": "Rioblanco", "lat": "3.53083", "lng": "-75.68056"}, {"country": "CO", "name": "Ricaurte", "lat": "4.28075", "lng": "-74.76469"}, {"country": "CO", "name": "Ricaurte", "lat": "1.18112", "lng": "-77.96124"}, {"country": "CO", "name": "Restrepo", "lat": "4.25833", "lng": "-73.56142"}, {"country": "CO", "name": "Restrepo", "lat": "3.82203", "lng": "-76.52242"}, {"country": "CO", "name": "Repel\u00f3n", "lat": "10.49194", "lng": "-75.12917"}, {"country": "CO", "name": "Remolino", "lat": "10.70199", "lng": "-74.71602"}, {"country": "CO", "name": "Remedios", "lat": "7.03083", "lng": "-74.53333"}, {"country": "CO", "name": "Regidor", "lat": "8.66565", "lng": "-73.82151"}, {"country": "CO", "name": "R\u00e1quira", "lat": "5.53793", "lng": "-73.63201"}, {"country": "CO", "name": "Ramiriqu\u00ed", "lat": "5.4002", "lng": "-73.33544"}, {"country": "CO", "name": "Ragonvalia", "lat": "7.57749", "lng": "-72.47574"}, {"country": "CR", "name": "Roxana", "lat": "10.26712", "lng": "-83.7511"}, {"country": "CR", "name": "R\u00edo Segundo", "lat": "10.24138", "lng": "-84.27933"}, {"country": "CU", "name": "Rodas", "lat": "22.34184", "lng": "-80.55596"}, {"country": "CU", "name": "R\u00edo Guayabal de Yateras", "lat": "20.36667", "lng": "-75.01667"}, {"country": "CU", "name": "R\u00edo Cauto", "lat": "20.55971", "lng": "-76.91673"}, {"country": "CU", "name": "Remedios", "lat": "22.49502", "lng": "-79.54548"}, {"country": "CU", "name": "Regla", "lat": "23.125", "lng": "-82.33194"}, {"country": "CU", "name": "Ranchuelo", "lat": "22.37266", "lng": "-80.15046"}, {"country": "CU", "name": "Rancho Veloz", "lat": "22.88042", "lng": "-80.39098"}, {"country": "CV", "name": "Ribeira Grande", "lat": "17.18561", "lng": "-25.07243"}, {"country": "CY", "name": "Rizok\u00e1rpaso", "lat": "35.59719", "lng": "34.37916"}, {"country": "CZ", "name": "R\u00fdma\u0159ov", "lat": "49.93183", "lng": "17.27177"}, {"country": "CZ", "name": "Rychvald", "lat": "49.86625", "lng": "18.37626"}, {"country": "CZ", "name": "Rychnov nad Kn\u011b\u017enou", "lat": "50.16284", "lng": "16.27488"}, {"country": "CZ", "name": "Rybitv\u00ed", "lat": "50.06015", "lng": "15.70472"}, {"country": "CZ", "name": "Ryb\u00ed", "lat": "49.60073", "lng": "18.07592"}, {"country": "CZ", "name": "Rumburk", "lat": "50.95151", "lng": "14.55699"}, {"country": "CZ", "name": "Rudolfov", "lat": "48.99339", "lng": "14.54179"}, {"country": "CZ", "name": "Rudn\u00edk", "lat": "50.59517", "lng": "15.73362"}, {"country": "CZ", "name": "Rudn\u00e1", "lat": "50.03502", "lng": "14.23435"}, {"country": "CZ", "name": "Ruda nad Moravou", "lat": "49.981", "lng": "16.87782"}, {"country": "CZ", "name": "Rtyn\u011b v Podkrkono\u0161\u00ed", "lat": "50.50523", "lng": "16.07187"}, {"country": "CZ", "name": "Roztoky", "lat": "50.15841", "lng": "14.3976"}, {"country": "CZ", "name": "Roztoky", "lat": "50.02671", "lng": "13.86787"}, {"country": "CZ", "name": "Ro\u017enov pod Radho\u0161t\u011bm", "lat": "49.45853", "lng": "18.14302"}, {"country": "CZ", "name": "Ro\u017emit\u00e1l pod T\u0159em\u0161\u00ednem", "lat": "49.60196", "lng": "13.8643"}, {"country": "CZ", "name": "Ro\u017e\u010falovice", "lat": "50.30476", "lng": "15.16962"}, {"country": "CZ", "name": "Rovensko pod Troskami", "lat": "50.53532", "lng": "15.25941"}, {"country": "CZ", "name": "Rous\u00ednov", "lat": "49.20128", "lng": "16.88215"}, {"country": "CZ", "name": "Roudnice nad Labem", "lat": "50.42528", "lng": "14.26175"}, {"country": "CZ", "name": "Rouchovany", "lat": "49.07036", "lng": "16.1076"}, {"country": "CZ", "name": "Rotava", "lat": "50.29627", "lng": "12.57341"}, {"country": "CZ", "name": "Rosice", "lat": "49.92226", "lng": "15.95127"}, {"country": "CZ", "name": "Rosice", "lat": "49.18232", "lng": "16.38787"}, {"country": "CZ", "name": "Ropice", "lat": "49.70536", "lng": "18.61345"}, {"country": "CZ", "name": "Ronov nad Doubravou", "lat": "49.88825", "lng": "15.53144"}, {"country": "CZ", "name": "Rokytnice v Orlick\u00fdch Hor\u00e1ch", "lat": "50.16473", "lng": "16.46567"}, {"country": "CZ", "name": "Rokytnice nad Jizerou", "lat": "50.72561", "lng": "15.43357"}, {"country": "CZ", "name": "Rokytnice", "lat": "49.46592", "lng": "17.3912"}, {"country": "CZ", "name": "Rokycany", "lat": "49.7427", "lng": "13.59459"}, {"country": "CZ", "name": "Rohatec", "lat": "48.8804", "lng": "17.1833"}, {"country": "CZ", "name": "Rat\u00ed\u0161kovice", "lat": "48.92002", "lng": "17.16561"}, {"country": "CZ", "name": "Ratibo\u0159", "lat": "49.36769", "lng": "17.91499"}, {"country": "CZ", "name": "Rataje", "lat": "49.2713", "lng": "17.33555"}, {"country": "CZ", "name": "Raspenava", "lat": "50.90415", "lng": "15.11465"}, {"country": "CZ", "name": "Ra\u0161kovice", "lat": "49.61975", "lng": "18.47286"}, {"country": "CZ", "name": "Rapot\u00edn", "lat": "50.01094", "lng": "17.03121"}, {"country": "CZ", "name": "Rakvice", "lat": "48.85811", "lng": "16.8133"}, {"country": "CZ", "name": "Rakovn\u00edk", "lat": "50.1037", "lng": "13.7334"}, {"country": "CZ", "name": "Rajhradice", "lat": "49.09203", "lng": "16.62933"}, {"country": "CZ", "name": "Rajhrad", "lat": "49.09021", "lng": "16.60388"}, {"country": "CZ", "name": "R\u00e1je\u010dko", "lat": "49.39393", "lng": "16.64497"}, {"country": "CZ", "name": "R\u00e1jec-Jest\u0159eb\u00ed", "lat": "49.41094", "lng": "16.63902"}, {"country": "CZ", "name": "Radvanice", "lat": "50.56745", "lng": "16.06172"}, {"country": "CZ", "name": "Radslavice", "lat": "49.47817", "lng": "17.51656"}, {"country": "CZ", "name": "Radonice", "lat": "50.29803", "lng": "13.28464"}, {"country": "CZ", "name": "Radomy\u0161l", "lat": "49.31634", "lng": "13.93024"}, {"country": "CZ", "name": "Radnice", "lat": "49.85677", "lng": "13.6057"}, {"country": "CZ", "name": "Radim\u011b\u0159", "lat": "49.6985", "lng": "16.4407"}, {"country": "DE", "name": "R\u00fcthen", "lat": "51.4909", "lng": "8.43596"}, {"country": "DE", "name": "Rutesheim", "lat": "48.80808", "lng": "8.94536"}, {"country": "DE", "name": "Rust", "lat": "48.26667", "lng": "7.73333"}, {"country": "DE", "name": "R\u00fcsselsheim", "lat": "49.98955", "lng": "8.42251"}, {"country": "DE", "name": "Ruppichteroth", "lat": "50.84367", "lng": "7.48409"}, {"country": "DE", "name": "Ruppertsweiler", "lat": "49.19707", "lng": "7.68957"}, {"country": "DE", "name": "Ruppertshofen", "lat": "48.88275", "lng": "9.81506"}, {"country": "DE", "name": "Ruppertsberg", "lat": "49.40028", "lng": "8.19611"}, {"country": "DE", "name": "Runkel", "lat": "50.40574", "lng": "8.15457"}, {"country": "DE", "name": "Runding", "lat": "49.21513", "lng": "12.76208"}, {"country": "DE", "name": "R\u00fcmpel", "lat": "53.78333", "lng": "10.35"}, {"country": "DE", "name": "R\u00fcmmingen", "lat": "47.6412", "lng": "7.64198"}, {"country": "DE", "name": "R\u00fcmmelsheim", "lat": "49.93307", "lng": "7.85977"}, {"country": "DE", "name": "Rummelsburg", "lat": "52.50146", "lng": "13.4934"}, {"country": "DE", "name": "R\u00fclzheim", "lat": "49.15312", "lng": "8.29287"}, {"country": "DE", "name": "Rullstorf", "lat": "53.28645", "lng": "10.52972"}, {"country": "DE", "name": "Ruhwinkel", "lat": "54.1", "lng": "10.21667"}, {"country": "DE", "name": "Ruhstorf", "lat": "48.53976", "lng": "12.68305"}, {"country": "DE", "name": "Ruhpolding", "lat": "47.76667", "lng": "12.65"}, {"country": "DE", "name": "Ruhmannsfelden", "lat": "48.98327", "lng": "12.98347"}, {"country": "DE", "name": "Ruhland", "lat": "51.45755", "lng": "13.86643"}, {"country": "DE", "name": "Ruhla", "lat": "50.89296", "lng": "10.36573"}, {"country": "DE", "name": "R\u00fchen", "lat": "52.4856", "lng": "10.88642"}, {"country": "DE", "name": "R\u00fcgland", "lat": "49.4", "lng": "10.58333"}, {"country": "DE", "name": "Rugendorf", "lat": "50.2", "lng": "11.46667"}, {"country": "DE", "name": "Rudow", "lat": "52.42407", "lng": "13.48529"}, {"country": "DE", "name": "Rudolstadt", "lat": "50.72043", "lng": "11.34046"}, {"country": "DE", "name": "R\u00fcdnitz", "lat": "52.72137", "lng": "13.62502"}, {"country": "DE", "name": "R\u00fcdesheim am Rhein", "lat": "49.98214", "lng": "7.92964"}, {"country": "DE", "name": "R\u00fcdesheim", "lat": "49.85", "lng": "7.81667"}, {"country": "DE", "name": "Ruderting", "lat": "48.65", "lng": "13.41667"}, {"country": "DE", "name": "Rudersberg", "lat": "48.88515", "lng": "9.52927"}, {"country": "DE", "name": "Ruderatshofen", "lat": "47.81667", "lng": "10.58333"}, {"country": "DE", "name": "Rudelzhausen", "lat": "48.6", "lng": "11.76667"}, {"country": "DE", "name": "R\u00fcckersdorf", "lat": "51.56955", "lng": "13.57226"}, {"country": "DE", "name": "R\u00fcckersdorf", "lat": "49.49757", "lng": "11.24751"}, {"country": "DE", "name": "R\u00fcbeland", "lat": "51.75591", "lng": "10.8466"}, {"country": "DE", "name": "Roxheim", "lat": "49.86667", "lng": "7.81667"}, {"country": "DE", "name": "R\u00f6vershagen", "lat": "54.17668", "lng": "12.24276"}, {"country": "DE", "name": "R\u00f6tz", "lat": "49.34316", "lng": "12.52963"}, {"country": "DE", "name": "Rottweil", "lat": "48.16783", "lng": "8.62719"}, {"country": "DE", "name": "Rottleberode", "lat": "51.51636", "lng": "10.94658"}, {"country": "DE", "name": "R\u00f6ttingen", "lat": "49.50969", "lng": "9.97082"}, {"country": "DE", "name": "Rotthalm\u00fcnster", "lat": "48.35825", "lng": "13.20162"}, {"country": "DE", "name": "Rottendorf", "lat": "49.7923", "lng": "10.02593"}, {"country": "DE", "name": "Rottenburg an der Laaber", "lat": "48.70233", "lng": "12.02717"}, {"country": "DE", "name": "Rottenburg", "lat": "48.47629", "lng": "8.93528"}, {"country": "DE", "name": "Rottenbuch", "lat": "47.73333", "lng": "10.96667"}, {"country": "DE", "name": "Rottenbach", "lat": "50.68782", "lng": "11.16674"}, {"country": "DE", "name": "R\u00f6ttenbach", "lat": "49.66429", "lng": "10.92607"}, {"country": "DE", "name": "R\u00f6ttenbach", "lat": "49.15", "lng": "11.03333"}, {"country": "DE", "name": "Rottenacker", "lat": "48.23485", "lng": "9.68956"}, {"country": "DE", "name": "Rottach-Egern", "lat": "47.68966", "lng": "11.77065"}, {"country": "DE", "name": "Rott", "lat": "47.92008", "lng": "12.08771"}, {"country": "DE", "name": "R\u00f6thlein", "lat": "49.98333", "lng": "10.21667"}, {"country": "DE", "name": "Rothenstein", "lat": "50.85", "lng": "11.6"}, {"country": "DE", "name": "Rothenfels", "lat": "49.89135", "lng": "9.5926"}, {"country": "DE", "name": "Rothenburg ob der Tauber", "lat": "49.37885", "lng": "10.18711"}, {"country": "DE", "name": "Rothenburg", "lat": "51.334", "lng": "14.96874"}, {"country": "DE", "name": "Rothenbuch", "lat": "49.96528", "lng": "9.39389"}, {"country": "DE", "name": "Rothenberg", "lat": "49.49917", "lng": "8.91917"}, {"country": "DE", "name": "R\u00f6thenbach an der Pegnitz", "lat": "49.48301", "lng": "11.24116"}, {"country": "DE", "name": "R\u00f6thenbach", "lat": "47.62303", "lng": "9.97387"}, {"country": "DE", "name": "R\u00f6tha", "lat": "51.19783", "lng": "12.41447"}, {"country": "DE", "name": "Roth", "lat": "50.7623", "lng": "7.70016"}, {"country": "DE", "name": "Roth", "lat": "49.24762", "lng": "11.09111"}, {"country": "DE", "name": "R\u00f6tgesb\u00fcttel", "lat": "52.41667", "lng": "10.53333"}, {"country": "DE", "name": "Roetgen", "lat": "50.65", "lng": "6.2"}, {"country": "DE", "name": "Rotenburg an der Fulda", "lat": "50.99556", "lng": "9.72838"}, {"country": "DE", "name": "Rotenburg", "lat": "53.11125", "lng": "9.41082"}, {"country": "DE", "name": "Rot am See", "lat": "49.25", "lng": "10.01667"}, {"country": "DE", "name": "Rot", "lat": "47.92278", "lng": "9.10485"}, {"country": "DE", "name": "Rostock", "lat": "54.0887", "lng": "12.14049"}, {"country": "DE", "name": "Ro\u00dfwein", "lat": "51.06589", "lng": "13.18308"}, {"country": "DE", "name": "Ro\u00dftal", "lat": "49.39567", "lng": "10.88848"}, {"country": "DE", "name": "Ro\u00dfleben", "lat": "51.29886", "lng": "11.43435"}, {"country": "DE", "name": "Ro\u00dflau", "lat": "51.88736", "lng": "12.24192"}, {"country": "DE", "name": "Ro\u00dfla", "lat": "51.46331", "lng": "11.07576"}, {"country": "DE", "name": "Ro\u00dfhaupten", "lat": "48.42943", "lng": "10.46911"}, {"country": "DE", "name": "Ro\u00dfdorf", "lat": "49.85972", "lng": "8.76167"}, {"country": "DE", "name": "Rossbach", "lat": "48.58333", "lng": "12.95"}, {"country": "DE", "name": "R\u00f6srath", "lat": "50.89559", "lng": "7.18175"}, {"country": "DE", "name": "Roskow", "lat": "52.47237", "lng": "12.71886"}, {"country": "DE", "name": "Rositz", "lat": "51.01728", "lng": "12.36354"}, {"country": "DE", "name": "Rosenthal", "lat": "52.59976", "lng": "13.37774"}, {"country": "DE", "name": "Rosenthal", "lat": "50.97439", "lng": "8.86736"}, {"country": "DE", "name": "Rosenow", "lat": "53.62966", "lng": "13.03849"}, {"country": "DE", "name": "Rosenheim", "lat": "47.85637", "lng": "12.12247"}, {"country": "DE", "name": "Rosenfeld", "lat": "48.28639", "lng": "8.72357"}, {"country": "DE", "name": "Rosenberg", "lat": "49.01892", "lng": "10.0296"}, {"country": "DE", "name": "Rosdorf", "lat": "51.5", "lng": "9.9"}, {"country": "DE", "name": "Rosche", "lat": "52.98663", "lng": "10.75184"}, {"country": "DE", "name": "Rosbach vor der H\u00f6he", "lat": "50.30332", "lng": "8.68976"}, {"country": "DE", "name": "Ronshausen", "lat": "50.95", "lng": "9.85"}, {"country": "DE", "name": "Ronsberg", "lat": "47.8958", "lng": "10.41571"}, {"country": "DE", "name": "Ronnenberg", "lat": "52.31939", "lng": "9.65544"}, {"country": "DE", "name": "Ronneburg", "lat": "50.8634", "lng": "12.18666"}, {"country": "DE", "name": "Romrod", "lat": "50.71341", "lng": "9.2201"}, {"country": "DE", "name": "Rommerskirchen", "lat": "51.03333", "lng": "6.68333"}, {"country": "DE", "name": "R\u00f6mhild", "lat": "50.39639", "lng": "10.53889"}, {"country": "DE", "name": "R\u00f6llbach", "lat": "49.77306", "lng": "9.24611"}, {"country": "DE", "name": "Roitzsch", "lat": "51.57526", "lng": "12.26331"}, {"country": "DE", "name": "Roigheim", "lat": "49.36472", "lng": "9.34"}, {"country": "DE", "name": "R\u00f6hrsen", "lat": "52.71078", "lng": "9.23139"}, {"country": "DE", "name": "R\u00f6hrnbach", "lat": "48.73859", "lng": "13.52271"}, {"country": "DE", "name": "R\u00f6hrmoos", "lat": "48.32966", "lng": "11.44672"}, {"country": "DE", "name": "Rohrenfels", "lat": "48.68654", "lng": "11.15619"}, {"country": "DE", "name": "Rohrdorf", "lat": "48.56667", "lng": "8.7"}, {"country": "DE", "name": "Rohrdorf", "lat": "47.79713", "lng": "12.1701"}, {"country": "DE", "name": "Rohrbach", "lat": "49.13667", "lng": "8.12861"}, {"country": "DE", "name": "Rohrbach", "lat": "48.28933", "lng": "12.55603"}, {"country": "DE", "name": "Rohr", "lat": "50.57644", "lng": "10.49725"}, {"country": "DE", "name": "Rohr", "lat": "49.34112", "lng": "10.88981"}, {"country": "DE", "name": "Rohr", "lat": "48.76768", "lng": "11.97152"}, {"country": "DE", "name": "Roggentin", "lat": "54.0707", "lng": "12.20424"}, {"country": "DE", "name": "Roggendorf", "lat": "53.69292", "lng": "11.0144"}, {"country": "DE", "name": "Roggenburg", "lat": "48.27588", "lng": "10.23136"}, {"country": "DE", "name": "Rog\u00e4tz", "lat": "52.31667", "lng": "11.76667"}, {"country": "DE", "name": "R\u00f6fingen", "lat": "48.42442", "lng": "10.44268"}, {"country": "DE", "name": "Rodleben", "lat": "51.89607", "lng": "12.20061"}, {"country": "DE", "name": "R\u00f6dinghausen", "lat": "52.25", "lng": "8.48333"}, {"country": "DE", "name": "Roding", "lat": "49.19426", "lng": "12.51956"}, {"country": "DE", "name": "Rodewisch", "lat": "50.53083", "lng": "12.41329"}, {"country": "DE", "name": "Rodenberg", "lat": "52.31152", "lng": "9.3564"}, {"country": "DE", "name": "Rodenbach", "lat": "50.15", "lng": "9.03333"}, {"country": "DE", "name": "Rodenbach", "lat": "49.57414", "lng": "8.10695"}, {"country": "DE", "name": "Roden", "lat": "49.89556", "lng": "9.62639"}, {"country": "DE", "name": "R\u00f6delsee", "lat": "49.7284", "lng": "10.2436"}, {"country": "DE", "name": "Rodalben", "lat": "49.2394", "lng": "7.63962"}, {"country": "DE", "name": "Rockenhausen", "lat": "49.62974", "lng": "7.82134"}, {"country": "DE", "name": "Rockenberg", "lat": "50.4305", "lng": "8.73688"}, {"country": "DE", "name": "Rochlitz", "lat": "51.05007", "lng": "12.79754"}, {"country": "DE", "name": "R\u00f6blingen am See", "lat": "51.45944", "lng": "11.68231"}, {"country": "DE", "name": "R\u00f6bel", "lat": "53.37555", "lng": "12.60372"}, {"country": "DE", "name": "Rittersgr\u00fcn", "lat": "50.48031", "lng": "12.79336"}, {"country": "DE", "name": "Rittersdorf", "lat": "50", "lng": "6.5"}, {"country": "DE", "name": "Ritterhude", "lat": "53.18289", "lng": "8.7355"}, {"country": "DE", "name": "Riol", "lat": "49.79301", "lng": "6.79211"}, {"country": "DE", "name": "Rinteln", "lat": "52.18604", "lng": "9.07917"}, {"country": "DE", "name": "Ringsheim", "lat": "48.24765", "lng": "7.77823"}, {"country": "DE", "name": "Ringleben", "lat": "51.36667", "lng": "11.21667"}, {"country": "DE", "name": "Ringelai", "lat": "48.81336", "lng": "13.4713"}, {"country": "DE", "name": "Rinchnach", "lat": "48.94956", "lng": "13.20102"}, {"country": "DE", "name": "Rimsting", "lat": "47.88078", "lng": "12.33713"}, {"country": "DE", "name": "Rimschweiler", "lat": "49.2188", "lng": "7.37571"}, {"country": "DE", "name": "Rimpar", "lat": "49.85692", "lng": "9.95705"}, {"country": "DE", "name": "Rimbach", "lat": "49.625", "lng": "8.76306"}, {"country": "DE", "name": "Rimbach", "lat": "49.23333", "lng": "12.88333"}, {"country": "DE", "name": "Rietz Neuendorf", "lat": "52.22758", "lng": "14.17463"}, {"country": "DE", "name": "Rietschen", "lat": "51.4", "lng": "14.78333"}, {"country": "DE", "name": "Riethnordhausen", "lat": "51.08333", "lng": "11"}, {"country": "DE", "name": "Rietberg", "lat": "51.80924", "lng": "8.42841"}, {"country": "DE", "name": "Rieste", "lat": "52.48333", "lng": "8.01667"}, {"country": "DE", "name": "Riestedt", "lat": "51.49496", "lng": "11.36023"}, {"country": "DE", "name": "Rieseby", "lat": "54.5414", "lng": "9.81689"}, {"country": "DE", "name": "Riesa", "lat": "51.30777", "lng": "13.29168"}, {"country": "DE", "name": "Riepsdorf", "lat": "54.22611", "lng": "10.97242"}, {"country": "DE", "name": "Rieneck", "lat": "50.09349", "lng": "9.64797"}, {"country": "DE", "name": "Rielasingen-Worblingen", "lat": "47.73465", "lng": "8.84013"}, {"country": "DE", "name": "Riehl", "lat": "50.96686", "lng": "6.97572"}, {"country": "DE", "name": "Riegsee", "lat": "47.69867", "lng": "11.23391"}, {"country": "DE", "name": "Riegelsberg", "lat": "49.3", "lng": "6.93333"}, {"country": "DE", "name": "Riegel", "lat": "48.15111", "lng": "7.74915"}, {"country": "DE", "name": "Riedlingen", "lat": "48.15455", "lng": "9.47558"}, {"country": "DE", "name": "Riedering", "lat": "47.83874", "lng": "12.20778"}, {"country": "DE", "name": "Riederich", "lat": "48.56029", "lng": "9.26883"}, {"country": "DE", "name": "Rieder", "lat": "51.73333", "lng": "11.16667"}, {"country": "DE", "name": "Riedenburg", "lat": "48.96383", "lng": "11.6888"}, {"country": "DE", "name": "Rieden an der K\u00f6tz", "lat": "48.38499", "lng": "10.25711"}, {"country": "DE", "name": "Rieden", "lat": "50.4", "lng": "7.18333"}, {"country": "DE", "name": "Rieden", "lat": "49.32361", "lng": "11.94205"}, {"country": "DE", "name": "Rieden", "lat": "47.95", "lng": "10.65"}, {"country": "DE", "name": "Riede", "lat": "52.96667", "lng": "8.95"}, {"country": "DE", "name": "Ried", "lat": "48.47698", "lng": "11.2606"}, {"country": "DE", "name": "Rickling", "lat": "54.01667", "lng": "10.16667"}, {"country": "DE", "name": "Rickert", "lat": "54.33333", "lng": "9.66667"}, {"country": "DE", "name": "Rickenbach", "lat": "47.61895", "lng": "7.97873"}, {"country": "DE", "name": "Richtenberg", "lat": "54.20131", "lng": "12.89409"}, {"country": "DE", "name": "Ribnitz-Damgarten", "lat": "54.2422", "lng": "12.45666"}, {"country": "DE", "name": "Ribbesb\u00fcttel", "lat": "52.43435", "lng": "10.50997"}, {"country": "DE", "name": "Rhumspringe", "lat": "51.58333", "lng": "10.3"}, {"country": "DE", "name": "Rhodt unter Rietburg", "lat": "49.26972", "lng": "8.10778"}, {"country": "DE", "name": "Rhinow", "lat": "52.75094", "lng": "12.34194"}, {"country": "DE", "name": "Rheurdt", "lat": "51.46667", "lng": "6.46667"}, {"country": "DE", "name": "Rhens", "lat": "50.28125", "lng": "7.6175"}, {"country": "DE", "name": "Rheinzabern", "lat": "49.11806", "lng": "8.27806"}, {"country": "DE", "name": "Rheinsberg", "lat": "53.09972", "lng": "12.89885"}, {"country": "DE", "name": "Rheinfelden (Baden)", "lat": "47.56013", "lng": "7.78715"}, {"country": "DE", "name": "Rheine", "lat": "52.28509", "lng": "7.44055"}, {"country": "DE", "name": "Rheinbrohl", "lat": "50.5", "lng": "7.33333"}, {"country": "DE", "name": "Rheinbreitbach", "lat": "50.61667", "lng": "7.23333"}, {"country": "DE", "name": "Rheinb\u00f6llen", "lat": "50.01127", "lng": "7.67249"}, {"country": "DE", "name": "Rheinberg", "lat": "51.54649", "lng": "6.59525"}, {"country": "DE", "name": "Rheinbach", "lat": "50.62562", "lng": "6.94911"}, {"country": "DE", "name": "Rheinau", "lat": "48.87173", "lng": "8.19133"}, {"country": "DE", "name": "Rheden", "lat": "52.05784", "lng": "9.78714"}, {"country": "DE", "name": "Rhede", "lat": "53.0602", "lng": "7.27127"}, {"country": "DE", "name": "Rhede", "lat": "51.83537", "lng": "6.69602"}, {"country": "DE", "name": "Rheda-Wiedenbr\u00fcck", "lat": "51.84967", "lng": "8.30017"}, {"country": "DE", "name": "Rhaunen", "lat": "49.8638", "lng": "7.34198"}, {"country": "DE", "name": "Rhade", "lat": "53.32872", "lng": "9.1135"}, {"country": "DE", "name": "Reutlingen", "lat": "48.49144", "lng": "9.20427"}, {"country": "DE", "name": "Reuth", "lat": "50.61667", "lng": "12.21667"}, {"country": "DE", "name": "Reuth", "lat": "49.99052", "lng": "11.6948"}, {"country": "DE", "name": "Reut", "lat": "48.5917", "lng": "13.12332"}, {"country": "DE", "name": "Reu\u00dfen", "lat": "51.50109", "lng": "12.13044"}, {"country": "DE", "name": "Retzstadt", "lat": "49.9125", "lng": "9.88194"}, {"country": "DE", "name": "Rettenberg", "lat": "47.57428", "lng": "10.29173"}, {"country": "DE", "name": "Rettenbach", "lat": "49.06667", "lng": "12.45"}, {"country": "DE", "name": "Rettenbach", "lat": "48.45881", "lng": "10.35238"}, {"country": "DE", "name": "Retschow", "lat": "54.04552", "lng": "11.8778"}, {"country": "DE", "name": "Rethen", "lat": "52.37707", "lng": "10.47855"}, {"country": "DE", "name": "Rethem", "lat": "52.78621", "lng": "9.37862"}, {"country": "DE", "name": "Retgendorf", "lat": "53.72922", "lng": "11.50359"}, {"country": "DE", "name": "Reppenstedt", "lat": "53.25", "lng": "10.35"}, {"country": "DE", "name": "Rentweinsdorf", "lat": "50.06342", "lng": "10.79922"}, {"country": "DE", "name": "Renningen", "lat": "48.76974", "lng": "8.93871"}, {"country": "DE", "name": "Rennertshofen", "lat": "48.75943", "lng": "11.04544"}, {"country": "DE", "name": "Rennerod", "lat": "50.6082", "lng": "8.06697"}, {"country": "DE", "name": "Rengsdorf", "lat": "50.5", "lng": "7.5"}, {"country": "DE", "name": "Rendsburg", "lat": "54.30663", "lng": "9.66313"}, {"country": "DE", "name": "Renchen", "lat": "48.5885", "lng": "8.01321"}, {"country": "DE", "name": "Remse", "lat": "50.85", "lng": "12.56667"}, {"country": "DE", "name": "Remscheid", "lat": "51.17983", "lng": "7.1925"}, {"country": "DE", "name": "Remptendorf", "lat": "50.53333", "lng": "11.65"}, {"country": "DE", "name": "Remlingen", "lat": "52.11367", "lng": "10.67408"}, {"country": "DE", "name": "Remlingen", "lat": "49.80477", "lng": "9.69484"}, {"country": "DE", "name": "Remagen", "lat": "50.57879", "lng": "7.22703"}, {"country": "DE", "name": "Rellingen", "lat": "53.65", "lng": "9.81667"}, {"country": "DE", "name": "Reit im Winkl", "lat": "47.67729", "lng": "12.47086"}, {"country": "DE", "name": "Reiskirchen", "lat": "50.6", "lng": "8.83333"}, {"country": "DE", "name": "Reischach", "lat": "48.29073", "lng": "12.7262"}, {"country": "DE", "name": "Reisbach", "lat": "48.57008", "lng": "12.62799"}, {"country": "DE", "name": "Reinstorf", "lat": "53.23445", "lng": "10.57323"}, {"country": "DE", "name": "Reinsfeld", "lat": "49.68333", "lng": "6.88333"}, {"country": "DE", "name": "Reinsdorf", "lat": "50.69775", "lng": "12.55555"}, {"country": "DE", "name": "Reinsberg", "lat": "51.00823", "lng": "13.36542"}, {"country": "DE", "name": "Reinickendorf", "lat": "52.56667", "lng": "13.33333"}, {"country": "DE", "name": "Reinheim", "lat": "49.82923", "lng": "8.83572"}, {"country": "DE", "name": "Reinhardtsgrimma", "lat": "50.8927", "lng": "13.75534"}, {"country": "DE", "name": "Reinhardshausen", "lat": "51.11166", "lng": "9.07514"}, {"country": "DE", "name": "Reinfeld", "lat": "53.83184", "lng": "10.49126"}, {"country": "DE", "name": "Reinberg", "lat": "53.67484", "lng": "13.14417"}, {"country": "DE", "name": "Reinbek", "lat": "53.51703", "lng": "10.2488"}, {"country": "DE", "name": "Reimlingen", "lat": "48.81667", "lng": "10.51667"}, {"country": "DE", "name": "Reilingen", "lat": "49.29833", "lng": "8.56417"}, {"country": "DE", "name": "Reil", "lat": "50.01667", "lng": "7.11667"}, {"country": "DE", "name": "Reichling", "lat": "47.9228", "lng": "10.92847"}, {"country": "DE", "name": "Reichertshofen", "lat": "48.65775", "lng": "11.46612"}, {"country": "DE", "name": "Reichertsheim", "lat": "48.2", "lng": "12.28333"}, {"country": "DE", "name": "Reichertshausen", "lat": "47.89882", "lng": "11.55843"}, {"country": "DE", "name": "Reichersbeuern", "lat": "47.76667", "lng": "11.63333"}, {"country": "DE", "name": "Reichenwalde", "lat": "52.26667", "lng": "14"}, {"country": "DE", "name": "Reichenschwand", "lat": "49.51384", "lng": "11.37274"}, {"country": "DE", "name": "Reichenberg", "lat": "49.73193", "lng": "9.91478"}, {"country": "DE", "name": "Reichenbach-Steegen", "lat": "49.5", "lng": "7.55"}, {"country": "DE", "name": "Reichenbach an der Fils", "lat": "48.71011", "lng": "9.46429"}, {"country": "DE", "name": "Reichenbach", "lat": "51.14144", "lng": "14.8027"}, {"country": "DE", "name": "Reichenbach/Vogtland", "lat": "50.62279", "lng": "12.30344"}, {"country": "DE", "name": "Reichenbach", "lat": "49.18333", "lng": "12.35"}, {"country": "DE", "name": "Reichelsheim", "lat": "50.35638", "lng": "8.87446"}, {"country": "DE", "name": "Reichelsheim", "lat": "49.71211", "lng": "8.83896"}, {"country": "DE", "name": "Reichartshausen", "lat": "49.355", "lng": "8.94528"}, {"country": "DE", "name": "Reichardtswerben", "lat": "51.24851", "lng": "11.95349"}, {"country": "DE", "name": "Rehna", "lat": "53.77877", "lng": "11.04929"}, {"country": "DE", "name": "Rehling", "lat": "48.48333", "lng": "10.93333"}, {"country": "DE", "name": "Rehfelde", "lat": "52.53417", "lng": "13.90884"}, {"country": "DE", "name": "Rehe", "lat": "50.63333", "lng": "8.11667"}, {"country": "DE", "name": "Rehden", "lat": "52.61024", "lng": "8.48093"}, {"country": "DE", "name": "Rehburg-Loccum", "lat": "52.46952", "lng": "9.19957"}, {"country": "DE", "name": "Rehau", "lat": "50.24921", "lng": "12.03422"}, {"country": "DE", "name": "Regnitzlosau", "lat": "50.3", "lng": "12.05"}, {"country": "DE", "name": "Regis-Breitingen", "lat": "51.08883", "lng": "12.43841"}, {"country": "DE", "name": "Regesbostel", "lat": "53.38333", "lng": "9.65"}, {"country": "DE", "name": "Regenstauf", "lat": "49.12014", "lng": "12.13027"}, {"country": "DE", "name": "Regensburg", "lat": "49.01513", "lng": "12.10161"}, {"country": "DE", "name": "Regen", "lat": "48.9719", "lng": "13.12824"}, {"country": "DE", "name": "Ree\u00dfum", "lat": "53.13333", "lng": "9.21667"}, {"country": "DE", "name": "Rees", "lat": "51.76263", "lng": "6.39778"}, {"country": "DE", "name": "Redwitz an der Rodach", "lat": "50.17323", "lng": "11.20833"}, {"country": "DE", "name": "Rednitzhembach", "lat": "49.30095", "lng": "11.07997"}, {"country": "DE", "name": "Recklinghausen", "lat": "51.61379", "lng": "7.19738"}, {"country": "DE", "name": "Recke", "lat": "52.36885", "lng": "7.72116"}, {"country": "DE", "name": "Rechtsupweg", "lat": "53.53333", "lng": "7.33333"}, {"country": "DE", "name": "Rechtmehring", "lat": "48.11667", "lng": "12.16667"}, {"country": "DE", "name": "Rechtenbach", "lat": "49.98306", "lng": "9.50833"}, {"country": "DE", "name": "Rechlin", "lat": "53.33549", "lng": "12.72543"}, {"country": "DE", "name": "Rechenberg-Bienenm\u00fchle", "lat": "50.73777", "lng": "13.53502"}, {"country": "DE", "name": "Rechberghausen", "lat": "48.7308", "lng": "9.64419"}, {"country": "DE", "name": "Ravensburg", "lat": "47.78198", "lng": "9.61062"}, {"country": "DE", "name": "Rauschenberg", "lat": "50.88329", "lng": "8.91864"}, {"country": "DE", "name": "Raunheim", "lat": "50.0132", "lng": "8.45253"}, {"country": "DE", "name": "Rauenberg", "lat": "49.26943", "lng": "8.70344"}, {"country": "DE", "name": "Rauen", "lat": "52.33227", "lng": "14.02797"}, {"country": "DE", "name": "Raubling", "lat": "47.7905", "lng": "12.11088"}, {"country": "DE", "name": "Raubach", "lat": "50.57489", "lng": "7.62496"}, {"country": "DE", "name": "Ratzeburg", "lat": "53.69965", "lng": "10.77256"}, {"country": "DE", "name": "Rattiszell", "lat": "49.02573", "lng": "12.65924"}, {"country": "DE", "name": "Rattenberg", "lat": "49.08612", "lng": "12.74912"}, {"country": "DE", "name": "Rattelsdorf", "lat": "50.01502", "lng": "10.88857"}, {"country": "DE", "name": "Ratingen", "lat": "51.29724", "lng": "6.84929"}, {"country": "DE", "name": "Rathmannsdorf", "lat": "50.92993", "lng": "14.14224"}, {"country": "DE", "name": "Rathenow", "lat": "52.60659", "lng": "12.33696"}, {"country": "DE", "name": "Rath", "lat": "50.92379", "lng": "7.0927"}, {"country": "DE", "name": "Ratekau", "lat": "53.95", "lng": "10.73333"}, {"country": "DE", "name": "Rastow", "lat": "53.45709", "lng": "11.43145"}, {"country": "DE", "name": "Rastenberg", "lat": "51.17496", "lng": "11.42029"}, {"country": "DE", "name": "Rastede", "lat": "53.25", "lng": "8.2"}, {"country": "DE", "name": "Rastatt", "lat": "48.85851", "lng": "8.20965"}, {"country": "DE", "name": "Ra\u00dfnitz", "lat": "51.39085", "lng": "12.09406"}, {"country": "DE", "name": "Rasdorf", "lat": "50.71667", "lng": "9.9"}, {"country": "DE", "name": "Raschau", "lat": "50.53127", "lng": "12.83312"}, {"country": "DE", "name": "Rantrum", "lat": "54.44062", "lng": "9.12872"}, {"country": "DE", "name": "Ranstadt", "lat": "50.35739", "lng": "8.98375"}, {"country": "DE", "name": "Rannungen", "lat": "50.16537", "lng": "10.20484"}, {"country": "DE", "name": "Ranis", "lat": "50.66132", "lng": "11.56912"}, {"country": "DE", "name": "Rangsdorf", "lat": "52.29126", "lng": "13.41946"}, {"country": "DE", "name": "Rangendingen", "lat": "48.38168", "lng": "8.8894"}, {"country": "DE", "name": "Randersacker", "lat": "49.76021", "lng": "9.98277"}, {"country": "DE", "name": "Ramsthal", "lat": "50.14039", "lng": "10.06777"}, {"country": "DE", "name": "Ramstein-Miesenbach", "lat": "49.44452", "lng": "7.55533"}, {"country": "DE", "name": "Ramsin", "lat": "51.61095", "lng": "12.23812"}, {"country": "DE", "name": "Ramsen", "lat": "49.53694", "lng": "8.01333"}, {"country": "DE", "name": "Ramsau", "lat": "48.17277", "lng": "12.22957"}, {"country": "DE", "name": "Ramsau", "lat": "47.61667", "lng": "12.9"}, {"country": "DE", "name": "Rammingen", "lat": "48.51814", "lng": "10.17197"}, {"country": "DE", "name": "Rammenau", "lat": "51.15", "lng": "14.13333"}, {"country": "DE", "name": "Rammelsbach", "lat": "49.5417", "lng": "7.44392"}, {"country": "DE", "name": "Ramerberg", "lat": "48.01806", "lng": "12.14513"}, {"country": "DE", "name": "Rambin", "lat": "54.35566", "lng": "13.20445"}, {"country": "DE", "name": "Ramberg", "lat": "49.26028", "lng": "8.00833"}, {"country": "DE", "name": "Ralingen", "lat": "49.81667", "lng": "6.5"}, {"country": "DE", "name": "Raitenbuch", "lat": "49.01468", "lng": "11.12486"}, {"country": "DE", "name": "Raisting", "lat": "47.91667", "lng": "11.1"}, {"country": "DE", "name": "Raisdorf", "lat": "54.28127", "lng": "10.24915"}, {"country": "DE", "name": "Rain", "lat": "48.90496", "lng": "12.46871"}, {"country": "DE", "name": "Rain", "lat": "48.69029", "lng": "10.91611"}, {"country": "DE", "name": "Rahnsdorf", "lat": "52.44115", "lng": "13.68708"}, {"country": "DE", "name": "Rahden", "lat": "52.43367", "lng": "8.61263"}, {"country": "DE", "name": "Raguhn", "lat": "51.71167", "lng": "12.27531"}, {"country": "DE", "name": "Raesfeld", "lat": "51.76667", "lng": "6.85"}, {"country": "DE", "name": "Radolfzell am Bodensee", "lat": "47.74194", "lng": "8.97098"}, {"country": "DE", "name": "Radis", "lat": "51.75226", "lng": "12.51453"}, {"country": "DE", "name": "Radibor", "lat": "51.24481", "lng": "14.39842"}, {"country": "DE", "name": "Radevormwald", "lat": "51.20219", "lng": "7.36027"}, {"country": "DE", "name": "Radegast", "lat": "51.65654", "lng": "12.09485"}, {"country": "DE", "name": "Radeburg", "lat": "51.21516", "lng": "13.7281"}, {"country": "DE", "name": "Radebeul", "lat": "51.10654", "lng": "13.66047"}, {"country": "DE", "name": "Radeberg", "lat": "51.11112", "lng": "13.91199"}, {"country": "DE", "name": "Raddestorf", "lat": "52.45", "lng": "8.96667"}, {"country": "DE", "name": "Radbruch", "lat": "53.31667", "lng": "10.28333"}, {"country": "DE", "name": "Rackwitz", "lat": "51.43333", "lng": "12.38333"}, {"country": "DE", "name": "R\u00e4ckelwitz", "lat": "51.25", "lng": "14.23333"}, {"country": "DE", "name": "Raben Steinfeld", "lat": "53.60141", "lng": "11.50487"}, {"country": "DE", "name": "Rabenau", "lat": "50.96484", "lng": "13.64305"}, {"country": "DE", "name": "Rietheim-Weilheim", "lat": "48.01667", "lng": "8.76667"}, {"country": "DE", "name": "R\u00f6dental", "lat": "50.29516", "lng": "11.04122"}, {"country": "DE", "name": "R\u00f6slau", "lat": "50.08333", "lng": "11.98333"}, {"country": "DE", "name": "Rieschweiler-M\u00fchlbach", "lat": "49.23333", "lng": "7.5"}, {"country": "DE", "name": "Ruppach-Goldhausen", "lat": "50.46667", "lng": "7.88333"}, {"country": "DE", "name": "Riedenberg", "lat": "50.31993", "lng": "9.861"}, {"country": "DE", "name": "Risum-Lindholm", "lat": "54.75802", "lng": "8.86906"}, {"country": "DE", "name": "Rossau", "lat": "51", "lng": "13.06667"}, {"country": "DE", "name": "Rheinau", "lat": "48.66602", "lng": "7.93659"}, {"country": "DE", "name": "Reichenau", "lat": "47.68885", "lng": "9.06355"}, {"country": "DE", "name": "Ransbach-Baumbach", "lat": "50.46496", "lng": "7.7283"}, {"country": "DE", "name": "R\u00f6dersheim-Gronau", "lat": "49.43", "lng": "8.26139"}, {"country": "DE", "name": "Riedstadt", "lat": "49.83411", "lng": "8.49621"}, {"country": "DE", "name": "Rodgau", "lat": "50.02627", "lng": "8.88588"}, {"country": "DE", "name": "Rheinstetten", "lat": "48.9685", "lng": "8.30704"}, {"country": "DE", "name": "Rothenburgsort", "lat": "53.535", "lng": "10.04082"}, {"country": "DE", "name": "Rabenau", "lat": "50.67753", "lng": "8.86425"}, {"country": "DE", "name": "R\u00f6chling-H\u00f6he", "lat": "49.27102", "lng": "6.83457"}, {"country": "DK", "name": "Ryomg\u00e5rd", "lat": "56.3843", "lng": "10.50295"}, {"country": "DK", "name": "Ry", "lat": "56.09038", "lng": "9.76505"}, {"country": "DK", "name": "Rudk\u00f8bing", "lat": "54.93639", "lng": "10.71019"}, {"country": "DK", "name": "Roskilde", "lat": "55.64152", "lng": "12.08035"}, {"country": "DK", "name": "R\u00f8nnede", "lat": "55.2571", "lng": "12.02125"}, {"country": "DK", "name": "R\u00f8nne", "lat": "55.10091", "lng": "14.70664"}, {"country": "DK", "name": "R\u00f8nde", "lat": "56.30145", "lng": "10.47505"}, {"country": "DK", "name": "R\u00f8dvig", "lat": "55.2554", "lng": "12.37936"}, {"country": "DK", "name": "R\u00f8dovre", "lat": "55.68062", "lng": "12.45373"}, {"country": "DK", "name": "R\u00f8dekro", "lat": "55.07076", "lng": "9.33531"}, {"country": "DK", "name": "R\u00f8dding", "lat": "55.36569", "lng": "9.06316"}, {"country": "DK", "name": "R\u00f8dbyhavn", "lat": "54.65944", "lng": "11.35504"}, {"country": "DK", "name": "R\u00f8dby", "lat": "54.69495", "lng": "11.38885"}, {"country": "DK", "name": "Ringsted", "lat": "55.4426", "lng": "11.79011"}, {"country": "DK", "name": "Ringk\u00f8bing", "lat": "56.09006", "lng": "8.24402"}, {"country": "DK", "name": "Ringe", "lat": "55.23828", "lng": "10.4786"}, {"country": "DK", "name": "Ribe", "lat": "55.33051", "lng": "8.76966"}, {"country": "DK", "name": "Randers", "lat": "56.4607", "lng": "10.03639"}, {"country": "DM", "name": "Roseau", "lat": "15.30174", "lng": "-61.38808"}, {"country": "DM", "name": "Rosalie", "lat": "15.36667", "lng": "-61.26667"}, {"country": "DO", "name": "R\u00edo Verde Arriba", "lat": "19.31583", "lng": "-70.56643"}, {"country": "DO", "name": "R\u00edo San Juan", "lat": "19.64385", "lng": "-70.07635"}, {"country": "DO", "name": "R\u00edo Limpio", "lat": "19.24513", "lng": "-71.53077"}, {"country": "DO", "name": "R\u00edo Grande", "lat": "19.66667", "lng": "-70.76667"}, {"country": "DO", "name": "Rinc\u00f3n", "lat": "19.11938", "lng": "-70.40632"}, {"country": "DO", "name": "Restauraci\u00f3n", "lat": "19.31532", "lng": "-71.69239"}, {"country": "DO", "name": "Ram\u00f3n Santana", "lat": "18.54224", "lng": "-69.17979"}, {"country": "DZ", "name": "Rouissat", "lat": "31.92427", "lng": "5.35018"}, {"country": "DZ", "name": "Rouiba", "lat": "36.73829", "lng": "3.28079"}, {"country": "DZ", "name": "Rouached", "lat": "36.45774", "lng": "6.04267"}, {"country": "DZ", "name": "Robbah", "lat": "33.27967", "lng": "6.90984"}, {"country": "DZ", "name": "Remchi", "lat": "35.06196", "lng": "-1.43362"}, {"country": "DZ", "name": "Relizane", "lat": "35.73734", "lng": "0.55599"}, {"country": "DZ", "name": "Reguiba", "lat": "33.56391", "lng": "6.70326"}, {"country": "DZ", "name": "Regha\u00efa", "lat": "36.73587", "lng": "3.34018"}, {"country": "DZ", "name": "Reggane", "lat": "26.71576", "lng": "0.1714"}, {"country": "DZ", "name": "R\u00e2s el Oued", "lat": "35.9441", "lng": "5.03107"}, {"country": "DZ", "name": "R\u00e2s el A\u00efoun", "lat": "35.67384", "lng": "5.6453"}, {"country": "EC", "name": "Rosa Zarate", "lat": "0.32779", "lng": "-79.47407"}, {"country": "EC", "name": "Rocafuerte", "lat": "-0.9236", "lng": "-80.44946"}, {"country": "EC", "name": "Riobamba", "lat": "-1.67098", "lng": "-78.64712"}, {"country": "EE", "name": "Rummu", "lat": "59.53528", "lng": "24.79972"}, {"country": "EE", "name": "R\u00f5uge", "lat": "57.72778", "lng": "26.90972"}, {"country": "EE", "name": "Roosna-Alliku", "lat": "59.02722", "lng": "25.70833"}, {"country": "EE", "name": "R\u00f5ngu", "lat": "58.14528", "lng": "26.24806"}, {"country": "EE", "name": "Riisipere", "lat": "59.11417", "lng": "24.31056"}, {"country": "EE", "name": "Riidaja", "lat": "58.09667", "lng": "25.8975"}, {"country": "EE", "name": "Rapla", "lat": "59.00722", "lng": "24.79278"}, {"country": "EE", "name": "R\u00e4pina", "lat": "58.09806", "lng": "27.46361"}, {"country": "EE", "name": "Rakvere", "lat": "59.34639", "lng": "26.35583"}, {"country": "EE", "name": "Rakke", "lat": "58.98167", "lng": "26.25444"}, {"country": "EE", "name": "Raja", "lat": "58.82194", "lng": "26.94306"}, {"country": "EE", "name": "Raasiku", "lat": "59.36639", "lng": "25.18306"}, {"country": "EG", "name": "Rosetta", "lat": "31.39951", "lng": "30.41718"}, {"country": "EG", "name": "Ras Gharib", "lat": "28.35831", "lng": "33.07829"}, {"country": "EG", "name": "Rafa\u1e29", "lat": "31.28204", "lng": "34.23869"}, {"country": "ES", "name": "Rute", "lat": "37.3269", "lng": "-4.36827"}, {"country": "ES", "name": "Rus", "lat": "38.04759", "lng": "-3.46254"}, {"country": "ES", "name": "Ruidera", "lat": "38.97775", "lng": "-2.88321"}, {"country": "ES", "name": "Rugat", "lat": "38.87933", "lng": "-0.36115"}, {"country": "ES", "name": "Rubite", "lat": "36.80947", "lng": "-3.34816"}, {"country": "ES", "name": "Ruanes", "lat": "39.32814", "lng": "-6.01347"}, {"country": "ES", "name": "Rozal\u00e9n del Monte", "lat": "39.99083", "lng": "-2.80525"}, {"country": "ES", "name": "R\u00f3tova", "lat": "38.93205", "lng": "-0.25765"}, {"country": "ES", "name": "Rotgl\u00e1 y Corbera", "lat": "39.00465", "lng": "-0.56482"}, {"country": "ES", "name": "Rota", "lat": "36.62545", "lng": "-6.3622"}, {"country": "ES", "name": "Rosalejo", "lat": "39.4366", "lng": "-4.90821"}, {"country": "ES", "name": "Rosal de la Frontera", "lat": "37.96754", "lng": "-7.21889"}, {"country": "ES", "name": "Roquetas de Mar", "lat": "36.76419", "lng": "-2.61475"}, {"country": "ES", "name": "Ronda", "lat": "36.74231", "lng": "-5.16709"}, {"country": "ES", "name": "Romangordo", "lat": "39.74199", "lng": "-5.70081"}, {"country": "ES", "name": "Rojales", "lat": "38.08799", "lng": "-0.72544"}, {"country": "ES", "name": "Rocafort", "lat": "39.53333", "lng": "-0.4"}, {"country": "ES", "name": "Robledollano", "lat": "39.60962", "lng": "-5.50855"}, {"country": "ES", "name": "Robledo", "lat": "38.75807", "lng": "-2.45042"}, {"country": "ES", "name": "Robledillo de Trujillo", "lat": "39.26956", "lng": "-5.98001"}, {"country": "ES", "name": "Ri\u00f3par", "lat": "38.5", "lng": "-2.45"}, {"country": "ES", "name": "R\u00edolobos", "lat": "39.92074", "lng": "-6.30397"}, {"country": "ES", "name": "Riola", "lat": "39.2", "lng": "-0.33333"}, {"country": "ES", "name": "Rioja", "lat": "36.94508", "lng": "-2.46302"}, {"country": "ES", "name": "R\u00edogordo", "lat": "36.91727", "lng": "-4.29318"}, {"country": "ES", "name": "Rinc\u00f3n de la Victoria", "lat": "36.71715", "lng": "-4.27583"}, {"country": "ES", "name": "Rielves", "lat": "39.96206", "lng": "-4.193"}, {"country": "ES", "name": "Ricote", "lat": "38.15338", "lng": "-1.36557"}, {"country": "ES", "name": "Ribera del Fresno", "lat": "38.55177", "lng": "-6.23768"}, {"country": "ES", "name": "Ribarroja del Turia", "lat": "39.54595", "lng": "-0.57069"}, {"country": "ES", "name": "Retuerta de Bullaque", "lat": "39.46363", "lng": "-4.41363"}, {"country": "ES", "name": "Requena", "lat": "39.48834", "lng": "-1.10044"}, {"country": "ES", "name": "Rena", "lat": "39.05252", "lng": "-5.80868"}, {"country": "ES", "name": "Relleu", "lat": "38.58725", "lng": "-0.31157"}, {"country": "ES", "name": "Reina", "lat": "38.18333", "lng": "-5.95"}, {"country": "ES", "name": "Re\u00edllo", "lat": "39.9", "lng": "-1.86667"}, {"country": "ES", "name": "Redov\u00e1n", "lat": "38.11619", "lng": "-0.90981"}, {"country": "ES", "name": "Realejo Alto", "lat": "28.37645", "lng": "-16.58575"}, {"country": "ES", "name": "Real de Montroi", "lat": "39.33333", "lng": "-0.6"}, {"country": "ES", "name": "Real de Gand\u00eda", "lat": "38.94817", "lng": "-0.19239"}, {"country": "ES", "name": "R\u00e1gol", "lat": "36.99523", "lng": "-2.68178"}, {"country": "ES", "name": "R\u00e1fol de Salem", "lat": "38.86651", "lng": "-0.39991"}, {"country": "ES", "name": "Rafelguaraf", "lat": "39.05126", "lng": "-0.45543"}, {"country": "ES", "name": "Rafelcofer", "lat": "38.93248", "lng": "-0.16772"}, {"country": "ES", "name": "Rafal", "lat": "38.10458", "lng": "-0.84904"}, {"country": "ES", "name": "Rada de Haro", "lat": "39.57002", "lng": "-2.62086"}, {"country": "ES", "name": "Rivas-Vaciamadrid", "lat": "40.32605", "lng": "-3.51089"}, {"country": "ES", "name": "Rupi\u00e0", "lat": "42.01667", "lng": "3.01667"}, {"country": "ES", "name": "Ruesga", "lat": "42.86413", "lng": "-4.52942"}, {"country": "ES", "name": "Ruesca", "lat": "41.2835", "lng": "-1.48142"}, {"country": "ES", "name": "Ruente", "lat": "43.25826", "lng": "-4.26791"}, {"country": "ES", "name": "Rueda de la Sierra", "lat": "40.91795", "lng": "-1.85439"}, {"country": "ES", "name": "Rueda", "lat": "41.41231", "lng": "-4.95885"}, {"country": "ES", "name": "Rucandio", "lat": "42.75111", "lng": "-3.54166"}, {"country": "ES", "name": "Rublacedo de Abajo", "lat": "42.55332", "lng": "-3.50236"}, {"country": "ES", "name": "Rubielos de Mora", "lat": "40.18894", "lng": "-0.65307"}, {"country": "ES", "name": "Rubielos de la C\u00e9rida", "lat": "40.77058", "lng": "-1.21291"}, {"country": "ES", "name": "Rub\u00ed de Bracamonte", "lat": "41.21421", "lng": "-4.92491"}, {"country": "ES", "name": "Rubiales", "lat": "40.27623", "lng": "-1.27167"}, {"country": "ES", "name": "Rub\u00ed", "lat": "41.49226", "lng": "2.03305"}, {"country": "ES", "name": "Rubena", "lat": "42.38746", "lng": "-3.57485"}, {"country": "ES", "name": "Rozas de Puerto Real", "lat": "40.31667", "lng": "-4.48333"}, {"country": "ES", "name": "Royuela de R\u00edo Franco", "lat": "42.00217", "lng": "-3.95547"}, {"country": "ES", "name": "Royuela", "lat": "40.37846", "lng": "-1.51337"}, {"country": "ES", "name": "Roturas", "lat": "41.66791", "lng": "-4.11901"}, {"country": "ES", "name": "Rosell", "lat": "40.61792", "lng": "0.22133"}, {"country": "ES", "name": "Roses", "lat": "42.26199", "lng": "3.17689"}, {"country": "ES", "name": "Roperuelos del P\u00e1ramo", "lat": "42.2378", "lng": "-5.78235"}, {"country": "ES", "name": "Romanos", "lat": "41.12636", "lng": "-1.27502"}, {"country": "ES", "name": "Romanones", "lat": "40.57149", "lng": "-2.99072"}, {"country": "ES", "name": "Romanillos de Atienza", "lat": "41.26667", "lng": "-2.9"}, {"country": "ES", "name": "Roll\u00e1n", "lat": "40.9623", "lng": "-5.91753"}, {"country": "ES", "name": "Rollamienta", "lat": "41.92592", "lng": "-2.53125"}, {"country": "ES", "name": "Rojas", "lat": "42.57781", "lng": "-3.44195"}, {"country": "ES", "name": "Rois", "lat": "42.76295", "lng": "-8.70528"}, {"country": "ES", "name": "Rodezno", "lat": "42.52576", "lng": "-2.84597"}, {"country": "ES", "name": "R\u00f3denas", "lat": "40.64076", "lng": "-1.51617"}, {"country": "ES", "name": "Rodeiro", "lat": "42.65193", "lng": "-7.95519"}, {"country": "ES", "name": "Roda de Eresma", "lat": "41.02852", "lng": "-4.1813"}, {"country": "ES", "name": "Roda de Bar\u00e0", "lat": "41.18645", "lng": "1.45893"}, {"country": "ES", "name": "Robres del Castillo", "lat": "42.27593", "lng": "-2.29245"}, {"country": "ES", "name": "Robres", "lat": "41.86746", "lng": "-0.46094"}, {"country": "ES", "name": "Robregordo", "lat": "41.10657", "lng": "-3.59369"}, {"country": "ES", "name": "Robliza de Cojos", "lat": "40.86766", "lng": "-5.97786"}, {"country": "ES", "name": "Robledo de Corpes", "lat": "41.11838", "lng": "-2.95"}, {"country": "ES", "name": "Robledo de Chavela", "lat": "40.50062", "lng": "-4.23635"}, {"country": "ES", "name": "Robledillo de Mohernando", "lat": "40.85118", "lng": "-3.23162"}, {"country": "ES", "name": "Robledillo de la Vera", "lat": "40.10093", "lng": "-5.58896"}, {"country": "ES", "name": "Robledillo de la Jara", "lat": "40.95054", "lng": "-3.52181"}, {"country": "ES", "name": "Robledillo de Gata", "lat": "40.32234", "lng": "-6.47129"}, {"country": "ES", "name": "Robleda-Cervantes", "lat": "42.08246", "lng": "-6.59414"}, {"country": "ES", "name": "Robleda", "lat": "40.38469", "lng": "-6.60726"}, {"country": "ES", "name": "Robladillo", "lat": "41.60838", "lng": "-4.90992"}, {"country": "ES", "name": "Roales", "lat": "41.5517", "lng": "-5.77211"}, {"country": "ES", "name": "Roa", "lat": "41.69699", "lng": "-3.92782"}, {"country": "ES", "name": "Rivilla de Barajas", "lat": "40.9021", "lng": "-4.98836"}, {"country": "ES", "name": "Riumors", "lat": "42.22726", "lng": "3.0419"}, {"country": "ES", "name": "Riudoms", "lat": "41.13333", "lng": "1.05"}, {"country": "ES", "name": "Riudellots de la Selva", "lat": "41.89327", "lng": "2.80452"}, {"country": "ES", "name": "Riudecols", "lat": "41.169", "lng": "0.97625"}, {"country": "ES", "name": "Riudecanyes", "lat": "41.13333", "lng": "0.96667"}, {"country": "ES", "name": "Riudarenes", "lat": "41.81667", "lng": "2.71667"}, {"country": "ES", "name": "Ripollet", "lat": "41.49686", "lng": "2.15739"}, {"country": "ES", "name": "Ripoll", "lat": "42.20064", "lng": "2.19033"}, {"country": "ES", "name": "R\u00edotorto", "lat": "43.35", "lng": "-7.23333"}, {"country": "ES", "name": "Ri\u00f3s", "lat": "41.97457", "lng": "-7.28234"}, {"country": "ES", "name": "R\u00edofr\u00edo de Aliste", "lat": "41.81724", "lng": "-6.17741"}, {"country": "ES", "name": "Riodeva", "lat": "40.11667", "lng": "-1.15"}, {"country": "ES", "name": "Riocavado de la Sierra", "lat": "42.15209", "lng": "-3.19759"}, {"country": "ES", "name": "Ruayer", "lat": "43.05372", "lng": "-5.55019"}, {"country": "ES", "name": "Rinc\u00f3n de Soto", "lat": "42.23475", "lng": "-1.85214"}, {"country": "ES", "name": "Rillo de Gallo", "lat": "40.86635", "lng": "-1.9374"}, {"country": "ES", "name": "Rillo", "lat": "40.72233", "lng": "-0.99623"}, {"country": "ES", "name": "Riells i Viabrea", "lat": "41.78333", "lng": "2.51667"}, {"country": "ES", "name": "Riego de la Vega", "lat": "42.39138", "lng": "-5.98102"}, {"country": "ES", "name": "Ricla", "lat": "41.5058", "lng": "-1.40468"}, {"country": "ES", "name": "Ribota", "lat": "41.36477", "lng": "-3.42964"}, {"country": "ES", "name": "Ribesalbes", "lat": "40.01667", "lng": "-0.26667"}, {"country": "ES", "name": "Riberos de la Cueza", "lat": "42.27881", "lng": "-4.72503"}, {"country": "ES", "name": "Ribeira", "lat": "42.74611", "lng": "-8.44392"}, {"country": "ES", "name": "Ribatejada", "lat": "40.6642", "lng": "-3.38976"}, {"country": "ES", "name": "Ribes de Freser", "lat": "42.30417", "lng": "2.16757"}, {"country": "ES", "name": "Ribas de Campos", "lat": "42.15249", "lng": "-4.51649"}, {"country": "ES", "name": "Ribaforada", "lat": "41.99814", "lng": "-1.51272"}, {"country": "ES", "name": "Ribadumia", "lat": "42.51667", "lng": "-8.75"}, {"country": "ES", "name": "Ribadesella", "lat": "43.46145", "lng": "-5.05955"}, {"country": "ES", "name": "Riba de Saelices", "lat": "40.91145", "lng": "-2.29715"}, {"country": "ES", "name": "Ribadeo", "lat": "43.53704", "lng": "-7.04095"}, {"country": "ES", "name": "Ribadavia", "lat": "42.28804", "lng": "-8.14362"}, {"country": "ES", "name": "Riaza", "lat": "41.27826", "lng": "-3.47787"}, {"country": "ES", "name": "Ria\u00f1o", "lat": "42.97705", "lng": "-5.00352"}, {"country": "ES", "name": "Rianxo", "lat": "42.64977", "lng": "-8.81763"}, {"country": "ES", "name": "Riaguas de San Bartolom\u00e9", "lat": "41.4264", "lng": "-3.48893"}, {"country": "ES", "name": "Reznos", "lat": "41.5909", "lng": "-2.02779"}, {"country": "ES", "name": "Rezmondo", "lat": "42.51565", "lng": "-4.23877"}, {"country": "ES", "name": "Reyero", "lat": "42.94882", "lng": "-5.19892"}, {"country": "ES", "name": "Revillarruz", "lat": "42.23006", "lng": "-3.65246"}, {"country": "ES", "name": "Revilla del Campo", "lat": "42.21081", "lng": "-3.54289"}, {"country": "ES", "name": "Revilla de Collazos", "lat": "42.6296", "lng": "-4.50343"}, {"country": "ES", "name": "Revenga de Campos", "lat": "42.28401", "lng": "-4.48218"}, {"country": "ES", "name": "Revellinos", "lat": "41.88982", "lng": "-5.56871"}, {"country": "ES", "name": "Reus", "lat": "41.15612", "lng": "1.10687"}, {"country": "ES", "name": "Retuerta", "lat": "42.02945", "lng": "-3.50679"}, {"country": "ES", "name": "Retortillo de Soria", "lat": "41.31092", "lng": "-2.98228"}, {"country": "ES", "name": "Retortillo", "lat": "40.80132", "lng": "-6.35951"}, {"country": "ES", "name": "Retiendas", "lat": "40.96835", "lng": "-3.27229"}, {"country": "ES", "name": "Retasc\u00f3n", "lat": "41.1435", "lng": "-1.38376"}, {"country": "ES", "name": "Respenda de la Pe\u00f1a", "lat": "42.76512", "lng": "-4.6854"}, {"country": "ES", "name": "Requena de Campos", "lat": "42.30796", "lng": "-4.34304"}, {"country": "ES", "name": "Requejo", "lat": "42.03044", "lng": "-6.74227"}, {"country": "ES", "name": "Reoc\u00edn", "lat": "43.33915", "lng": "-4.09403"}, {"country": "ES", "name": "Renieblas", "lat": "41.82009", "lng": "-2.37236"}, {"country": "ES", "name": "Renera", "lat": "40.48976", "lng": "-3.01367"}, {"country": "ES", "name": "Renedo de la Vega", "lat": "42.45348", "lng": "-4.70298"}, {"country": "ES", "name": "Renau", "lat": "41.22448", "lng": "1.31083"}, {"country": "ES", "name": "Remondo", "lat": "41.341", "lng": "-4.4839"}, {"country": "ES", "name": "Remolinos", "lat": "41.83946", "lng": "-1.17768"}, {"country": "ES", "name": "Rello", "lat": "41.33297", "lng": "-2.74925"}, {"country": "ES", "name": "Reinoso de Cerrato", "lat": "41.97624", "lng": "-4.38337"}, {"country": "ES", "name": "Reinoso", "lat": "42.50915", "lng": "-3.38466"}, {"country": "ES", "name": "Reinosa", "lat": "42.99959", "lng": "-4.13801"}, {"country": "ES", "name": "Regumiel de la Sierra", "lat": "41.95623", "lng": "-2.98843"}, {"country": "ES", "name": "Regueras de Arriba", "lat": "42.29414", "lng": "-5.85958"}, {"country": "ES", "name": "Regenc\u00f3s", "lat": "41.95271", "lng": "3.17006"}, {"country": "ES", "name": "Redue\u00f1a", "lat": "40.81685", "lng": "-3.59837"}, {"country": "ES", "name": "Redondela", "lat": "42.28337", "lng": "-8.6096"}, {"country": "ES", "name": "Redecilla del Campo", "lat": "42.46675", "lng": "-3.11531"}, {"country": "ES", "name": "Redecilla del Camino", "lat": "42.43804", "lng": "-3.06547"}, {"country": "ES", "name": "Recuerda", "lat": "41.47408", "lng": "-2.9946"}, {"country": "ES", "name": "Recas", "lat": "40.05286", "lng": "-3.9909"}, {"country": "ES", "name": "Rebollosa de Jadraque", "lat": "41.0904", "lng": "-2.84201"}, {"country": "ES", "name": "Rebollo", "lat": "41.19318", "lng": "-3.85771"}, {"country": "ES", "name": "Rebolledo de la Torre", "lat": "42.68931", "lng": "-4.22693"}, {"country": "ES", "name": "Rasueros", "lat": "41.02344", "lng": "-5.07377"}, {"country": "ES", "name": "Rasquera", "lat": "41.00267", "lng": "0.59967"}, {"country": "ES", "name": "Rasines", "lat": "43.30505", "lng": "-3.42919"}, {"country": "ES", "name": "Rascafr\u00eda", "lat": "40.90407", "lng": "-3.87898"}, {"country": "ES", "name": "Rapariegos", "lat": "41.09498", "lng": "-4.65271"}, {"country": "ES", "name": "Ramiro", "lat": "41.22845", "lng": "-4.78608"}, {"country": "ES", "name": "Ramales de la Victoria", "lat": "43.2572", "lng": "-3.46516"}, {"country": "ES", "name": "Rajadell", "lat": "41.72802", "lng": "1.70621"}, {"country": "ES", "name": "Rairiz de Veiga", "lat": "42.08364", "lng": "-7.83503"}, {"country": "ES", "name": "R\u00e1gama", "lat": "40.99768", "lng": "-5.12724"}, {"country": "ES", "name": "R\u00e1fales", "lat": "40.8377", "lng": "0.01923"}, {"country": "ES", "name": "Rab\u00f3s", "lat": "42.3789", "lng": "3.02828"}, {"country": "ES", "name": "Rab\u00e9 de las Calzadas", "lat": "42.34065", "lng": "-3.83414"}, {"country": "ES", "name": "R\u00e1banos", "lat": "42.31971", "lng": "-3.27029"}, {"country": "ES", "name": "R\u00e1bano de Aliste", "lat": "41.7443", "lng": "-6.43302"}, {"country": "ES", "name": "R\u00e1bano", "lat": "41.53314", "lng": "-4.06214"}, {"country": "ES", "name": "Rabanera del Pinar", "lat": "41.89375", "lng": "-3.19665"}, {"country": "ES", "name": "Rabanera", "lat": "42.18955", "lng": "-2.48654"}, {"country": "ES", "name": "Rabanales", "lat": "41.74287", "lng": "-6.27674"}, {"country": "ES", "name": "R\u00e1bade", "lat": "43.117", "lng": "-7.61714"}, {"country": "ES", "name": "Riu de Cerdanya", "lat": "42.34541", "lng": "1.82631"}, {"country": "ES", "name": "Retamar", "lat": "36.8332", "lng": "-2.31597"}, {"country": "ES", "name": "Retiro", "lat": "40.41317", "lng": "-3.68307"}, {"country": "ES", "name": "Rayaces", "lat": "41.92137", "lng": "-4.71401"}, {"country": "ET", "name": "Rob\u012bt", "lat": "12.01667", "lng": "39.63333"}, {"country": "FI", "name": "Rym\u00e4ttyl\u00e4", "lat": "60.37658", "lng": "21.94184"}, {"country": "FI", "name": "Ruukki", "lat": "64.66667", "lng": "25.1"}, {"country": "FI", "name": "Rusko", "lat": "60.53333", "lng": "22.21667"}, {"country": "FI", "name": "Ruovesi", "lat": "61.98575", "lng": "24.05714"}, {"country": "FI", "name": "Ruotsinpyht\u00e4\u00e4", "lat": "60.5268", "lng": "26.46203"}, {"country": "FI", "name": "Ruokolahti", "lat": "61.28333", "lng": "28.83333"}, {"country": "FI", "name": "Rovaniemi", "lat": "66.5", "lng": "25.71667"}, {"country": "FI", "name": "Ristij\u00e4rvi", "lat": "64.5", "lng": "28.21667"}, {"country": "FI", "name": "Ristiina", "lat": "61.50579", "lng": "27.24643"}, {"country": "FI", "name": "Riihim\u00e4ki", "lat": "60.73769", "lng": "24.77726"}, {"country": "FI", "name": "Replot", "lat": "63.22882", "lng": "21.41691"}, {"country": "FI", "name": "Renko", "lat": "60.89563", "lng": "24.28785"}, {"country": "FI", "name": "Reisj\u00e4rvi", "lat": "63.61667", "lng": "24.9"}, {"country": "FI", "name": "Rautj\u00e4rvi", "lat": "61.43333", "lng": "29.35"}, {"country": "FI", "name": "Rautavaara", "lat": "63.48333", "lng": "28.3"}, {"country": "FI", "name": "Rautalampi", "lat": "62.63333", "lng": "26.83333"}, {"country": "FI", "name": "Rauma", "lat": "61.12724", "lng": "21.51127"}, {"country": "FI", "name": "Ranua", "lat": "65.91667", "lng": "26.53333"}, {"country": "FI", "name": "Rantsila", "lat": "64.50613", "lng": "25.66449"}, {"country": "FI", "name": "Rantasalmi", "lat": "62.06667", "lng": "28.3"}, {"country": "FI", "name": "Raisio", "lat": "60.48592", "lng": "22.16895"}, {"country": "FI", "name": "R\u00e4\u00e4kkyl\u00e4", "lat": "62.31667", "lng": "29.61667"}, {"country": "FI", "name": "Raahe", "lat": "64.68333", "lng": "24.48333"}, {"country": "FI", "name": "Ristinummi", "lat": "63.09192", "lng": "21.72297"}, {"country": "FM", "name": "Rumung", "lat": "9.622", "lng": "138.154"}, {"country": "FM", "name": "Ruo", "lat": "8.609", "lng": "152.2455"}, {"country": "FR", "name": "Ruy", "lat": "45.58772", "lng": "5.3189"}, {"country": "FR", "name": "Russange", "lat": "49.48308", "lng": "5.95239"}, {"country": "FR", "name": "Russ", "lat": "48.49495", "lng": "7.26053"}, {"country": "FR", "name": "Rurange-l\u00e8s-Thionville", "lat": "49.27711", "lng": "6.23139"}, {"country": "FR", "name": "Rupt-sur-Moselle", "lat": "47.92271", "lng": "6.66291"}, {"country": "FR", "name": "Ruoms", "lat": "44.45351", "lng": "4.34265"}, {"country": "FR", "name": "Rungis", "lat": "48.74607", "lng": "2.35275"}, {"country": "FR", "name": "Ruminghem", "lat": "50.85922", "lng": "2.15838"}, {"country": "FR", "name": "Rumilly-en-Cambr\u00e9sis", "lat": "50.12691", "lng": "3.21874"}, {"country": "FR", "name": "Rumilly", "lat": "45.86873", "lng": "5.93652"}, {"country": "FR", "name": "Rumersheim-le-Haut", "lat": "47.85127", "lng": "7.52133"}, {"country": "FR", "name": "Rumegies", "lat": "50.48877", "lng": "3.35131"}, {"country": "FR", "name": "Rully", "lat": "46.87499", "lng": "4.74322"}, {"country": "FR", "name": "Ruitz", "lat": "50.46643", "lng": "2.58876"}, {"country": "FR", "name": "Ruill\u00e9-sur-Loir", "lat": "47.75075", "lng": "0.62058"}, {"country": "FR", "name": "Rugles", "lat": "48.82212", "lng": "0.70979"}, {"country": "FR", "name": "Ruffiac", "lat": "47.81866", "lng": "-2.28238"}, {"country": "FR", "name": "Ruffey-l\u00e8s-Echirey", "lat": "47.36667", "lng": "5.08333"}, {"country": "FR", "name": "Ruffec", "lat": "46.02877", "lng": "0.19821"}, {"country": "FR", "name": "Ruelle-sur-Touvre", "lat": "45.68333", "lng": "0.23333"}, {"country": "FR", "name": "Ruelisheim", "lat": "47.82306", "lng": "7.3594"}, {"country": "FR", "name": "Rueil-Malmaison", "lat": "48.8765", "lng": "2.18967"}, {"country": "FR", "name": "Rue", "lat": "50.2715", "lng": "1.67163"}, {"country": "FR", "name": "Rubelles", "lat": "48.55327", "lng": "2.67593"},