[{"country": "AD", "name": "Sant Juli\u00e0 de L\u00f2ria", "lat": "42.46372", "lng": "1.49129"}, {"country": "AE", "name": "Sharjah", "lat": "25.33737", "lng": "55.41206"}, {"country": "AF", "name": "Sp\u012bn B\u014dldak", "lat": "31.00575", "lng": "66.40001"}, {"country": "AF", "name": "Sp\u0113rah", "lat": "33.20204", "lng": "69.5152"}, {"country": "AF", "name": "S\u014dzmah Qal\u2018ah", "lat": "36.09916", "lng": "66.20823"}, {"country": "AF", "name": "Siy\u0101hgird", "lat": "35.00553", "lng": "68.85578"}, {"country": "AF", "name": "Sheywah", "lat": "34.57169", "lng": "70.58859"}, {"country": "AF", "name": "Sh\u012bn\u1e0fan\u1e0f", "lat": "33.30294", "lng": "62.1474"}, {"country": "AF", "name": "Shaykh Am\u012br K\u00ealay", "lat": "33.28744", "lng": "69.91283"}, {"country": "AF", "name": "Shibirgh\u0101n", "lat": "36.66757", "lng": "65.7529"}, {"country": "AF", "name": "Shw\u0101k", "lat": "33.42386", "lng": "69.37684"}, {"country": "AF", "name": "Shahr-e \u015eaf\u0101", "lat": "31.80347", "lng": "66.32376"}, {"country": "AF", "name": "Shahr\u0101n", "lat": "36.97984", "lng": "70.73928"}, {"country": "AF", "name": "Shahrak", "lat": "34.10737", "lng": "64.3052"}, {"country": "AF", "name": "Sidq\u0101b\u0101d", "lat": "35.02298", "lng": "69.35112"}, {"country": "AF", "name": "S\u0101yagaz", "lat": "32.56521", "lng": "67.03324"}, {"country": "AF", "name": "Sar-e Taygh\u0101n", "lat": "33.50998", "lng": "65.67632"}, {"country": "AF", "name": "Sar\u014db\u012b", "lat": "34.58962", "lng": "69.76005"}, {"country": "AF", "name": "Sar K\u0101\u1e49\u012b", "lat": "34.79023", "lng": "71.10962"}, {"country": "AF", "name": "Sarfir\u0101z Kal\u0101", "lat": "32.98333", "lng": "67.96517"}, {"country": "AF", "name": "Sar-e Pul", "lat": "36.21544", "lng": "65.93249"}, {"country": "AF", "name": "Sar Chak\u0101n", "lat": "35.70177", "lng": "65.23055"}, {"country": "AF", "name": "Sang\u012bn", "lat": "32.07275", "lng": "64.8359"}, {"country": "AF", "name": "Sang-e M\u0101shah", "lat": "33.1396", "lng": "67.44046"}, {"country": "AF", "name": "Sang-e Ch\u0101rak", "lat": "35.84972", "lng": "66.43694"}, {"country": "AF", "name": "Sang Atesh", "lat": "35.248", "lng": "63.0044"}, {"country": "AF", "name": "Sangar Sar\u0101y", "lat": "34.40744", "lng": "70.63937"}, {"country": "AF", "name": "Sangalak-i-Kaisar", "lat": "35.68747", "lng": "64.29318"}, {"country": "AF", "name": "Surkh Biland\u012b", "lat": "34.68474", "lng": "69.02863"}, {"country": "AF", "name": "Sh\u0113rw\u0101n\u012b-ye B\u0101l\u0101", "lat": "35.01468", "lng": "69.59934"}, {"country": "AF", "name": "Sul\u0163\u0101np\u016br-e \u2018Uly\u0101", "lat": "34.41204", "lng": "70.29634"}, {"country": "AF", "name": "St\u00ear Giy\u0101n", "lat": "32.97704", "lng": "69.37308"}, {"country": "AF", "name": "Sharan", "lat": "33.17568", "lng": "68.73045"}, {"country": "AF", "name": "Sal\u0101m Kh\u0113l", "lat": "33.67067", "lng": "69.32983"}, {"country": "AG", "name": "Saint John\u2019s", "lat": "17.12096", "lng": "-61.84329"}, {"country": "AI", "name": "Stoney Ground", "lat": "18.22026", "lng": "-63.04607"}, {"country": "AI", "name": "South Hill Village", "lat": "18.19201", "lng": "-63.08779"}, {"country": "AI", "name": "Sandy Ground Village", "lat": "18.20118", "lng": "-63.08998"}, {"country": "AI", "name": "Sandy Hill", "lat": "18.22104", "lng": "-63.01329"}, {"country": "AL", "name": "Sarand\u00eb", "lat": "39.87556", "lng": "20.00528"}, {"country": "AL", "name": "Surroj", "lat": "41.99222", "lng": "20.34417"}, {"country": "AL", "name": "Sult", "lat": "40.88472", "lng": "20.09944"}, {"country": "AL", "name": "Suk\u00eb", "lat": "40.37528", "lng": "20.15472"}, {"country": "AL", "name": "Su\u00e7", "lat": "41.57694", "lng": "20.05139"}, {"country": "AL", "name": "Stravaj", "lat": "41.00528", "lng": "20.42306"}, {"country": "AL", "name": "Steblev\u00eb", "lat": "41.33722", "lng": "20.47"}, {"country": "AL", "name": "Sllov\u00eb", "lat": "41.80111", "lng": "20.40833"}, {"country": "AL", "name": "Skore", "lat": "40.10722", "lng": "20.36639"}, {"country": "AL", "name": "Sk\u00ebnderbegas", "lat": "40.77611", "lng": "20.24056"}, {"country": "AL", "name": "Shushic\u00eb", "lat": "41.0975", "lng": "20.14833"}, {"country": "AL", "name": "Shupenz\u00eb", "lat": "41.53", "lng": "20.42361"}, {"country": "AL", "name": "Shtiq\u00ebn", "lat": "42.04056", "lng": "20.43417"}, {"country": "AL", "name": "Shishtavec", "lat": "41.98", "lng": "20.60583"}, {"country": "AL", "name": "Shirgjan", "lat": "41.05194", "lng": "20.05333"}, {"country": "AL", "name": "Sh\u00ebngjin", "lat": "41.92611", "lng": "20.18833"}, {"country": "AL", "name": "Sh\u00ebnm\u00ebri", "lat": "42.10417", "lng": "20.23833"}, {"country": "AL", "name": "Selisht\u00eb", "lat": "41.6275", "lng": "20.27917"}, {"country": "AL", "name": "Saraqinisht\u00eb", "lat": "40.10528", "lng": "20.22944"}, {"country": "AL", "name": "Synej", "lat": "41.18", "lng": "19.5425"}, {"country": "AL", "name": "Sukth", "lat": "41.38056", "lng": "19.53778"}, {"country": "AL", "name": "Strum", "lat": "40.75111", "lng": "19.7375"}, {"country": "AL", "name": "Sinj\u00eb", "lat": "40.64806", "lng": "19.86806"}, {"country": "AL", "name": "Sinaballaj", "lat": "41.06889", "lng": "19.69944"}, {"country": "AL", "name": "Shkod\u00ebr", "lat": "42.06828", "lng": "19.51258"}, {"country": "AL", "name": "Shijak", "lat": "41.34556", "lng": "19.56722"}, {"country": "AL", "name": "Shez\u00eb", "lat": "41.02417", "lng": "19.81611"}, {"country": "AL", "name": "Sh\u00ebnkoll", "lat": "41.69083", "lng": "19.65333"}, {"country": "AL", "name": "Sh\u00ebngjin", "lat": "41.81361", "lng": "19.59389"}, {"country": "AL", "name": "Sh\u00ebngjergj", "lat": "41.18333", "lng": "19.53333"}, {"country": "AL", "name": "Shal\u00ebs", "lat": "40.99861", "lng": "19.94778"}, {"country": "AL", "name": "Sevaster", "lat": "40.39639", "lng": "19.72972"}, {"country": "AL", "name": "Selit\u00eb", "lat": "41.63528", "lng": "19.755"}, {"country": "AL", "name": "Selenic\u00eb", "lat": "40.53056", "lng": "19.63583"}, {"country": "AL", "name": "Selit\u00eb", "lat": "40.5475", "lng": "19.84806"}, {"country": "AM", "name": "Surenavan", "lat": "39.79449", "lng": "44.77508"}, {"country": "AM", "name": "Sisavan", "lat": "39.90802", "lng": "44.66721"}, {"country": "AM", "name": "Shinuhayr", "lat": "39.4367", "lng": "46.31787"}, {"country": "AM", "name": "Shahumyan", "lat": "39.94171", "lng": "44.57233"}, {"country": "AM", "name": "Shatin", "lat": "39.83612", "lng": "45.30292"}, {"country": "AM", "name": "Shaghat", "lat": "39.55829", "lng": "45.91669"}, {"country": "AM", "name": "Step\u2019anavan", "lat": "41.00995", "lng": "44.38531"}, {"country": "AM", "name": "Spitak", "lat": "40.83221", "lng": "44.26731"}, {"country": "AM", "name": "Spandaryan", "lat": "40.66105", "lng": "44.01551"}, {"country": "AM", "name": "Solak", "lat": "40.46252", "lng": "44.70709"}, {"country": "AM", "name": "Sis", "lat": "40.05829", "lng": "44.38892"}, {"country": "AM", "name": "Shnogh", "lat": "41.14693", "lng": "44.84043"}, {"country": "AM", "name": "Shirak", "lat": "40.84042", "lng": "43.91582"}, {"country": "AM", "name": "Shenavan", "lat": "40.48328", "lng": "44.38348"}, {"country": "AM", "name": "Shenavan", "lat": "40.05548", "lng": "43.93048"}, {"country": "AM", "name": "Sevan", "lat": "40.5473", "lng": "44.94171"}, {"country": "AM", "name": "Sarukhan", "lat": "40.29169", "lng": "45.13068"}, {"country": "AM", "name": "Sarigyugh", "lat": "41.03531", "lng": "45.14486"}, {"country": "AM", "name": "Saratak", "lat": "40.6709", "lng": "43.87231"}, {"country": "AM", "name": "Saramej", "lat": "40.77487", "lng": "44.2222"}, {"country": "AM", "name": "Sarahart\u2019", "lat": "40.87043", "lng": "44.21407"}, {"country": "AM", "name": "Sardarapat", "lat": "40.13206", "lng": "44.00969"}, {"country": "AM", "name": "Shahumyan", "lat": "40.77482", "lng": "44.54596"}, {"country": "AM", "name": "Shirakamut", "lat": "40.86056", "lng": "44.15278"}, {"country": "AM", "name": "Sasunik", "lat": "40.25012", "lng": "44.34448"}, {"country": "AM", "name": "Sayat\u2019-Nova", "lat": "40.07507", "lng": "44.40008"}, {"country": "AO", "name": "Saurimo", "lat": "-9.66078", "lng": "20.39155"}, {"country": "AO", "name": "Soio", "lat": "-6.1349", "lng": "12.36894"}, {"country": "AO", "name": "Sumbe", "lat": "-11.20605", "lng": "13.84371"}, {"country": "AR", "name": "Suipacha", "lat": "-34.7702", "lng": "-59.68783"}, {"country": "AR", "name": "Sauce de Luna", "lat": "-31.23794", "lng": "-59.21872"}, {"country": "AR", "name": "Sauce", "lat": "-30.08671", "lng": "-58.78777"}, {"country": "AR", "name": "San Vicente", "lat": "-35.025", "lng": "-58.42276"}, {"country": "AR", "name": "San Vicente", "lat": "-26.61667", "lng": "-54.13333"}, {"country": "AR", "name": "Santo Tom\u00e9", "lat": "-28.54939", "lng": "-56.04077"}, {"country": "AR", "name": "Santo Pip\u00f3", "lat": "-27.14132", "lng": "-55.40867"}, {"country": "AR", "name": "Santa Rosa", "lat": "-28.26318", "lng": "-58.11891"}, {"country": "AR", "name": "Santa Mar\u00eda", "lat": "-27.90357", "lng": "-55.38541"}, {"country": "AR", "name": "Santa Luc\u00eda", "lat": "-28.98746", "lng": "-59.10287"}, {"country": "AR", "name": "Santa Elena", "lat": "-30.94768", "lng": "-59.78696"}, {"country": "AR", "name": "Santa Anita", "lat": "-32.17476", "lng": "-58.78622"}, {"country": "AR", "name": "Santa Ana", "lat": "-30.90004", "lng": "-57.93162"}, {"country": "AR", "name": "Santa Ana", "lat": "-27.3674", "lng": "-55.58091"}, {"country": "AR", "name": "San Salvador", "lat": "-31.62487", "lng": "-58.50524"}, {"country": "AR", "name": "San Roque", "lat": "-28.57457", "lng": "-58.70817"}, {"country": "AR", "name": "San Pedro", "lat": "-33.67918", "lng": "-59.66633"}, {"country": "AR", "name": "San Pedro", "lat": "-26.62207", "lng": "-54.10842"}, {"country": "AR", "name": "San Miguel del Monte", "lat": "-35.43962", "lng": "-58.80675"}, {"country": "AR", "name": "San Miguel", "lat": "-27.99585", "lng": "-57.58964"}, {"country": "AR", "name": "San Luis del Palmar", "lat": "-27.5079", "lng": "-58.55454"}, {"country": "AR", "name": "San Lorenzo", "lat": "-28.13306", "lng": "-58.76733"}, {"country": "AR", "name": "San Justo", "lat": "-34.6766", "lng": "-58.56058"}, {"country": "AR", "name": "San Justo", "lat": "-32.44654", "lng": "-58.43569"}, {"country": "AR", "name": "San Jos\u00e9 de Feliciano", "lat": "-30.38452", "lng": "-58.75167"}, {"country": "AR", "name": "San Jos\u00e9", "lat": "-27.76979", "lng": "-55.7826"}, {"country": "AR", "name": "San Javier", "lat": "-30.57781", "lng": "-59.9317"}, {"country": "AR", "name": "San Javier", "lat": "-27.87427", "lng": "-55.13509"}, {"country": "AR", "name": "San Isidro", "lat": "-34.4721", "lng": "-58.52708"}, {"country": "AR", "name": "San Ignacio", "lat": "-27.25586", "lng": "-55.5339"}, {"country": "AR", "name": "San Gustavo", "lat": "-30.68961", "lng": "-59.3984"}, {"country": "AR", "name": "San Francisco de Laish\u00ed", "lat": "-26.24262", "lng": "-58.63039"}, {"country": "AR", "name": "San Cosme", "lat": "-27.37123", "lng": "-58.51214"}, {"country": "AR", "name": "San Clemente del Tuy\u00fa", "lat": "-36.35694", "lng": "-56.72351"}, {"country": "AR", "name": "San Cayetano", "lat": "-38.34653", "lng": "-59.60954"}, {"country": "AR", "name": "San Carlos", "lat": "-27.74586", "lng": "-55.89731"}, {"country": "AR", "name": "San Antonio de Areco", "lat": "-34.2503", "lng": "-59.47163"}, {"country": "AR", "name": "San Andr\u00e9s de Giles", "lat": "-34.44721", "lng": "-59.44451"}, {"country": "AR", "name": "Saladillo", "lat": "-35.63708", "lng": "-59.77788"}, {"country": "AR", "name": "Saladas", "lat": "-28.25384", "lng": "-58.62591"}, {"country": "AR", "name": "Susques", "lat": "-23.39864", "lng": "-66.36701"}, {"country": "AR", "name": "Suncho Corral", "lat": "-27.93357", "lng": "-63.42938"}, {"country": "AR", "name": "Sunchales", "lat": "-30.94404", "lng": "-61.56148"}, {"country": "AR", "name": "Sumampa", "lat": "-29.3847", "lng": "-63.46907"}, {"country": "AR", "name": "Simoca", "lat": "-27.26272", "lng": "-65.35647"}, {"country": "AR", "name": "Sierra Grande", "lat": "-41.60603", "lng": "-65.35574"}, {"country": "AR", "name": "Sierra Colorada", "lat": "-40.58487", "lng": "-67.75674"}, {"country": "AR", "name": "Serrezuela", "lat": "-30.63761", "lng": "-65.38692"}, {"country": "AR", "name": "Serrano", "lat": "-34.46971", "lng": "-63.53842"}, {"country": "AR", "name": "Senillosa", "lat": "-39.01412", "lng": "-68.43281"}, {"country": "AR", "name": "Selva", "lat": "-29.76776", "lng": "-62.0477"}, {"country": "AR", "name": "Segu\u00ed", "lat": "-31.95642", "lng": "-60.12488"}, {"country": "AR", "name": "Sebasti\u00e1n Elcano", "lat": "-30.16105", "lng": "-63.5936"}, {"country": "AR", "name": "Saujil", "lat": "-28.17442", "lng": "-66.21177"}, {"country": "AR", "name": "Saturnino M. Laspiur", "lat": "-31.70287", "lng": "-62.48202"}, {"country": "AR", "name": "Sastre", "lat": "-31.76762", "lng": "-61.82887"}, {"country": "AR", "name": "Sarmiento", "lat": "-45.58815", "lng": "-69.06996"}, {"country": "AR", "name": "Santo Tom\u00e9", "lat": "-31.66274", "lng": "-60.7653"}, {"country": "AR", "name": "Santiago Temple", "lat": "-31.38731", "lng": "-63.41821"}, {"country": "AR", "name": "Santiago del Estero", "lat": "-27.79511", "lng": "-64.26149"}, {"country": "AR", "name": "Santa Victoria", "lat": "-22.25", "lng": "-64.96667"}, {"country": "AR", "name": "Santa Sylvina", "lat": "-27.83261", "lng": "-61.13747"}, {"country": "AR", "name": "Santa Rosa de Tastil", "lat": "-24.45166", "lng": "-65.97452"}, {"country": "AR", "name": "Santa Rosa de R\u00edo Primero", "lat": "-31.15231", "lng": "-63.40191"}, {"country": "AR", "name": "Santa Rosa del Conlara", "lat": "-32.34286", "lng": "-65.20323"}, {"country": "AR", "name": "Santa Rosa de Calamuchita", "lat": "-32.06905", "lng": "-64.53631"}, {"country": "AR", "name": "Santa Rosa", "lat": "-36.61667", "lng": "-64.28333"}, {"country": "AR", "name": "Santa Rosa", "lat": "-33.25407", "lng": "-68.14937"}, {"country": "AR", "name": "Santa Mar\u00eda", "lat": "-26.69547", "lng": "-66.04732"}, {"country": "AR", "name": "Santa Magdalena", "lat": "-34.51776", "lng": "-63.94409"}, {"country": "AR", "name": "Santa Luc\u00eda", "lat": "-31.53987", "lng": "-68.49503"}, {"country": "AR", "name": "Santa Isabel", "lat": "-36.22724", "lng": "-66.9424"}, {"country": "AR", "name": "Santa Fe de la Vera Cruz", "lat": "-31.63333", "lng": "-60.7"}, {"country": "AR", "name": "Santa Eufemia", "lat": "-33.17659", "lng": "-63.28281"}, {"country": "AR", "name": "Santa Clara", "lat": "-24.30921", "lng": "-64.66253"}, {"country": "AR", "name": "Santa Catalina", "lat": "-21.94467", "lng": "-66.05219"}, {"country": "AR", "name": "San Salvador de Jujuy", "lat": "-24.19457", "lng": "-65.29712"}, {"country": "AR", "name": "San Ram\u00f3n de la Nueva Or\u00e1n", "lat": "-23.13705", "lng": "-64.32426"}, {"country": "AR", "name": "San Rafael", "lat": "-34.61772", "lng": "-68.33007"}, {"country": "AR", "name": "San Pedro", "lat": "-27.95386", "lng": "-65.16651"}, {"country": "AR", "name": "San Pedro", "lat": "-24.23127", "lng": "-64.86614"}, {"country": "AR", "name": "Sa\u00f1ogasta", "lat": "-29.0952", "lng": "-67.11586"}, {"country": "AR", "name": "San Nicol\u00e1s de los Arroyos", "lat": "-33.33425", "lng": "-60.2108"}, {"country": "AR", "name": "San Miguel de Tucum\u00e1n", "lat": "-26.82414", "lng": "-65.2226"}, {"country": "AR", "name": "San Mart\u00edn de los Andes", "lat": "-40.15789", "lng": "-71.35337"}, {"country": "AR", "name": "San Mart\u00edn", "lat": "-33.08103", "lng": "-68.46814"}, {"country": "AR", "name": "San Mart\u00edn", "lat": "-31.42957", "lng": "-68.50065"}, {"country": "AR", "name": "San Luis", "lat": "-33.29501", "lng": "-66.33563"}, {"country": "AR", "name": "San Lorenzo", "lat": "-32.74341", "lng": "-60.73613"}, {"country": "AR", "name": "San Justo", "lat": "-30.78913", "lng": "-60.59189"}, {"country": "AR", "name": "San Juan", "lat": "-31.5375", "lng": "-68.53639"}, {"country": "AR", "name": "San Jos\u00e9 de la Dormida", "lat": "-30.3544", "lng": "-63.94871"}, {"country": "AR", "name": "San Jos\u00e9 de J\u00e1chal", "lat": "-30.24057", "lng": "-68.74693"}, {"country": "AR", "name": "San Jos\u00e9", "lat": "-28.38333", "lng": "-65.7"}, {"country": "AR", "name": "San Jorge", "lat": "-31.89618", "lng": "-61.85984"}, {"country": "AR", "name": "San Isidro", "lat": "-28.46265", "lng": "-65.72585"}, {"country": "AR", "name": "San Francisco del Monte de Oro", "lat": "-32.59825", "lng": "-66.12539"}, {"country": "AR", "name": "San Francisco del Cha\u00f1ar", "lat": "-29.78991", "lng": "-63.93861"}, {"country": "AR", "name": "San Francisco", "lat": "-31.42797", "lng": "-62.08266"}, {"country": "AR", "name": "San Fernando del Valle de Catamarca", "lat": "-28.46957", "lng": "-65.78524"}, {"country": "AR", "name": "San Crist\u00f3bal", "lat": "-30.31053", "lng": "-61.23724"}, {"country": "AR", "name": "San Carlos de Bol\u00edvar", "lat": "-36.25", "lng": "-61.1"}, {"country": "AR", "name": "San Carlos Centro", "lat": "-31.72864", "lng": "-61.09192"}, {"country": "AR", "name": "San Carlos", "lat": "-31.17761", "lng": "-65.10245"}, {"country": "AR", "name": "San Carlos", "lat": "-25.88618", "lng": "-65.92941"}, {"country": "AR", "name": "San Blas de los Sauces", "lat": "-28.41051", "lng": "-67.09341"}, {"country": "AR", "name": "San Bernardo", "lat": "-27.28782", "lng": "-60.71252"}, {"country": "AR", "name": "San Benito", "lat": "-31.78371", "lng": "-60.44156"}, {"country": "AR", "name": "San Basilio", "lat": "-33.49763", "lng": "-64.31495"}, {"country": "AR", "name": "San Antonio Oeste", "lat": "-40.73193", "lng": "-64.94769"}, {"country": "AR", "name": "San Antonio de los Cobres", "lat": "-24.21804", "lng": "-66.31877"}, {"country": "AR", "name": "San Antonio de Lit\u00edn", "lat": "-32.21377", "lng": "-62.63237"}, {"country": "AR", "name": "San Antonio", "lat": "-28.00927", "lng": "-65.71218"}, {"country": "AR", "name": "San Antonio", "lat": "-24.36753", "lng": "-65.33471"}, {"country": "AR", "name": "San Agust\u00edn de Valle F\u00e9rtil", "lat": "-30.63353", "lng": "-67.46821"}, {"country": "AR", "name": "San Agust\u00edn", "lat": "-31.97681", "lng": "-64.374"}, {"country": "AR", "name": "Samuh\u00fa", "lat": "-27.52116", "lng": "-60.39167"}, {"country": "AR", "name": "Sampacho", "lat": "-33.3839", "lng": "-64.72211"}, {"country": "AR", "name": "Salto", "lat": "-34.29292", "lng": "-60.25455"}, {"country": "AR", "name": "Salta", "lat": "-24.7859", "lng": "-65.41166"}, {"country": "AR", "name": "Salsipuedes", "lat": "-31.13725", "lng": "-64.29589"}, {"country": "AR", "name": "Salsacate", "lat": "-31.31649", "lng": "-65.08529"}, {"country": "AR", "name": "Salliquel\u00f3", "lat": "-36.75216", "lng": "-62.96053"}, {"country": "AR", "name": "Sald\u00e1n", "lat": "-31.30262", "lng": "-64.307"}, {"country": "AR", "name": "Sacanta", "lat": "-31.663", "lng": "-63.04505"}, {"country": "AR", "name": "San Juli\u00e1n", "lat": "-49.30554", "lng": "-67.72743"}, {"country": "AR", "name": "San Isidro de Lules", "lat": "-26.9277", "lng": "-65.33869"}, {"country": "AR", "name": "San Carlos de Bariloche", "lat": "-41.14557", "lng": "-71.30822"}, {"country": "AR", "name": "Santa Catalina - Dique Lujan", "lat": "-34.38375", "lng": "-58.70673"}, {"country": "AT", "name": "Sulzberg", "lat": "47.52178", "lng": "9.91353"}, {"country": "AT", "name": "Sulz", "lat": "47.28721", "lng": "9.65183"}, {"country": "AT", "name": "Sulztal an der Weinstra\u00dfe", "lat": "46.68333", "lng": "15.55"}, {"country": "AT", "name": "Stummerberg", "lat": "47.28333", "lng": "11.91667"}, {"country": "AT", "name": "Stumm", "lat": "47.29052", "lng": "11.88755"}, {"country": "AT", "name": "Stuhlfelden", "lat": "47.28761", "lng": "12.52755"}, {"country": "AT", "name": "Studenzen", "lat": "47.00583", "lng": "15.75417"}, {"country": "AT", "name": "Stubenberg", "lat": "47.2446", "lng": "15.80027"}, {"country": "AT", "name": "Stronsdorf", "lat": "48.65157", "lng": "16.2989"}, {"country": "AT", "name": "Strobl", "lat": "47.71667", "lng": "13.48333"}, {"country": "AT", "name": "Strengen", "lat": "47.12589", "lng": "10.46199"}, {"country": "AT", "name": "Strengberg", "lat": "48.14685", "lng": "14.65147"}, {"country": "AT", "name": "Strem", "lat": "47.04498", "lng": "16.41426"}, {"country": "AT", "name": "Stratzing", "lat": "48.45", "lng": "15.6"}, {"country": "AT", "name": "Strasswalchen", "lat": "47.97947", "lng": "13.25535"}, {"country": "AT", "name": "Stra\u00df in Steiermark", "lat": "46.72722", "lng": "15.62444"}, {"country": "AT", "name": "Strasshof an der Nordbahn", "lat": "48.31667", "lng": "16.66667"}, {"country": "AT", "name": "Strassen", "lat": "46.75389", "lng": "12.48417"}, {"country": "AT", "name": "Stra\u00dfburg", "lat": "46.89444", "lng": "14.32861"}, {"country": "AT", "name": "Strass im Zillertal", "lat": "47.39556", "lng": "11.81966"}, {"country": "AT", "name": "Strallegg", "lat": "47.41165", "lng": "15.72534"}, {"country": "AT", "name": "Straden", "lat": "46.80917", "lng": "15.86806"}, {"country": "AT", "name": "Stotzing", "lat": "47.90688", "lng": "16.5458"}, {"country": "AT", "name": "St\u00f6ssing", "lat": "48.12267", "lng": "15.81379"}, {"country": "AT", "name": "Stoob", "lat": "47.52845", "lng": "16.4776"}, {"country": "AT", "name": "Stockerau", "lat": "48.38333", "lng": "16.21667"}, {"country": "AT", "name": "Stockenboi", "lat": "46.72611", "lng": "13.52306"}, {"country": "AT", "name": "Stiwoll", "lat": "47.1", "lng": "15.21667"}, {"country": "AT", "name": "Steinbrunn", "lat": "47.83333", "lng": "16.41667"}, {"country": "AT", "name": "Stinatz", "lat": "47.20266", "lng": "16.13312"}, {"country": "AT", "name": "Steyregg", "lat": "48.28513", "lng": "14.36995"}, {"country": "AT", "name": "Steyr", "lat": "48.04274", "lng": "14.42127"}, {"country": "AT", "name": "Steuerberg", "lat": "46.78804", "lng": "14.1129"}, {"country": "AT", "name": "Stetten", "lat": "48.36667", "lng": "16.38333"}, {"country": "AT", "name": "Stetteldorf am Wagram", "lat": "48.40815", "lng": "16.01862"}, {"country": "AT", "name": "Stenzengreith", "lat": "47.2", "lng": "15.51667"}, {"country": "AT", "name": "Steinhaus", "lat": "48.11614", "lng": "14.0189"}, {"country": "AT", "name": "Steinfeld", "lat": "46.75812", "lng": "13.24934"}, {"country": "AT", "name": "Steinerkirchen an der Traun", "lat": "48.07911", "lng": "13.95796"}, {"country": "AT", "name": "Steindorf am Ossiacher See", "lat": "46.69833", "lng": "14.00917"}, {"country": "AT", "name": "Steinbach am Attersee", "lat": "47.83087", "lng": "13.54613"}, {"country": "AT", "name": "Steinakirchen am Forst", "lat": "48.06965", "lng": "15.04801"}, {"country": "AT", "name": "Steinach am Brenner", "lat": "47.08333", "lng": "11.46667"}, {"country": "AT", "name": "Stein", "lat": "46.99778", "lng": "16.08694"}, {"country": "AT", "name": "Stegersbach", "lat": "47.16667", "lng": "16.16667"}, {"country": "AT", "name": "Steeg", "lat": "47.24393", "lng": "10.29436"}, {"country": "AT", "name": "Statzendorf", "lat": "48.30752", "lng": "15.64127"}, {"country": "AT", "name": "Stattegg", "lat": "47.13333", "lng": "15.41667"}, {"country": "AT", "name": "Stanz bei Landeck", "lat": "47.14758", "lng": "10.5534"}, {"country": "AT", "name": "Stanzach", "lat": "47.38333", "lng": "10.56667"}, {"country": "AT", "name": "Stans", "lat": "47.36667", "lng": "11.71667"}, {"country": "AT", "name": "Stams", "lat": "47.27603", "lng": "10.98315"}, {"country": "AT", "name": "Stambach", "lat": "47.33333", "lng": "15.93333"}, {"country": "AT", "name": "Stallhofen", "lat": "47.05", "lng": "15.21667"}, {"country": "AT", "name": "Stallhof", "lat": "46.88333", "lng": "15.28333"}, {"country": "AT", "name": "Stallehr", "lat": "47.13306", "lng": "9.85"}, {"country": "AT", "name": "Stall", "lat": "46.89056", "lng": "13.03694"}, {"country": "AT", "name": "Stainz bei Straden", "lat": "46.82444", "lng": "15.89222"}, {"country": "AT", "name": "Stainz", "lat": "46.89444", "lng": "15.26722"}, {"country": "AT", "name": "Stainach", "lat": "47.53343", "lng": "14.10872"}, {"country": "AT", "name": "Stadtschlaining", "lat": "47.31667", "lng": "16.28333"}, {"country": "AT", "name": "Stadl-Paura", "lat": "48.08333", "lng": "13.86667"}, {"country": "AT", "name": "Stadl an der Mur", "lat": "47.08333", "lng": "13.96667"}, {"country": "AT", "name": "Staatz", "lat": "48.67617", "lng": "16.48726"}, {"country": "AT", "name": "Spitz", "lat": "48.3656", "lng": "15.41416"}, {"country": "AT", "name": "Spittal an der Drau", "lat": "46.8", "lng": "13.5"}, {"country": "AT", "name": "Spital am Semmering", "lat": "47.61345", "lng": "15.75096"}, {"country": "AT", "name": "Spillern", "lat": "48.38333", "lng": "16.25"}, {"country": "AT", "name": "Spielfeld", "lat": "46.70556", "lng": "15.63722"}, {"country": "AT", "name": "Spielberg bei Knittelfeld", "lat": "47.21667", "lng": "14.78333"}, {"country": "AT", "name": "Spannberg", "lat": "48.46393", "lng": "16.73647"}, {"country": "AT", "name": "Sonntagberg", "lat": "47.99561", "lng": "14.76065"}, {"country": "AT", "name": "Sommerein", "lat": "47.98333", "lng": "16.65"}, {"country": "AT", "name": "Sollenau", "lat": "47.88333", "lng": "16.25"}, {"country": "AT", "name": "S\u00f6ll", "lat": "47.50378", "lng": "12.19221"}, {"country": "AT", "name": "S\u00f6lden", "lat": "46.96667", "lng": "11"}, {"country": "AT", "name": "S\u00f6dingberg", "lat": "47.10703", "lng": "15.17169"}, {"country": "AT", "name": "S\u00f6chau", "lat": "47.03333", "lng": "16.01667"}, {"country": "AT", "name": "Soboth", "lat": "46.68139", "lng": "15.07833"}, {"country": "AT", "name": "Sitzendorf an der Schmida", "lat": "48.59841", "lng": "15.94254"}, {"country": "AT", "name": "Sittersdorf", "lat": "46.54444", "lng": "14.60583"}, {"country": "AT", "name": "Sistrans", "lat": "47.23333", "lng": "11.45"}, {"country": "AT", "name": "Sinabelkirchen", "lat": "47.102", "lng": "15.82795"}, {"country": "AT", "name": "Silz", "lat": "47.26667", "lng": "10.93333"}, {"country": "AT", "name": "Sillian", "lat": "46.75278", "lng": "12.42111"}, {"country": "AT", "name": "Silbertal", "lat": "47.09368", "lng": "9.98314"}, {"country": "AT", "name": "Sigmundsherberg", "lat": "48.68333", "lng": "15.75"}, {"country": "AT", "name": "Sierning", "lat": "48.04343", "lng": "14.30935"}, {"country": "AT", "name": "Sierndorf", "lat": "48.43024", "lng": "16.16658"}, {"country": "AT", "name": "Sieghartskirchen", "lat": "48.25531", "lng": "16.01223"}, {"country": "AT", "name": "Sieggraben", "lat": "47.65128", "lng": "16.37993"}, {"country": "AT", "name": "Siegersdorf bei Herberstein", "lat": "47.2", "lng": "15.78333"}, {"country": "AT", "name": "Sibratsgf\u00e4ll", "lat": "47.42667", "lng": "10.03806"}, {"country": "AT", "name": "Serfaus", "lat": "47.04018", "lng": "10.60339"}, {"country": "AT", "name": "Senftenberg", "lat": "48.43333", "lng": "15.55"}, {"country": "AT", "name": "Semriach", "lat": "47.21667", "lng": "15.4"}, {"country": "AT", "name": "Semmering", "lat": "47.63347", "lng": "15.82993"}, {"country": "AT", "name": "Selzthal", "lat": "47.54988", "lng": "14.31201"}, {"country": "AT", "name": "Seitenstetten Markt", "lat": "48.03333", "lng": "14.65"}, {"country": "AT", "name": "Seiersberg", "lat": "47", "lng": "15.4"}, {"country": "AT", "name": "Seibersdorf", "lat": "47.95858", "lng": "16.51842"}, {"country": "AT", "name": "Seggauberg", "lat": "46.76667", "lng": "15.51667"}, {"country": "AT", "name": "Seewalchen", "lat": "47.95246", "lng": "13.58382"}, {"country": "AT", "name": "Seekirchen am Wallersee", "lat": "47.9", "lng": "13.13333"}, {"country": "AT", "name": "Seeham", "lat": "47.96746", "lng": "13.07699"}, {"country": "AT", "name": "Seefeld in Tirol", "lat": "47.33016", "lng": "11.18786"}, {"country": "AT", "name": "Seeboden", "lat": "46.81909", "lng": "13.5143"}, {"country": "AT", "name": "Seebenstein", "lat": "47.69936", "lng": "16.14484"}, {"country": "AT", "name": "See", "lat": "47.08333", "lng": "10.46667"}, {"country": "AT", "name": "Seckau", "lat": "47.26667", "lng": "14.78333"}, {"country": "AT", "name": "Sebersdorf", "lat": "47.1865", "lng": "15.9936"}, {"country": "AT", "name": "Schwoich", "lat": "47.546", "lng": "12.14049"}, {"country": "AT", "name": "Schwertberg", "lat": "48.2734", "lng": "14.58474"}, {"country": "AT", "name": "Schwendt", "lat": "47.63182", "lng": "12.39266"}, {"country": "AT", "name": "Schwendau", "lat": "47.19753", "lng": "11.85897"}, {"country": "AT", "name": "Schweiggers", "lat": "48.66667", "lng": "15.06667"}, {"country": "AT", "name": "Schwechat", "lat": "48.13333", "lng": "16.46667"}, {"country": "AT", "name": "Schwaz", "lat": "47.35169", "lng": "11.71014"}, {"country": "AT", "name": "Schwarzenbach an der Pielach", "lat": "47.93333", "lng": "15.38333"}, {"country": "AT", "name": "Schwarzenbach", "lat": "47.63547", "lng": "16.35109"}, {"country": "AT", "name": "Schwarzenau", "lat": "48.74436", "lng": "15.25838"}, {"country": "AT", "name": "Schwarzau im Schwarzautal", "lat": "46.87886", "lng": "15.66421"}, {"country": "AT", "name": "Schwarzau im Gebirge", "lat": "47.81223", "lng": "15.70581"}, {"country": "AT", "name": "Schwarzach im Pongau", "lat": "47.32048", "lng": "13.15171"}, {"country": "AT", "name": "Schwarzach", "lat": "47.44904", "lng": "9.76213"}, {"country": "AT", "name": "Schwanenstadt", "lat": "48.05537", "lng": "13.77505"}, {"country": "AT", "name": "Schwanberg", "lat": "46.75833", "lng": "15.20833"}, {"country": "AT", "name": "Schwadorf", "lat": "48.06936", "lng": "16.57957"}, {"country": "AT", "name": "Sch\u00fctzen am Gebirge", "lat": "47.85233", "lng": "16.62334"}, {"country": "AT", "name": "Schruns", "lat": "47.06667", "lng": "9.91667"}, {"country": "AT", "name": "Schrems bei Frohnleiten", "lat": "47.28109", "lng": "15.35932"}, {"country": "AT", "name": "Schrems", "lat": "48.78333", "lng": "15.06667"}, {"country": "AT", "name": "Schrattenthal", "lat": "48.7", "lng": "15.9"}, {"country": "AT", "name": "Schrattenberg", "lat": "48.72359", "lng": "16.72201"}, {"country": "AT", "name": "Schrattenbach", "lat": "47.77902", "lng": "15.9906"}, {"country": "AT", "name": "Schottwien", "lat": "47.65683", "lng": "15.8725"}, {"country": "AT", "name": "Schoppernau", "lat": "47.31205", "lng": "10.01646"}, {"country": "AT", "name": "Sch\u00f6nwies", "lat": "47.19665", "lng": "10.65742"}, {"country": "AT", "name": "Sch\u00f6nberg im Stubaital", "lat": "47.18333", "lng": "11.41667"}, {"country": "AT", "name": "Sch\u00f6nbach", "lat": "48.45", "lng": "15.03333"}, {"country": "AT", "name": "Sch\u00f6nau an der Triesting", "lat": "47.93452", "lng": "16.25376"}, {"country": "AT", "name": "Sch\u00f6der", "lat": "47.18333", "lng": "14.1"}, {"country": "AT", "name": "Schnifis", "lat": "47.21667", "lng": "9.73306"}, {"country": "AT", "name": "Schnepfau", "lat": "47.35206", "lng": "9.9452"}, {"country": "AT", "name": "Schmirn", "lat": "47.08333", "lng": "11.56667"}, {"country": "AT", "name": "Schl\u00fcsslberg", "lat": "48.21861", "lng": "13.87161"}, {"country": "AT", "name": "Schlitters", "lat": "47.38045", "lng": "11.83888"}, {"country": "AT", "name": "Schlins", "lat": "47.2", "lng": "9.7"}, {"country": "AT", "name": "Schleedorf", "lat": "47.95", "lng": "13.15"}, {"country": "AT", "name": "Schlatt", "lat": "48.07177", "lng": "13.78904"}, {"country": "AT", "name": "Schl\u00e4gl", "lat": "48.63665", "lng": "13.9656"}, {"country": "AT", "name": "Schladming", "lat": "47.39289", "lng": "13.68699"}, {"country": "AT", "name": "Schildorn", "lat": "48.14564", "lng": "13.46314"}, {"country": "AT", "name": "Schiefling am See", "lat": "46.60444", "lng": "14.0975"}, {"country": "AT", "name": "Schenkenfelden", "lat": "48.50273", "lng": "14.36188"}, {"country": "AT", "name": "Scheifling", "lat": "47.15044", "lng": "14.41278"}, {"country": "AT", "name": "Scheibbs", "lat": "48.00474", "lng": "15.16817"}, {"country": "AT", "name": "Scheffau am Wilden Kaiser", "lat": "47.52943", "lng": "12.25139"}, {"country": "AT", "name": "Scheffau am Tennengebirge", "lat": "47.58831", "lng": "13.2202"}, {"country": "AT", "name": "Schattwald", "lat": "47.51427", "lng": "10.46143"}, {"country": "AT", "name": "Schattendorf", "lat": "47.70973", "lng": "16.50979"}, {"country": "AT", "name": "Scharnstein", "lat": "47.90426", "lng": "13.96135"}, {"country": "AT", "name": "Scharnitz", "lat": "47.38899", "lng": "11.26455"}, {"country": "AT", "name": "Scharndorf", "lat": "48.09399", "lng": "16.79883"}, {"country": "AT", "name": "Sch\u00e4rding", "lat": "48.45294", "lng": "13.43722"}, {"country": "AT", "name": "Schardenberg", "lat": "48.52058", "lng": "13.49791"}, {"country": "AT", "name": "Schandorf", "lat": "47.24183", "lng": "16.42267"}, {"country": "AT", "name": "Sch\u00e4ffern", "lat": "47.47771", "lng": "16.10956"}, {"country": "AT", "name": "Schachendorf", "lat": "47.26667", "lng": "16.43333"}, {"country": "AT", "name": "Sautens", "lat": "47.2", "lng": "10.86667"}, {"country": "AT", "name": "Sattledt", "lat": "48.07372", "lng": "14.05478"}, {"country": "AT", "name": "Satteins", "lat": "47.21667", "lng": "9.66667"}, {"country": "AT", "name": "Sankt Wolfgang im Salzkammergut", "lat": "47.73932", "lng": "13.44666"}, {"country": "AT", "name": "Sankt Veit in Defereggen", "lat": "46.92722", "lng": "12.42972"}, {"country": "AT", "name": "Sankt Veit im Pongau", "lat": "47.33333", "lng": "13.15"}, {"country": "AT", "name": "Sankt Veit an der G\u00f6lsen", "lat": "48.0432", "lng": "15.66942"}, {"country": "AT", "name": "Sankt Veit an der Glan", "lat": "46.76806", "lng": "14.36028"}, {"country": "AT", "name": "Sankt Veit am Vogau", "lat": "46.74048", "lng": "15.64217"}, {"country": "AT", "name": "Sankt Valentin", "lat": "48.16667", "lng": "14.51667"}, {"country": "AT", "name": "Sankt Ulrich bei Steyr", "lat": "48.02116", "lng": "14.43685"}, {"country": "AT", "name": "Sankt Ulrich am Waasen", "lat": "46.93333", "lng": "15.53333"}, {"country": "AT", "name": "Sankt Stefan ob Stainz", "lat": "46.92861", "lng": "15.25889"}, {"country": "AT", "name": "Sankt Stefan ob Leoben", "lat": "47.31672", "lng": "14.97831"}, {"country": "AT", "name": "Sankt Stefan im Rosental", "lat": "46.90389", "lng": "15.71"}, {"country": "AT", "name": "Sankt Ruprecht an der Raab", "lat": "47.15336", "lng": "15.66256"}, {"country": "AT", "name": "Sankt Ruprecht", "lat": "46.6", "lng": "14.31667"}, {"country": "AT", "name": "Sankt Roman", "lat": "48.48183", "lng": "13.61056"}, {"country": "AT", "name": "Sankt Radegund bei Graz", "lat": "47.18172", "lng": "15.49192"}, {"country": "AT", "name": "Sankt P\u00f6lten", "lat": "48.2", "lng": "15.63333"}, {"country": "AT", "name": "Sankt Peter ob Judenburg", "lat": "47.18417", "lng": "14.58639"}, {"country": "AT", "name": "Sankt Peter im Sulmtal", "lat": "46.75", "lng": "15.25"}, {"country": "AT", "name": "Sankt Peter-Freienstein", "lat": "47.38333", "lng": "15.01667"}, {"country": "AT", "name": "Sankt Peter am Ottersbach", "lat": "46.79778", "lng": "15.75917"}, {"country": "AT", "name": "Sankt Peter am Kammersberg", "lat": "47.18706", "lng": "14.18464"}, {"country": "AT", "name": "Sankt Peter", "lat": "46.62978", "lng": "14.34016"}, {"country": "AT", "name": "Sankt Peter am Hart", "lat": "48.25268", "lng": "13.09613"}, {"country": "AT", "name": "Sankt Paul im Levanttal", "lat": "46.70056", "lng": "14.87556"}, {"country": "AT", "name": "Sankt Oswald bei Plankenwarth", "lat": "47.08701", "lng": "15.27703"}, {"country": "AT", "name": "Sankt Nikolai ob Dra\u00dfling", "lat": "46.80889", "lng": "15.65083"}, {"country": "AT", "name": "Sankt Nikolai im S\u00f6lktal", "lat": "47.31667", "lng": "14.05"}, {"country": "AT", "name": "Sankt Nikolai im Sausal", "lat": "46.82111", "lng": "15.45194"}, {"country": "AT", "name": "Sankt Michael in Obersteiermark", "lat": "47.33839", "lng": "15.01784"}, {"country": "AT", "name": "Sankt Michael im Lungau", "lat": "47.1", "lng": "13.63333"}, {"country": "AT", "name": "Sankt Michael im Burgenland", "lat": "47.12852", "lng": "16.27148"}, {"country": "AT", "name": "Sankt Martin im Sulmtal", "lat": "46.75611", "lng": "15.29722"}, {"country": "AT", "name": "Sankt Martin im Innkreis", "lat": "48.29387", "lng": "13.43868"}, {"country": "AT", "name": "Sankt Martin bei Lofer", "lat": "47.56667", "lng": "12.7"}, {"country": "AT", "name": "Sankt Martin an der Raab", "lat": "46.9225", "lng": "16.13611"}, {"country": "AT", "name": "Sankt Martin am Grimming", "lat": "47.48873", "lng": "13.98105"}, {"country": "AT", "name": "Sankt Martin", "lat": "46.61667", "lng": "14.28333"}, {"country": "AT", "name": "Sankt Marienkirchen bei Sch\u00e4rding", "lat": "48.3871", "lng": "13.45078"}, {"country": "AT", "name": "Sankt Margareten im Rosental", "lat": "46.54417", "lng": "14.42444"}, {"country": "AT", "name": "Sankt Margarethen im Lungau", "lat": "47.07927", "lng": "13.69613"}, {"country": "AT", "name": "Sankt Margarethen im Burgenland", "lat": "47.80335", "lng": "16.60875"}, {"country": "AT", "name": "Sankt Margarethen bei Knittelfeld", "lat": "47.21667", "lng": "14.86667"}, {"country": "AT", "name": "Sankt Margarethen an der Sierning", "lat": "48.1591", "lng": "15.49055"}, {"country": "AT", "name": "Sankt Margarethen an der Raab", "lat": "47.05", "lng": "15.75"}, {"country": "AT", "name": "Sankt Marein im M\u00fcrztal", "lat": "47.46667", "lng": "15.36667"}, {"country": "AT", "name": "Sankt Marein bei Neumarkt", "lat": "47.06591", "lng": "14.42908"}, {"country": "AT", "name": "Sankt Marein bei Knittelfeld", "lat": "47.27396", "lng": "14.86085"}, {"country": "AT", "name": "Sankt Marein bei Graz", "lat": "47.01583", "lng": "15.68389"}, {"country": "AT", "name": "Sankt Lorenzen im M\u00fcrztal", "lat": "47.48333", "lng": "15.36667"}, {"country": "AT", "name": "Sankt Lorenzen bei Scheifling", "lat": "47.14556", "lng": "14.40583"}, {"country": "AT", "name": "Sankt Lorenzen bei Knittelfeld", "lat": "47.25078", "lng": "14.89549"}, {"country": "AT", "name": "Sankt Lorenzen am Wechsel", "lat": "47.44153", "lng": "15.95498"}, {"country": "AT", "name": "Sankt Lorenz", "lat": "47.8324", "lng": "13.34839"}, {"country": "AT", "name": "Sankt Leonhard am Hornerwald", "lat": "48.6", "lng": "15.53333"}, {"country": "AT", "name": "Sankt Leonhard am Forst", "lat": "48.14232", "lng": "15.28464"}, {"country": "AT", "name": "Sankt Lambrecht", "lat": "47.06667", "lng": "14.3"}, {"country": "AT", "name": "Sankt Kathrein am Offenegg", "lat": "47.3", "lng": "15.58333"}, {"country": "AT", "name": "Sankt Kathrein am Hauenstein", "lat": "47.48943", "lng": "15.69414"}, {"country": "AT", "name": "Sankt Katharein an der Laming", "lat": "47.47069", "lng": "15.16319"}, {"country": "AT", "name": "Sankt Josef (Weststeiermark)", "lat": "46.90917", "lng": "15.33639"}, {"country": "AT", "name": "Sankt Johann in Tirol", "lat": "47.5233", "lng": "12.4232"}, {"country": "AT", "name": "Sankt Johann in der Haide", "lat": "47.2808", "lng": "16.02579"}, {"country": "AT", "name": "Sankt Johann im Saggautal", "lat": "46.70389", "lng": "15.40278"}, {"country": "AT", "name": "Sankt Johann im Pongau", "lat": "47.35", "lng": "13.2"}, {"country": "AT", "name": "Sankt Johann bei Herberstein", "lat": "47.2", "lng": "15.8"}, {"country": "AT", "name": "Sankt Johann am Tauern", "lat": "47.35", "lng": "14.46667"}, {"country": "AT", "name": "Sankt Jakob im Walde", "lat": "47.46667", "lng": "15.78333"}, {"country": "AT", "name": "Sankt Jakob", "lat": "46.54778", "lng": "14.05722"}, {"country": "AT", "name": "Sankt Ilgen", "lat": "47.55", "lng": "15.16667"}, {"country": "AT", "name": "Sankt Gotthard im M\u00fchlkreis", "lat": "48.3802", "lng": "14.13185"}, {"country": "AT", "name": "Sankt Gilgen", "lat": "47.76667", "lng": "13.36667"}, {"country": "AT", "name": "Sankt Georgen ob Murau", "lat": "47.1", "lng": "14.1"}, {"country": "AT", "name": "Sankt Georgen ob Judenburg", "lat": "47.20744", "lng": "14.49736"}, {"country": "AT", "name": "Sankt Georgen im Attergau", "lat": "47.93595", "lng": "13.48306"}, {"country": "AT", "name": "Sankt Georgen bei Obernberg am Inn", "lat": "48.29193", "lng": "13.3332"}, {"country": "AT", "name": "Sankt Georgen an der Stiefing", "lat": "46.87333", "lng": "15.57972"}, {"country": "AT", "name": "Sankt Georgen an der Leys", "lat": "48.03149", "lng": "15.22722"}, {"country": "AT", "name": "Sankt Georgen am Ybbsfelde", "lat": "48.12892", "lng": "14.95364"}, {"country": "AT", "name": "Sankt Georgen am Fillmannsbach", "lat": "48.1256", "lng": "13.00811"}, {"country": "AT", "name": "Sankt Gallenkirch", "lat": "47.02102", "lng": "9.97335"}, {"country": "AT", "name": "Sankt Gallen", "lat": "47.68631", "lng": "14.61705"}, {"country": "AT", "name": "Sankt Florian am Inn", "lat": "48.44122", "lng": "13.44263"}, {"country": "AT", "name": "Sankt Corona am Wechsel", "lat": "47.58333", "lng": "16"}, {"country": "AT", "name": "Sankt Blasen", "lat": "47.08333", "lng": "14.3"}, {"country": "AT", "name": "Sankt Bartholom\u00e4", "lat": "47.05457", "lng": "15.25889"}, {"country": "AT", "name": "Sankt Anton im Montafon", "lat": "47.11667", "lng": "9.86667"}, {"country": "AT", "name": "Sankt Anton am Arlberg", "lat": "47.1275", "lng": "10.26372"}, {"country": "AT", "name": "Sankt Anna am Aigen", "lat": "46.83111", "lng": "15.97139"}, {"country": "AT", "name": "Sankt Andr\u00e4 im Lungau", "lat": "47.15", "lng": "13.78333"}, {"country": "AT", "name": "Sankt Andr\u00e4 am Zicksee", "lat": "47.7841", "lng": "16.94195"}, {"country": "AT", "name": "Sankt Andr\u00e4", "lat": "46.76829", "lng": "14.81991"}, {"country": "AT", "name": "Sankt Aegidi", "lat": "48.47929", "lng": "13.73737"}, {"country": "AT", "name": "Salzburg", "lat": "47.79941", "lng": "13.04399"}, {"country": "AT", "name": "Sallingberg", "lat": "48.46667", "lng": "15.23333"}, {"country": "AT", "name": "Salla", "lat": "47.1", "lng": "14.96667"}, {"country": "AT", "name": "Sachsenburg", "lat": "46.82917", "lng": "13.355"}, {"country": "AT", "name": "Saalfelden am Steinernen Meer", "lat": "47.42681", "lng": "12.848"}, {"country": "AT", "name": "Saalbach", "lat": "47.39138", "lng": "12.63642"}, {"country": "AT", "name": "Sankt Florian", "lat": "48.20568", "lng": "14.37836"}, {"country": "AT", "name": "St. Ruprecht-Falkendorf", "lat": "47.1011", "lng": "14.01752"}, {"country": "AT", "name": "Schlaiten", "lat": "46.87944", "lng": "12.65417"}, {"country": "AT", "name": "Sankt Jakob in Defereggen", "lat": "46.91972", "lng": "12.33139"}, {"country": "AT", "name": "Sellrain", "lat": "47.21667", "lng": "11.21667"}, {"country": "AT", "name": "Sankt Oswald ob Eibiswald", "lat": "46.70833", "lng": "15.14667"}, {"country": "AT", "name": "St. Georgen am L\u00e4ngsee", "lat": "46.78061", "lng": "14.43033"}, {"country": "AT", "name": "Schr\u00f6cken", "lat": "47.25755", "lng": "10.09197"}, {"country": "AT", "name": "Sankt Georgen am Walde", "lat": "48.35979", "lng": "14.90235"}, {"country": "AT", "name": "Sonnberg im M\u00fchlkreis", "lat": "48.4608", "lng": "14.31167"}, {"country": "AT", "name": "Sonntag", "lat": "47.23857", "lng": "9.89765"}, {"country": "AT", "name": "Sch\u00f6nkirchen-Reyersdorf", "lat": "48.35477", "lng": "16.69115"}, {"country": "AT", "name": "Seitenberg", "lat": "46.74801", "lng": "14.08825"}, {"country": "AT", "name": "Sticklberg", "lat": "47.53036", "lng": "15.77911"}, {"country": "AT", "name": "St. Veiter Vorstadt", "lat": "46.6317", "lng": "14.30579"}, {"country": "AU", "name": "Swan View", "lat": "-31.88333", "lng": "116.05"}, {"country": "AU", "name": "Swanbourne", "lat": "-31.96878", "lng": "115.7673"}, {"country": "AU", "name": "Subiaco", "lat": "-31.9485", "lng": "115.8268"}, {"country": "AU", "name": "Sturt", "lat": "-35.01667", "lng": "138.55"}, {"country": "AU", "name": "Streaky Bay", "lat": "-32.79554", "lng": "134.20928"}, {"country": "AU", "name": "Strathalbyn", "lat": "-35.25979", "lng": "138.89247"}, {"country": "AU", "name": "Stoneville", "lat": "-30.86667", "lng": "121.76667"}, {"country": "AU", "name": "Stirling", "lat": "-35.01518", "lng": "138.73637"}, {"country": "AU", "name": "Spearwood", "lat": "-32.10534", "lng": "115.77797"}, {"country": "AU", "name": "South Perth", "lat": "-31.98333", "lng": "115.86667"}, {"country": "AU", "name": "Solomontown", "lat": "-33.1853", "lng": "138.02364"}, {"country": "AU", "name": "Smithfield", "lat": "-34.68333", "lng": "138.68333"}, {"country": "AU", "name": "Serpentine", "lat": "-32.36051", "lng": "115.97723"}, {"country": "AU", "name": "Seaton", "lat": "-34.9", "lng": "138.51667"}, {"country": "AU", "name": "Seaford", "lat": "-35.1898", "lng": "138.47589"}, {"country": "AU", "name": "Scarborough", "lat": "-31.89578", "lng": "115.76431"}, {"country": "AU", "name": "Salisbury", "lat": "-34.76667", "lng": "138.63333"}, {"country": "AU", "name": "Safety Bay", "lat": "-32.30463", "lng": "115.74213"}, {"country": "AU", "name": "Seacliff", "lat": "-35.03474", "lng": "138.52288"}, {"country": "AU", "name": "Shenton Park", "lat": "-31.95833", "lng": "115.79722"}, {"country": "AU", "name": "Stuart Park", "lat": "-12.4486", "lng": "130.84249"}, {"country": "AU", "name": "Sydney", "lat": "-33.86785", "lng": "151.20732"}, {"country": "AU", "name": "Sydenham", "lat": "-37.7", "lng": "144.76667"}, {"country": "AU", "name": "Swan Hill", "lat": "-35.33781", "lng": "143.5544"}, {"country": "AU", "name": "Surrey Hills", "lat": "-37.81667", "lng": "145.1"}, {"country": "AU", "name": "Surfers Paradise", "lat": "-28.00274", "lng": "153.42999"}, {"country": "AU", "name": "Sunnybank", "lat": "-27.58333", "lng": "153.05"}, {"country": "AU", "name": "Sunbury", "lat": "-37.57742", "lng": "144.72607"}, {"country": "AU", "name": "Strathpine", "lat": "-27.30414", "lng": "152.98977"}, {"country": "AU", "name": "Strathfield", "lat": "-33.88096", "lng": "151.07986"}, {"country": "AU", "name": "Stawell", "lat": "-37.05632", "lng": "142.78088"}, {"country": "AU", "name": "Stanthorpe", "lat": "-28.65425", "lng": "151.93388"}, {"country": "AU", "name": "Springvale South", "lat": "-37.96667", "lng": "145.15"}, {"country": "AU", "name": "Springvale", "lat": "-37.94853", "lng": "145.15274"}, {"country": "AU", "name": "Spring Hill", "lat": "-27.46141", "lng": "153.02311"}, {"country": "AU", "name": "Spotswood", "lat": "-37.82975", "lng": "144.88516"}, {"country": "AU", "name": "Southport", "lat": "-27.96724", "lng": "153.39796"}, {"country": "AU", "name": "South Melbourne", "lat": "-37.83333", "lng": "144.96667"}, {"country": "AU", "name": "South Grafton", "lat": "-29.7076", "lng": "152.92627"}, {"country": "AU", "name": "Sorrento", "lat": "-38.33958", "lng": "144.74126"}, {"country": "AU", "name": "Sorell", "lat": "-42.78161", "lng": "147.56267"}, {"country": "AU", "name": "Somerville", "lat": "-38.21667", "lng": "145.16667"}, {"country": "AU", "name": "Somers", "lat": "-38.4", "lng": "145.16667"}, {"country": "AU", "name": "Smithton", "lat": "-40.84587", "lng": "145.12498"}, {"country": "AU", "name": "Slacks Creek", "lat": "-27.65", "lng": "153.15"}, {"country": "AU", "name": "Singleton", "lat": "-32.56742", "lng": "151.16603"}, {"country": "AU", "name": "Shorncliffe", "lat": "-27.32759", "lng": "153.08161"}, {"country": "AU", "name": "Shepparton", "lat": "-36.38047", "lng": "145.39867"}, {"country": "AU", "name": "Shellharbour Village", "lat": "-34.58333", "lng": "150.86667"}, {"country": "AU", "name": "Sheffield", "lat": "-41.39947", "lng": "146.33897"}, {"country": "AU", "name": "Sharon", "lat": "-24.87593", "lng": "152.26994"}, {"country": "AU", "name": "Selby", "lat": "-37.91667", "lng": "145.38333"}, {"country": "AU", "name": "Sebastopol", "lat": "-37.58532", "lng": "143.83953"}, {"country": "AU", "name": "Seaford", "lat": "-38.1", "lng": "145.13333"}, {"country": "AU", "name": "Scottsdale", "lat": "-41.1578", "lng": "147.51727"}, {"country": "AU", "name": "Scoresby", "lat": "-37.9", "lng": "145.23333"}, {"country": "AU", "name": "Scarness", "lat": "-25.28405", "lng": "152.856"}, {"country": "AU", "name": "Sawtell", "lat": "-30.36459", "lng": "153.10141"}, {"country": "AU", "name": "Sarina", "lat": "-21.4191", "lng": "149.21677"}, {"country": "AU", "name": "Sandgate", "lat": "-27.32198", "lng": "153.06951"}, {"country": "AU", "name": "Sandford", "lat": "-42.93333", "lng": "147.5"}, {"country": "AU", "name": "Sale", "lat": "-38.11095", "lng": "147.06802"}, {"country": "AU", "name": "Saint Kilda", "lat": "-37.8676", "lng": "144.98099"}, {"country": "AU", "name": "St Helens", "lat": "-41.32028", "lng": "148.23889"}, {"country": "AU", "name": "Saint Helena", "lat": "-37.7", "lng": "145.13333"}, {"country": "AU", "name": "Saint Andrews", "lat": "-37.60151", "lng": "145.27235"}, {"country": "AU", "name": "Saint Albans", "lat": "-37.73333", "lng": "144.8"}, {"country": "AU", "name": "Sandy Bay", "lat": "-42.89449", "lng": "147.32439"}, {"country": "AU", "name": "South Brisbane", "lat": "-27.48034", "lng": "153.02049"}, {"country": "AU", "name": "Scarborough", "lat": "-27.20118", "lng": "153.10939"}, {"country": "AU", "name": "Seven Mile Beach", "lat": "-42.85863", "lng": "147.50532"}, {"country": "AU", "name": "Springfield Lakes", "lat": "-27.66757", "lng": "152.92488"}, {"country": "AU", "name": "Stirling", "lat": "-31.88343", "lng": "115.8099"}, {"country": "AU", "name": "Springwood", "lat": "-27.61183", "lng": "153.12899"}, {"country": "AU", "name": "Southbank", "lat": "-37.8228", "lng": "144.96434"}, {"country": "AU", "name": "St Kilda East", "lat": "-37.86594", "lng": "145.00018"}, {"country": "AU", "name": "Shoalwater", "lat": "-32.29088", "lng": "115.71101"}, {"country": "AU", "name": "Silkstone", "lat": "-27.62126", "lng": "152.78768"}, {"country": "AU", "name": "St Albans", "lat": "-37.74496", "lng": "144.80049"}, {"country": "AU", "name": "St Leonards", "lat": "-33.82344", "lng": "151.19836"}, {"country": "AU", "name": "St Kilda West", "lat": "-37.85988", "lng": "144.97108"}, {"country": "AU", "name": "Summer Hill", "lat": "-33.89146", "lng": "151.13825"}, {"country": "AU", "name": "Saint Andrews Beach", "lat": "-38.4141", "lng": "144.82436"}, {"country": "AU", "name": "Seaholme", "lat": "-37.864", "lng": "144.84504"}, {"country": "AU", "name": "South Kingsville", "lat": "-37.83018", "lng": "144.8709"}, {"country": "AU", "name": "Safety Beach", "lat": "-38.31535", "lng": "145.00027"}, {"country": "AU", "name": "Singleton", "lat": "-32.44403", "lng": "115.75725"}, {"country": "AU", "name": "Seville Grove", "lat": "-32.13645", "lng": "115.98905"}, {"country": "AU", "name": "Sinagra", "lat": "-31.74261", "lng": "115.80633"}, {"country": "AU", "name": "Soldiers Hill", "lat": "-37.54962", "lng": "143.85872"}, {"country": "AU", "name": "Stratton", "lat": "-31.86828", "lng": "116.04066"}, {"country": "AU", "name": "Samson", "lat": "-32.06996", "lng": "115.7977"}, {"country": "AU", "name": "Secret Harbour", "lat": "-32.40589", "lng": "115.75852"}, {"country": "AU", "name": "Success", "lat": "-32.14281", "lng": "115.84999"}, {"country": "AU", "name": "Springvale", "lat": "-35.16687", "lng": "147.33058"}, {"country": "AU", "name": "St Clair", "lat": "-33.79728", "lng": "150.7847"}, {"country": "AU", "name": "St James", "lat": "-32.00004", "lng": "115.9098"}, {"country": "AU", "name": "Southern River", "lat": "-32.10658", "lng": "115.95896"}, {"country": "AU", "name": "Skye", "lat": "-38.10505", "lng": "145.2163"}, {"country": "AU", "name": "Stafford", "lat": "-27.41044", "lng": "153.01105"}, {"country": "AU", "name": "Stafford Heights", "lat": "-27.39354", "lng": "153.0105"}, {"country": "AU", "name": "Seventeen Mile Rocks", "lat": "-27.5507", "lng": "152.95896"}, {"country": "AU", "name": "Sunnybank Hills", "lat": "-27.61025", "lng": "153.05388"}, {"country": "AU", "name": "Seven Hills", "lat": "-27.48341", "lng": "153.07474"}, {"country": "AU", "name": "Sadliers Crossing", "lat": "-27.61251", "lng": "152.74577"}, {"country": "AU", "name": "Springfield", "lat": "-27.65365", "lng": "152.91716"}, {"country": "AU", "name": "Samford Valley", "lat": "-27.3727", "lng": "152.86699"}, {"country": "AU", "name": "Sandhurst", "lat": "-38.081", "lng": "145.20767"}, {"country": "AU", "name": "Sunshine North", "lat": "-37.76987", "lng": "144.82787"}, {"country": "AU", "name": "Sunshine West", "lat": "-37.79117", "lng": "144.81637"}, {"country": "AU", "name": "Seddon", "lat": "-37.80607", "lng": "144.8907"}, {"country": "AU", "name": "Scheyville", "lat": "-33.6045", "lng": "150.88314"}, {"country": "AU", "name": "South Coogee", "lat": "-33.93106", "lng": "151.25599"}, {"country": "AU", "name": "South Turramurra", "lat": "-33.74941", "lng": "151.11257"}, {"country": "AU", "name": "South Windsor", "lat": "-33.61808", "lng": "150.80443"}, {"country": "AU", "name": "Stanhope Gardens", "lat": "-33.72206", "lng": "150.92597"}, {"country": "AU", "name": "Strathfield South", "lat": "-33.89252", "lng": "151.08334"}, {"country": "AU", "name": "Seacliff Park", "lat": "-35.02983", "lng": "138.53129"}, {"country": "AU", "name": "South Plympton", "lat": "-34.97682", "lng": "138.55588"}, {"country": "AU", "name": "South Fremantle", "lat": "-32.06907", "lng": "115.75453"}, {"country": "AU", "name": "South Guildford", "lat": "-31.9122", "lng": "115.96825"}, {"country": "AU", "name": "South Lake", "lat": "-32.11125", "lng": "115.83873"}, {"country": "AU", "name": "South Yunderup", "lat": "-32.5851", "lng": "115.78015"}, {"country": "AU", "name": "Summerhill", "lat": "-41.46747", "lng": "147.12796"}, {"country": "AU", "name": "South Tamworth", "lat": "-31.11", "lng": "150.92254"}, {"country": "AU", "name": "South Albury", "lat": "-36.08654", "lng": "146.90905"}, {"country": "AU", "name": "Sunshine Coast", "lat": "-26.65682", "lng": "153.07955"}, {"country": "AX", "name": "Sund", "lat": "60.25", "lng": "20.11667"}, {"country": "AX", "name": "Sottunga", "lat": "60.13023", "lng": "20.66683"}, {"country": "AX", "name": "Saltvik", "lat": "60.28333", "lng": "20.05"}, {"country": "AZ", "name": "Sharur City", "lat": "39.55298", "lng": "44.97993"}, {"country": "AZ", "name": "Shushi", "lat": "39.76006", "lng": "46.74989"}, {"country": "AZ", "name": "Salyan", "lat": "39.59621", "lng": "48.98479"}, {"country": "AZ", "name": "Sedarak", "lat": "39.71427", "lng": "44.88455"}, {"country": "AZ", "name": "Sumbatan-diza", "lat": "38.94804", "lng": "45.82572"}, {"country": "AZ", "name": "Saatl\u0131", "lat": "39.93214", "lng": "48.36892"}, {"country": "AZ", "name": "Severo-Vostotchnyi Bank", "lat": "39.41117", "lng": "49.24792"}, {"country": "AZ", "name": "Sovetabad", "lat": "39.33667", "lng": "49.21414"}, {"country": "AZ", "name": "Sumqay\u0131t", "lat": "40.58972", "lng": "49.66861"}, {"country": "AZ", "name": "Saray", "lat": "40.53299", "lng": "49.71681"}, {"country": "AZ", "name": "Samur", "lat": "41.63671", "lng": "48.43028"}, {"country": "AZ", "name": "Shamkhor", "lat": "40.82975", "lng": "46.0178"}, {"country": "AZ", "name": "Shamakhi", "lat": "40.63141", "lng": "48.64137"}, {"country": "AZ", "name": "Salo\u011flu", "lat": "41.27524", "lng": "45.35293"}, {"country": "AZ", "name": "Sheki", "lat": "41.19194", "lng": "47.17056"}, {"country": "AZ", "name": "Samux", "lat": "40.76485", "lng": "46.40868"}, {"country": "AZ", "name": "Sabun\u00e7u", "lat": "40.4425", "lng": "49.94806"}, {"country": "AZ", "name": "Sabirabad", "lat": "40.00869", "lng": "48.47701"}, {"country": "AZ", "name": "Samuxlu", "lat": "40.50833", "lng": "47.16917"}, {"country": "BA", "name": "Svodna", "lat": "45.0377", "lng": "16.54019"}, {"country": "BA", "name": "Stupari", "lat": "44.31382", "lng": "18.68416"}, {"country": "BA", "name": "Stolac", "lat": "43.084", "lng": "17.95995"}, {"country": "BA", "name": "Stjepan-Polje", "lat": "44.71634", "lng": "18.25783"}, {"country": "BA", "name": "Stijena", "lat": "44.9363", "lng": "16.02224"}, {"country": "BA", "name": "Srebrenik", "lat": "44.70819", "lng": "18.48834"}, {"country": "BA", "name": "Srebrenica", "lat": "44.10748", "lng": "19.29669"}, {"country": "BA", "name": "Srbac", "lat": "45.0973", "lng": "17.52331"}, {"country": "BA", "name": "Solina", "lat": "44.56226", "lng": "18.69322"}, {"country": "BA", "name": "Sokolac", "lat": "43.93817", "lng": "18.80079"}, {"country": "BA", "name": "Sladna", "lat": "44.72897", "lng": "18.42575"}, {"country": "BA", "name": "Sarajevo", "lat": "43.84864", "lng": "18.35644"}, {"country": "BA", "name": "Sapna", "lat": "44.5038", "lng": "18.99818"}, {"country": "BA", "name": "Sanski Most", "lat": "44.7667", "lng": "16.667"}, {"country": "BA", "name": "Sanica", "lat": "44.61354", "lng": "16.64062"}, {"country": "BA", "name": "Stanari", "lat": "44.74475", "lng": "17.82714"}, {"country": "BA", "name": "Svojat", "lat": "44.39548", "lng": "18.73849"}, {"country": "BA", "name": "Starcevica", "lat": "44.75708", "lng": "17.21178"}, {"country": "BA", "name": "Skokovi", "lat": "45.03139", "lng": "15.91444"}, {"country": "BB", "name": "Speightstown", "lat": "13.25072", "lng": "-59.64396"}, {"country": "BD", "name": "Sylhet", "lat": "24.89904", "lng": "91.87198"}, {"country": "BD", "name": "Shibganj", "lat": "25.00146", "lng": "89.32266"}, {"country": "BD", "name": "Shibganj", "lat": "24.68501", "lng": "88.15638"}, {"country": "BD", "name": "S\u0101tkhira", "lat": "22.70817", "lng": "89.07185"}, {"country": "BD", "name": "Sirajganj", "lat": "24.45771", "lng": "89.70802"}, {"country": "BD", "name": "Sandw\u012bp", "lat": "22.51409", "lng": "91.45491"}, {"country": "BD", "name": "Sh\u0101hz\u0101dpur", "lat": "24.17687", "lng": "89.5988"}, {"country": "BD", "name": "Sarankhola", "lat": "22.31006", "lng": "89.79113"}, {"country": "BD", "name": "Son\u0101rgaon", "lat": "23.65", "lng": "90.61667"}, {"country": "BD", "name": "Sarish\u0101b\u0101ri", "lat": "24.75127", "lng": "89.83126"}, {"country": "BD", "name": "Sakhipur", "lat": "24.31988", "lng": "90.16943"}, {"country": "BD", "name": "S\u0101tkania", "lat": "22.07639", "lng": "92.04955"}, {"country": "BD", "name": "Sherpur", "lat": "25.01881", "lng": "90.01751"}, {"country": "BD", "name": "Saidpur", "lat": "25.77769", "lng": "88.89169"}, {"country": "BD", "name": "Sayani", "lat": "23.79119", "lng": "90.16972"}, {"country": "BE", "name": "Stoumont", "lat": "50.40667", "lng": "5.80838"}, {"country": "BE", "name": "Stekene", "lat": "51.2099", "lng": "4.03651"}, {"country": "BE", "name": "Steenokkerzeel", "lat": "50.91851", "lng": "4.50989"}, {"country": "BE", "name": "Stavelot", "lat": "50.395", "lng": "5.93124"}, {"country": "BE", "name": "Staden", "lat": "50.97456", "lng": "3.01469"}, {"country": "BE", "name": "Stabroek", "lat": "51.33189", "lng": "4.37127"}, {"country": "BE", "name": "Sprimont", "lat": "50.50922", "lng": "5.6595"}, {"country": "BE", "name": "Spa", "lat": "50.48375", "lng": "5.86674"}, {"country": "BE", "name": "Soumagne", "lat": "50.61385", "lng": "5.74679"}, {"country": "BE", "name": "Somme-Leuze", "lat": "50.33699", "lng": "5.36705"}, {"country": "BE", "name": "Sombreffe", "lat": "50.52865", "lng": "4.60087"}, {"country": "BE", "name": "Soignies", "lat": "50.57904", "lng": "4.07129"}, {"country": "BE", "name": "Sint-Truiden", "lat": "50.81679", "lng": "5.18647"}, {"country": "BE", "name": "Sint-Pieters-Leeuw", "lat": "50.77926", "lng": "4.24355"}, {"country": "BE", "name": "Sint-Niklaas", "lat": "51.16509", "lng": "4.1437"}, {"country": "BE", "name": "Sint-Martens-Lennik", "lat": "50.81158", "lng": "4.16965"}, {"country": "BE", "name": "Sint-Martens-Latem", "lat": "51.01459", "lng": "3.63779"}, {"country": "BE", "name": "Sint-Maria-Lierde", "lat": "50.82172", "lng": "3.84814"}, {"country": "BE", "name": "Sint-Lievens-Houtem", "lat": "50.9197", "lng": "3.86225"}, {"country": "BE", "name": "Sint-Laureins", "lat": "51.24202", "lng": "3.52441"}, {"country": "BE", "name": "Sint-Kruis", "lat": "51.21399", "lng": "3.24949"}, {"country": "BE", "name": "Sint-Katelijne-Waver", "lat": "51.06691", "lng": "4.53469"}, {"country": "BE", "name": "Sint-Gillis-Waas", "lat": "51.21914", "lng": "4.12374"}, {"country": "BE", "name": "Sint-Genesius-Rode", "lat": "50.74645", "lng": "4.35754"}, {"country": "BE", "name": "Sint-Amands", "lat": "51.05645", "lng": "4.20957"}, {"country": "BE", "name": "Silly", "lat": "50.64877", "lng": "3.92363"}, {"country": "BE", "name": "Seraing", "lat": "50.58362", "lng": "5.50115"}, {"country": "BE", "name": "Seneffe", "lat": "50.53135", "lng": "4.26301"}, {"country": "BE", "name": "Schoten", "lat": "51.25251", "lng": "4.50268"}, {"country": "BE", "name": "Schilde", "lat": "51.24107", "lng": "4.58336"}, {"country": "BE", "name": "Schelle", "lat": "51.12615", "lng": "4.34114"}, {"country": "BE", "name": "Saint-Yvon", "lat": "50.74335", "lng": "2.90992"}, {"country": "BE", "name": "Saint-Vith", "lat": "50.28146", "lng": "6.12724"}, {"country": "BE", "name": "Saint-Nicolas", "lat": "50.62837", "lng": "5.53243"}, {"country": "BE", "name": "Saint-L\u00e9ger", "lat": "49.61196", "lng": "5.65688"}, {"country": "BE", "name": "Saint-Hubert", "lat": "50.02668", "lng": "5.37401"}, {"country": "BE", "name": "Saint-Ghislain", "lat": "50.44816", "lng": "3.81886"}, {"country": "BE", "name": "Sainte-Ode", "lat": "50.01723", "lng": "5.51926"}, {"country": "BE", "name": "Sint-Pieters-Voeren", "lat": "50.73863", "lng": "5.82224"}, {"country": "BE", "name": "Sint-Joris", "lat": "50.87117", "lng": "5.272"}, {"country": "BF", "name": "Salanso", "lat": "12.17423", "lng": "-4.08477"}, {"country": "BF", "name": "Sindou", "lat": "10.66667", "lng": "-5.16667"}, {"country": "BF", "name": "Sebba", "lat": "13.43641", "lng": "0.53044"}, {"country": "BF", "name": "Sapouy", "lat": "11.55444", "lng": "-1.77361"}, {"country": "BG", "name": "Sveti Vlas", "lat": "42.7136", "lng": "27.75867"}, {"country": "BG", "name": "Svoge", "lat": "42.96667", "lng": "23.35"}, {"country": "BG", "name": "Svishtov", "lat": "43.61959", "lng": "25.35044"}, {"country": "BG", "name": "Svilengrad", "lat": "41.76667", "lng": "26.2"}, {"country": "BG", "name": "Suvorovo", "lat": "43.33058", "lng": "27.59908"}, {"country": "BG", "name": "Sarnitsa", "lat": "41.73835", "lng": "24.02435"}, {"country": "BG", "name": "Sungurlare", "lat": "42.76667", "lng": "26.78333"}, {"country": "BG", "name": "Suhindol", "lat": "43.19167", "lng": "25.18111"}, {"country": "BG", "name": "Saedinenie", "lat": "42.26667", "lng": "24.55"}, {"country": "BG", "name": "Strumyani", "lat": "41.63333", "lng": "23.2"}, {"country": "BG", "name": "Strelcha", "lat": "42.5", "lng": "24.31667"}, {"country": "BG", "name": "Strazhitsa", "lat": "43.23333", "lng": "25.96667"}, {"country": "BG", "name": "Straldzha", "lat": "42.6", "lng": "26.68333"}, {"country": "BG", "name": "Stara Zagora", "lat": "42.43278", "lng": "25.64194"}, {"country": "BG", "name": "Stara Kresna", "lat": "41.8", "lng": "23.18333"}, {"country": "BG", "name": "Stamboliyski", "lat": "42.13333", "lng": "24.53333"}, {"country": "BG", "name": "Spasovo", "lat": "43.70168", "lng": "28.30399"}, {"country": "BG", "name": "Sozopol", "lat": "42.41801", "lng": "27.6956"}, {"country": "BG", "name": "Sofia", "lat": "42.69751", "lng": "23.32415"}, {"country": "BG", "name": "Smyadovo", "lat": "43.06667", "lng": "27.01667"}, {"country": "BG", "name": "Smolyan", "lat": "41.57439", "lng": "24.71204"}, {"country": "BG", "name": "Slivo Pole", "lat": "43.94248", "lng": "26.20464"}, {"country": "BG", "name": "Slivnitsa", "lat": "42.85182", "lng": "23.03792"}, {"country": "BG", "name": "Sliven", "lat": "42.68583", "lng": "26.32917"}, {"country": "BG", "name": "Slavyanovo", "lat": "43.46667", "lng": "24.86667"}, {"country": "BG", "name": "Sitovo", "lat": "44.0273", "lng": "27.01982"}, {"country": "BG", "name": "Simitli", "lat": "41.88333", "lng": "23.11667"}, {"country": "BG", "name": "Simeonovgrad", "lat": "42.03333", "lng": "25.83333"}, {"country": "BG", "name": "Silistra", "lat": "44.11667", "lng": "27.26667"}, {"country": "BG", "name": "Shumen", "lat": "43.27064", "lng": "26.92286"}, {"country": "BG", "name": "Shipka", "lat": "42.71667", "lng": "25.33333"}, {"country": "BG", "name": "Shabla", "lat": "43.53983", "lng": "28.53429"}, {"country": "BG", "name": "Sevlievo", "lat": "43.02583", "lng": "25.11361"}, {"country": "BG", "name": "Septemvri", "lat": "42.21138", "lng": "24.12946"}, {"country": "BG", "name": "Senovo", "lat": "43.65", "lng": "26.36667"}, {"country": "BG", "name": "Satovcha", "lat": "41.61667", "lng": "23.98333"}, {"country": "BG", "name": "Sarafovo", "lat": "42.56079", "lng": "27.52195"}, {"country": "BG", "name": "Sapareva Banya", "lat": "42.28333", "lng": "23.26667"}, {"country": "BG", "name": "Sandanski", "lat": "41.56667", "lng": "23.28333"}, {"country": "BG", "name": "Samuil", "lat": "43.51667", "lng": "26.75"}, {"country": "BG", "name": "Samokov", "lat": "42.337", "lng": "23.5528"}, {"country": "BG", "name": "Sadovo", "lat": "42.13178", "lng": "24.93999"}, {"country": "BG", "name": "Sredets", "lat": "42.34747", "lng": "27.17898"}, {"country": "BH", "name": "Sitrah", "lat": "26.15472", "lng": "50.62056"}, {"country": "BJ", "name": "Sav\u00e9", "lat": "8.03424", "lng": "2.4866"}, {"country": "BJ", "name": "Savalou", "lat": "7.92807", "lng": "1.97558"}, {"country": "BJ", "name": "Sak\u00e9t\u00e9", "lat": "6.73618", "lng": "2.65866"}, {"country": "BM", "name": "Saint George", "lat": "32.38167", "lng": "-64.67806"}, {"country": "BN", "name": "Seria", "lat": "4.60637", "lng": "114.32476"}, {"country": "BO", "name": "San Pedro", "lat": "-18.28333", "lng": "-59.81667"}, {"country": "BO", "name": "San Mat\u00edas", "lat": "-16.36667", "lng": "-58.4"}, {"country": "BO", "name": "Sucre", "lat": "-19.03332", "lng": "-65.26274"}, {"country": "BO", "name": "Sorata", "lat": "-15.77305", "lng": "-68.64973"}, {"country": "BO", "name": "Sipe Sipe", "lat": "-17.45", "lng": "-66.38333"}, {"country": "BO", "name": "Santiago del Torno", "lat": "-17.98674", "lng": "-63.38118"}, {"country": "BO", "name": "Santa Rosa del Sara", "lat": "-17.10916", "lng": "-63.59514"}, {"country": "BO", "name": "Santa Rosa", "lat": "-14.16667", "lng": "-66.88333"}, {"country": "BO", "name": "Santa Rita", "lat": "-17.96667", "lng": "-63.35"}, {"country": "BO", "name": "Santa Cruz de la Sierra", "lat": "-17.78629", "lng": "-63.18117"}, {"country": "BO", "name": "Santa B\u00e1rbara", "lat": "-20.91667", "lng": "-66.05"}, {"country": "BO", "name": "Santa Ana de Yacuma", "lat": "-13.74406", "lng": "-65.42688"}, {"country": "BO", "name": "San Ram\u00f3n", "lat": "-13.28333", "lng": "-64.71667"}, {"country": "BO", "name": "San Pedro", "lat": "-16.23717", "lng": "-68.85063"}, {"country": "BO", "name": "San Pablo", "lat": "-16.21667", "lng": "-68.83333"}, {"country": "BO", "name": "San Julian", "lat": "-17.78333", "lng": "-62.86667"}, {"country": "BO", "name": "San Juan del Surut\u00fa", "lat": "-17.48333", "lng": "-63.7"}, {"country": "BO", "name": "San Ignacio de Velasco", "lat": "-16.36667", "lng": "-60.95"}, {"country": "BO", "name": "San Carlos", "lat": "-17.4", "lng": "-63.75"}, {"country": "BO", "name": "San Borja", "lat": "-14.81667", "lng": "-66.85"}, {"country": "BO", "name": "Samaipata", "lat": "-18.18005", "lng": "-63.87552"}, {"country": "BO", "name": "Sacaba", "lat": "-17.39799", "lng": "-66.03825"}, {"country": "BO", "name": "Santa Fe", "lat": "-17.90818", "lng": "-63.03955"}, {"country": "BO", "name": "San Julian", "lat": "-17.80623", "lng": "-62.89536"}, {"country": "BO", "name": "San Borja", "lat": "-14.85195", "lng": "-66.74954"}, {"country": "BR", "name": "S\u00e3o Jo\u00e3o dos Inhamuns", "lat": "-6", "lng": "-40.28333"}, {"country": "BR", "name": "Surubim", "lat": "-7.83306", "lng": "-35.75472"}, {"country": "BR", "name": "Sum\u00e9", "lat": "-7.67167", "lng": "-36.88"}, {"country": "BR", "name": "Sousa", "lat": "-6.75917", "lng": "-38.22806"}, {"country": "BR", "name": "Soure", "lat": "-0.71667", "lng": "-48.52333"}, {"country": "BR", "name": "Soledade", "lat": "-7.05722", "lng": "-36.36278"}, {"country": "BR", "name": "Sol\u00e2nea", "lat": "-6.755", "lng": "-35.54"}, {"country": "BR", "name": "Sobral", "lat": "-3.68611", "lng": "-40.34972"}, {"country": "BR", "name": "Sirinha\u00e9m", "lat": "-8.59083", "lng": "-35.11611"}, {"country": "BR", "name": "Simpl\u00edcio Mendes", "lat": "-7.85389", "lng": "-41.91028"}, {"country": "BR", "name": "Sim\u00f5es", "lat": "-7.59889", "lng": "-40.81778"}, {"country": "BR", "name": "Severiano Melo", "lat": "-5.77722", "lng": "-37.95778"}, {"country": "BR", "name": "Sert\u00e2nia", "lat": "-8.07361", "lng": "-37.26444"}, {"country": "BR", "name": "Serra Talhada", "lat": "-7.99194", "lng": "-38.29833"}, {"country": "BR", "name": "Serra Branca", "lat": "-6.53333", "lng": "-38.26667"}, {"country": "BR", "name": "Senador Pompeu", "lat": "-5.58806", "lng": "-39.37167"}, {"country": "BR", "name": "Senador Jos\u00e9 Porf\u00edrio", "lat": "-2.59083", "lng": "-51.95417"}, {"country": "BR", "name": "Satuba", "lat": "-9.56333", "lng": "-35.82444"}, {"country": "BR", "name": "S\u00e3o Tom\u00e9", "lat": "-5.9725", "lng": "-36.07528"}, {"country": "BR", "name": "S\u00e3o Sebasti\u00e3o", "lat": "-9.93361", "lng": "-36.55417"}, {"country": "BR", "name": "S\u00e3o Raimundo Nonato", "lat": "-9.01528", "lng": "-42.69944"}, {"country": "BR", "name": "S\u00e3o Raimundo das Mangabeiras", "lat": "-7.02194", "lng": "-45.48111"}, {"country": "BR", "name": "S\u00e3o Pedro do Piau\u00ed", "lat": "-5.92944", "lng": "-42.71861"}, {"country": "BR", "name": "S\u00e3o Paulo do Potengi", "lat": "-5.895", "lng": "-35.76278"}, {"country": "BR", "name": "S\u00e3o Miguel do Tapuio", "lat": "-5.50361", "lng": "-41.32333"}, {"country": "BR", "name": "S\u00e3o Miguel dos Campos", "lat": "-9.78111", "lng": "-36.09361"}, {"country": "BR", "name": "S\u00e3o Miguel do Guam\u00e1", "lat": "-1.62667", "lng": "-47.48333"}, {"country": "BR", "name": "S\u00e3o Miguel", "lat": "-5.46667", "lng": "-35.36667"}, {"country": "BR", "name": "S\u00e3o Mateus do Maranh\u00e3o", "lat": "-4.04167", "lng": "-44.475"}, {"country": "BR", "name": "S\u00e3o Lu\u00eds do Quitunde", "lat": "-9.31833", "lng": "-35.56111"}, {"country": "BR", "name": "S\u00e3o Lu\u00eds", "lat": "-2.52972", "lng": "-44.30278"}, {"country": "BR", "name": "S\u00e3o Louren\u00e7o da Mata", "lat": "-8.00222", "lng": "-35.01833"}, {"country": "BR", "name": "S\u00e3o Jos\u00e9 do Egito", "lat": "-7.47889", "lng": "-37.27444"}, {"country": "BR", "name": "S\u00e3o Jos\u00e9 do Campestre", "lat": "-6.31556", "lng": "-35.71389"}, {"country": "BR", "name": "S\u00e3o Jos\u00e9 do Belmonte", "lat": "-7.86139", "lng": "-38.75972"}, {"country": "BR", "name": "S\u00e3o Jos\u00e9 de Ribamar", "lat": "-2.56194", "lng": "-44.05417"}, {"country": "BR", "name": "S\u00e3o Jos\u00e9 de Piranhas", "lat": "-7.12056", "lng": "-38.50194"}, {"country": "BR", "name": "S\u00e3o Jos\u00e9 de Mipibu", "lat": "-6.07472", "lng": "-35.23778"}, {"country": "BR", "name": "S\u00e3o Jos\u00e9 da Tapera", "lat": "-9.55833", "lng": "-37.38111"}, {"country": "BR", "name": "S\u00e3o Jos\u00e9 da Laje", "lat": "-9.00972", "lng": "-36.05833"}, {"country": "BR", "name": "S\u00e3o Jos\u00e9 da Coroa Grande", "lat": "-8.89778", "lng": "-35.14778"}, {"country": "BR", "name": "S\u00e3o Joaquim do Monte", "lat": "-8.4325", "lng": "-35.80444"}, {"country": "BR", "name": "S\u00e3o Jo\u00e3o dos Patos", "lat": "-6.495", "lng": "-43.70222"}, {"country": "BR", "name": "S\u00e3o Jo\u00e3o do Piau\u00ed", "lat": "-8.35806", "lng": "-42.24667"}, {"country": "BR", "name": "S\u00e3o Jo\u00e3o de Pirabas", "lat": "-0.77472", "lng": "-47.17722"}, {"country": "BR", "name": "S\u00e3o Jo\u00e3o Batista", "lat": "-2.95528", "lng": "-44.80694"}, {"country": "BR", "name": "S\u00e3o Jo\u00e3o", "lat": "-8.87556", "lng": "-36.36667"}, {"country": "BR", "name": "S\u00e3o Gon\u00e7alo do Amarante", "lat": "-5.79333", "lng": "-35.32944"}, {"country": "BR", "name": "S\u00e3o Gon\u00e7alo do Amarante", "lat": "-3.60722", "lng": "-38.96833"}, {"country": "BR", "name": "S\u00e3o Geraldo do Araguaia", "lat": "-6.40056", "lng": "-48.555"}, {"country": "BR", "name": "S\u00e3o F\u00e9lix do Xingu", "lat": "-6.64472", "lng": "-51.995"}, {"country": "BR", "name": "S\u00e3o Domingos do Maranh\u00e3o", "lat": "-5.57583", "lng": "-44.38528"}, {"country": "BR", "name": "S\u00e3o Caetano de Odivelas", "lat": "-0.75", "lng": "-48.02"}, {"country": "BR", "name": "S\u00e3o Bernardo", "lat": "-3.36139", "lng": "-42.41778"}, {"country": "BR", "name": "S\u00e3o Bento", "lat": "-6.28333", "lng": "-37.75"}, {"country": "BR", "name": "S\u00e3o Bento", "lat": "-2.69583", "lng": "-44.82139"}, {"country": "BR", "name": "S\u00e3o Benedito do Rio Preto", "lat": "-3.33361", "lng": "-43.52833"}, {"country": "BR", "name": "Santo Ant\u00f4nio do Tau\u00e1", "lat": "-1.15194", "lng": "-48.12944"}, {"country": "BR", "name": "Santo Ant\u00f4nio", "lat": "-6.31056", "lng": "-35.47889"}, {"country": "BR", "name": "Santa Rita", "lat": "-7.11389", "lng": "-34.97806"}, {"country": "BR", "name": "Santa Rita", "lat": "-3.86358", "lng": "-43.85999"}, {"country": "BR", "name": "Santar\u00e9m", "lat": "-2.44306", "lng": "-54.70833"}, {"country": "BR", "name": "Santa Quit\u00e9ria do Maranh\u00e3o", "lat": "-3.51556", "lng": "-42.54667"}, {"country": "BR", "name": "Santa Quit\u00e9ria", "lat": "-4.33194", "lng": "-40.15667"}, {"country": "BR", "name": "Santana do Munda\u00fa", "lat": "-9.16806", "lng": "-36.22222"}, {"country": "BR", "name": "Santana do Matos", "lat": "-5.9575", "lng": "-36.65556"}, {"country": "BR", "name": "Santana do Ipanema", "lat": "-9.37833", "lng": "-37.24528"}, {"country": "BR", "name": "Santana do Acara\u00fa", "lat": "-3.46056", "lng": "-40.21222"}, {"country": "BR", "name": "Santa Maria do Par\u00e1", "lat": "-1.35028", "lng": "-47.57556"}, {"country": "BR", "name": "Santa Maria da Boa Vista", "lat": "-8.80778", "lng": "-39.82556"}, {"country": "BR", "name": "Santa Luzia", "lat": "-7.64265", "lng": "-47.21738"}, {"country": "BR", "name": "Santa Luzia", "lat": "-6.87222", "lng": "-36.91861"}, {"country": "BR", "name": "Santa In\u00eas", "lat": "-3.66667", "lng": "-45.38"}, {"country": "BR", "name": "Santa Helena", "lat": "-2.23111", "lng": "-45.3"}, {"country": "BR", "name": "Santa Cruz do Capibaribe", "lat": "-7.9575", "lng": "-36.20472"}, {"country": "BR", "name": "Santa Cruz", "lat": "-6.22944", "lng": "-36.02278"}, {"country": "BR", "name": "Salin\u00f3polis", "lat": "-0.61361", "lng": "-47.35611"}, {"country": "BR", "name": "Salgueiro", "lat": "-8.07417", "lng": "-39.11917"}, {"country": "BR", "name": "Salgado de S\u00e3o F\u00e9lix", "lat": "-7.35694", "lng": "-35.44056"}, {"country": "BR", "name": "Santana", "lat": "-0.05833", "lng": "-51.18167"}, {"country": "BR", "name": "Suzano", "lat": "-23.5425", "lng": "-46.31083"}, {"country": "BR", "name": "Sumar\u00e9", "lat": "-22.82194", "lng": "-47.26694"}, {"country": "BR", "name": "Sorocaba", "lat": "-23.50167", "lng": "-47.45806"}, {"country": "BR", "name": "Sombrio", "lat": "-29.11389", "lng": "-49.61667"}, {"country": "BR", "name": "Soledade", "lat": "-28.81833", "lng": "-52.51028"}, {"country": "BR", "name": "Socorro", "lat": "-22.59139", "lng": "-46.52889"}, {"country": "BR", "name": "Sobradinho", "lat": "-12.83333", "lng": "-39.1"}, {"country": "BR", "name": "Siqueira Campos", "lat": "-23.68889", "lng": "-49.83389"}, {"country": "BR", "name": "Sim\u00e3o Dias", "lat": "-10.73833", "lng": "-37.81111"}, {"country": "BR", "name": "Silv\u00e2nia", "lat": "-16.65889", "lng": "-48.60806"}, {"country": "BR", "name": "Silva Jardim", "lat": "-22.65083", "lng": "-42.39167"}, {"country": "BR", "name": "Sidrol\u00e2ndia", "lat": "-20.93194", "lng": "-54.96139"}, {"country": "BR", "name": "Sider\u00f3polis", "lat": "-28.59778", "lng": "-49.42444"}, {"country": "BR", "name": "Sever\u00ednia", "lat": "-20.80944", "lng": "-48.80278"}, {"country": "BR", "name": "Sete Lagoas", "lat": "-19.46583", "lng": "-44.24667"}, {"country": "BR", "name": "Sert\u00e3ozinho", "lat": "-21.13778", "lng": "-47.99028"}, {"country": "BR", "name": "Sertan\u00f3polis", "lat": "-23.05861", "lng": "-51.03639"}, {"country": "BR", "name": "Serro", "lat": "-18.60472", "lng": "-43.37944"}, {"country": "BR", "name": "Serrinha", "lat": "-11.66417", "lng": "-39.0075"}, {"country": "BR", "name": "Serra Negra", "lat": "-22.61222", "lng": "-46.70056"}, {"country": "BR", "name": "Serrana", "lat": "-21.21139", "lng": "-47.59556"}, {"country": "BR", "name": "Serra", "lat": "-20.12861", "lng": "-40.30778"}, {"country": "BR", "name": "Serop\u00e9dica", "lat": "-22.74389", "lng": "-43.7075"}, {"country": "BR", "name": "Senhor do Bonfim", "lat": "-10.46139", "lng": "-40.18944"}, {"country": "BR", "name": "Seng\u00e9s", "lat": "-24.11335", "lng": "-49.46315"}, {"country": "BR", "name": "Senador Canedo", "lat": "-16.70806", "lng": "-49.09306"}, {"country": "BR", "name": "Seabra", "lat": "-12.41713", "lng": "-41.77049"}, {"country": "BR", "name": "Schroeder", "lat": "-26.4125", "lng": "-49.07306"}, {"country": "BR", "name": "Saubara", "lat": "-12.7375", "lng": "-38.76861"}, {"country": "BR", "name": "Sarzedo", "lat": "-20.03528", "lng": "-44.14472"}, {"country": "BR", "name": "Sarandi", "lat": "-27.94389", "lng": "-52.92306"}, {"country": "BR", "name": "Sarandi", "lat": "-23.44361", "lng": "-51.87389"}, {"country": "BR", "name": "Saquarema", "lat": "-22.92", "lng": "-42.51028"}, {"country": "BR", "name": "Sapucaia", "lat": "-29.83333", "lng": "-51.15"}, {"country": "BR", "name": "Sapucaia", "lat": "-21.995", "lng": "-42.91444"}, {"country": "BR", "name": "Sapiranga", "lat": "-29.63806", "lng": "-51.00694"}, {"country": "BR", "name": "S\u00e3o Vicente", "lat": "-23.96306", "lng": "-46.39194"}, {"country": "BR", "name": "S\u00e3o Sim\u00e3o", "lat": "-21.47917", "lng": "-47.55083"}, {"country": "BR", "name": "S\u00e3o Sep\u00e9", "lat": "-30.16056", "lng": "-53.56528"}, {"country": "BR", "name": "S\u00e3o Sebasti\u00e3o do Pass\u00e9", "lat": "-12.5125", "lng": "-38.49528"}, {"country": "BR", "name": "S\u00e3o Sebasti\u00e3o do Para\u00edso", "lat": "-20.91694", "lng": "-46.99139"}, {"country": "BR", "name": "S\u00e3o Sebasti\u00e3o do Ca\u00ed", "lat": "-29.58667", "lng": "-51.37556"}, {"country": "BR", "name": "S\u00e3o Sebasti\u00e3o", "lat": "-23.76", "lng": "-45.40972"}, {"country": "BR", "name": "S\u00e3o Roque", "lat": "-23.52917", "lng": "-47.13528"}, {"country": "BR", "name": "S\u00e3o Pedro do Sul", "lat": "-29.62056", "lng": "-54.17889"}, {"country": "BR", "name": "S\u00e3o Pedro da Aldeia", "lat": "-22.83917", "lng": "-42.10278"}, {"country": "BR", "name": "S\u00e3o Pedro", "lat": "-22.54861", "lng": "-47.91389"}, {"country": "BR", "name": "S\u00e3o Paulo", "lat": "-23.5475", "lng": "-46.63611"}, {"country": "BR", "name": "S\u00e3o Miguel do Igua\u00e7u", "lat": "-25.34806", "lng": "-54.23778"}, {"country": "BR", "name": "S\u00e3o Miguel do Araguaia", "lat": "-13.275", "lng": "-50.16278"}, {"country": "BR", "name": "S\u00e3o Mateus do Sul", "lat": "-25.87417", "lng": "-50.38278"}, {"country": "BR", "name": "S\u00e3o Mateus", "lat": "-18.72011", "lng": "-39.85891"}, {"country": "BR", "name": "S\u00e3o Marcos", "lat": "-28.97111", "lng": "-51.06806"}, {"country": "BR", "name": "S\u00e3o Manuel", "lat": "-22.73111", "lng": "-48.57056"}, {"country": "BR", "name": "S\u00e3o Luiz Gonzaga", "lat": "-28.40833", "lng": "-54.96083"}, {"country": "BR", "name": "S\u00e3o Lu\u00eds de Montes Belos", "lat": "-16.525", "lng": "-50.37222"}, {"country": "BR", "name": "S\u00e3o Louren\u00e7o do Sul", "lat": "-31.36528", "lng": "-51.97833"}, {"country": "BR", "name": "S\u00e3o Louren\u00e7o do Oeste", "lat": "-26.35917", "lng": "-52.85111"}, {"country": "BR", "name": "S\u00e3o Louren\u00e7o da Serra", "lat": "-23.8525", "lng": "-46.9425"}, {"country": "BR", "name": "S\u00e3o Louren\u00e7o", "lat": "-22.11639", "lng": "-45.05444"}, {"country": "BR", "name": "S\u00e3o Leopoldo", "lat": "-29.76028", "lng": "-51.14722"}, {"country": "BR", "name": "S\u00e3o Jos\u00e9 dos Pinhais", "lat": "-25.5302", "lng": "-49.20836"}, {"country": "BR", "name": "S\u00e3o Jos\u00e9 dos Campos", "lat": "-23.17944", "lng": "-45.88694"}, {"country": "BR", "name": "S\u00e3o Jos\u00e9 do Rio Preto", "lat": "-20.81972", "lng": "-49.37944"}, {"country": "BR", "name": "S\u00e3o Jos\u00e9 do Rio Pardo", "lat": "-21.59556", "lng": "-46.88861"}, {"country": "BR", "name": "S\u00e3o Jos\u00e9 do Cal\u00e7ado", "lat": "-21.02528", "lng": "-41.65444"}, {"country": "BR", "name": "S\u00e3o Jos\u00e9", "lat": "-28.21171", "lng": "-49.1632"}, {"country": "BR", "name": "S\u00e3o Joaquim de Bicas", "lat": "-20.04917", "lng": "-44.27389"}, {"country": "BR", "name": "S\u00e3o Joaquim da Barra", "lat": "-20.58139", "lng": "-47.85472"}, {"country": "BR", "name": "S\u00e3o Joaquim", "lat": "-28.29389", "lng": "-49.93167"}, {"country": "BR", "name": "S\u00e3o Jo\u00e3o Nepomuceno", "lat": "-21.54", "lng": "-43.01056"}, {"country": "BR", "name": "S\u00e3o Jo\u00e3o Evangelista", "lat": "-18.54778", "lng": "-42.76333"}, {"country": "BR", "name": "S\u00e3o Jo\u00e3o do Para\u00edso", "lat": "-15.31361", "lng": "-42.01444"}, {"country": "BR", "name": "S\u00e3o Jo\u00e3o de Meriti", "lat": "-22.80389", "lng": "-43.37222"}, {"country": "BR", "name": "S\u00e3o Jo\u00e3o del Rei", "lat": "-21.13556", "lng": "-44.26167"}, {"country": "BR", "name": "S\u00e3o Jo\u00e3o da Ponte", "lat": "-15.92917", "lng": "-44.00778"}, {"country": "BR", "name": "S\u00e3o Jo\u00e3o da Boa Vista", "lat": "-21.96917", "lng": "-46.79806"}, {"country": "BR", "name": "S\u00e3o Jo\u00e3o da Barra", "lat": "-21.64028", "lng": "-41.05111"}, {"country": "BR", "name": "S\u00e3o Jo\u00e3o Batista", "lat": "-27.27611", "lng": "-48.84944"}, {"country": "BR", "name": "S\u00e3o Jer\u00f4nimo", "lat": "-29.95917", "lng": "-51.72222"}, {"country": "BR", "name": "S\u00e3o Gotardo", "lat": "-19.31111", "lng": "-46.04889"}, {"country": "BR", "name": "S\u00e3o Gon\u00e7alo dos Campos", "lat": "-12.43333", "lng": "-38.96667"}, {"country": "BR", "name": "S\u00e3o Gon\u00e7alo do Sapuca\u00ed", "lat": "-21.89222", "lng": "-45.59528"}, {"country": "BR", "name": "S\u00e3o Gon\u00e7alo", "lat": "-22.82694", "lng": "-43.05389"}, {"country": "BR", "name": "S\u00e3o Gabriel", "lat": "-30.33639", "lng": "-54.32"}, {"country": "BR", "name": "S\u00e3o Francisco do Sul", "lat": "-26.24333", "lng": "-48.63806"}, {"country": "BR", "name": "S\u00e3o Francisco do Conde", "lat": "-12.6275", "lng": "-38.68"}, {"country": "BR", "name": "S\u00e3o Francisco de Paula", "lat": "-29.44806", "lng": "-50.58361"}, {"country": "BR", "name": "S\u00e3o Francisco de Assis", "lat": "-29.55028", "lng": "-55.13111"}, {"country": "BR", "name": "S\u00e3o Francisco", "lat": "-15.94861", "lng": "-44.86444"}, {"country": "BR", "name": "S\u00e3o Fid\u00e9lis", "lat": "-21.64611", "lng": "-41.74694"}, {"country": "BR", "name": "S\u00e3o Felipe", "lat": "-14.8386", "lng": "-41.39174"}, {"country": "BR", "name": "S\u00e3o Domingos do Prata", "lat": "-19.865", "lng": "-42.96833"}, {"country": "BR", "name": "S\u00e3o Domingos", "lat": "-13.39833", "lng": "-46.31833"}, {"country": "BR", "name": "S\u00e3o Desid\u00e9rio", "lat": "-12.36333", "lng": "-44.97333"}, {"country": "BR", "name": "S\u00e3o Crist\u00f3v\u00e3o", "lat": "-11.01472", "lng": "-37.20639"}, {"country": "BR", "name": "S\u00e3o Carlos", "lat": "-22.0175", "lng": "-47.89083"}, {"country": "BR", "name": "S\u00e3o Caetano do Sul", "lat": "-23.62306", "lng": "-46.55111"}, {"country": "BR", "name": "S\u00e3o Borja", "lat": "-28.66056", "lng": "-56.00444"}, {"country": "BR", "name": "S\u00e3o Bernardo do Campo", "lat": "-23.69389", "lng": "-46.565"}, {"country": "BR", "name": "S\u00e3o Bento do Sul", "lat": "-26.25028", "lng": "-49.37861"}, {"country": "BR", "name": "Santos Dumont", "lat": "-21.45667", "lng": "-43.5525"}, {"country": "BR", "name": "Santos", "lat": "-23.96083", "lng": "-46.33361"}, {"country": "BR", "name": "Santo Est\u00eav\u00e3o", "lat": "-12.43028", "lng": "-39.25139"}, {"country": "BR", "name": "Santo Augusto", "lat": "-27.85083", "lng": "-53.77722"}, {"country": "BR", "name": "Santo Ant\u00f4nio do Sudoeste", "lat": "-26.07361", "lng": "-53.72528"}, {"country": "BR", "name": "Santo Ant\u00f4nio do Monte", "lat": "-20.08722", "lng": "-45.29361"}, {"country": "BR", "name": "Santo Ant\u00f4nio do Leverger", "lat": "-15.86556", "lng": "-56.07667"}, {"country": "BR", "name": "Santo Ant\u00f4nio do Amparo", "lat": "-20.94639", "lng": "-44.91889"}, {"country": "BR", "name": "Santo Ant\u00f4nio de Posse", "lat": "-22.60611", "lng": "-46.91944"}, {"country": "BR", "name": "Santo Ant\u00f4nio de P\u00e1dua", "lat": "-21.53944", "lng": "-42.18028"}, {"country": "BR", "name": "Santo Ant\u00f4nio de Jesus", "lat": "-12.96889", "lng": "-39.26139"}, {"country": "BR", "name": "Santo Ant\u00f4nio da Platina", "lat": "-23.295", "lng": "-50.07722"}, {"country": "BR", "name": "Santo \u00c2ngelo", "lat": "-28.29917", "lng": "-54.26306"}, {"country": "BR", "name": "Santo Andr\u00e9", "lat": "-23.66389", "lng": "-46.53833"}, {"country": "BR", "name": "Santo Anast\u00e1cio", "lat": "-21.83833", "lng": "-51.61028"}, {"country": "BR", "name": "Santo Amaro das Brotas", "lat": "-10.78889", "lng": "-37.05444"}, {"country": "BR", "name": "Santo Amaro da Imperatriz", "lat": "-27.68806", "lng": "-48.77861"}, {"country": "BR", "name": "Santo Amaro", "lat": "-12.54667", "lng": "-38.71194"}, {"country": "BR", "name": "Santiago", "lat": "-29.19167", "lng": "-54.86722"}, {"country": "BR", "name": "Santa Vit\u00f3ria do Palmar", "lat": "-33.51889", "lng": "-53.36806"}, {"country": "BR", "name": "Santa Vit\u00f3ria", "lat": "-18.83861", "lng": "-50.12139"}, {"country": "BR", "name": "Santa Teresa", "lat": "-19.93556", "lng": "-40.60028"}, {"country": "BR", "name": "Santa Rosa de Viterbo", "lat": "-21.47278", "lng": "-47.36306"}, {"country": "BR", "name": "Santa Rosa", "lat": "-27.87083", "lng": "-54.48139"}, {"country": "BR", "name": "Santa Rita do Sapuca\u00ed", "lat": "-22.25222", "lng": "-45.70333"}, {"country": "BR", "name": "Santa Rita do Passa Quatro", "lat": "-21.71028", "lng": "-47.47806"}, {"country": "BR", "name": "Santana do Para\u00edso", "lat": "-19.36361", "lng": "-42.56861"}, {"country": "BR", "name": "Santana do Livramento", "lat": "-30.89083", "lng": "-55.53278"}, {"country": "BR", "name": "Santana de Parna\u00edba", "lat": "-23.44417", "lng": "-46.91778"}, {"country": "BR", "name": "Santana", "lat": "-14.46667", "lng": "-41.8"}, {"country": "BR", "name": "Santa Maria do Sua\u00e7u\u00ed", "lat": "-18.19028", "lng": "-42.41417"}, {"country": "BR", "name": "Santa Maria da Vit\u00f3ria", "lat": "-13.38814", "lng": "-44.19868"}, {"country": "BR", "name": "Santa Maria", "lat": "-29.68417", "lng": "-53.80694"}, {"country": "BR", "name": "Santa Luzia", "lat": "-19.76972", "lng": "-43.85139"}, {"country": "BR", "name": "Santaluz", "lat": "-11.25583", "lng": "-39.37472"}, {"country": "BR", "name": "Santa Leopoldina", "lat": "-20.10056", "lng": "-40.52972"}, {"country": "BR", "name": "Santa Isabel", "lat": "-23.31556", "lng": "-46.22139"}, {"country": "BR", "name": "Santa In\u00eas", "lat": "-13.29222", "lng": "-39.81889"}, {"country": "BR", "name": "Santa Helena de Goi\u00e1s", "lat": "-17.81361", "lng": "-50.59694"}, {"country": "BR", "name": "Santa Gertrudes", "lat": "-22.45667", "lng": "-47.53028"}, {"country": "BR", "name": "Santa F\u00e9 do Sul", "lat": "-20.21111", "lng": "-50.92583"}, {"country": "BR", "name": "Santa Cruz do Sul", "lat": "-29.7175", "lng": "-52.42583"}, {"country": "BR", "name": "Santa Cruz do Rio Pardo", "lat": "-22.89889", "lng": "-49.6325"}, {"country": "BR", "name": "Santa Cruz das Palmeiras", "lat": "-21.82694", "lng": "-47.24861"}, {"country": "BR", "name": "Santa Cruz Cabr\u00e1lia", "lat": "-16.27806", "lng": "-39.02472"}, {"country": "BR", "name": "Santa Cec\u00edlia", "lat": "-26.96083", "lng": "-50.42694"}, {"country": "BR", "name": "Santa Branca", "lat": "-23.39667", "lng": "-45.88389"}, {"country": "BR", "name": "Santa B\u00e1rbara d'Oeste", "lat": "-22.75361", "lng": "-47.41361"}, {"country": "BR", "name": "Santa Ad\u00e9lia", "lat": "-21.24278", "lng": "-48.80417"}, {"country": "BR", "name": "Sananduva", "lat": "-27.94972", "lng": "-51.80667"}, {"country": "BR", "name": "Salvador", "lat": "-12.97111", "lng": "-38.51083"}, {"country": "BR", "name": "Salto de Pirapora", "lat": "-23.64889", "lng": "-47.57333"}, {"country": "BR", "name": "Salto", "lat": "-23.20083", "lng": "-47.28694"}, {"country": "BR", "name": "Salinas", "lat": "-16.17028", "lng": "-42.29028"}, {"country": "BR", "name": "Salgado", "lat": "-11.03194", "lng": "-37.475"}, {"country": "BR", "name": "Sacramento", "lat": "-19.86528", "lng": "-47.44"}, {"country": "BR", "name": "Sabin\u00f3polis", "lat": "-18.66611", "lng": "-43.08389"}, {"country": "BR", "name": "Sena Madureira", "lat": "-9.06341", "lng": "-68.67245"}, {"country": "BR", "name": "S\u00e3o Paulo de Oliven\u00e7a", "lat": "-3.37833", "lng": "-68.8725"}, {"country": "BR", "name": "S\u00e3o Gabriel da Cachoeira", "lat": "-0.1181", "lng": "-67.08527"}, {"country": "BR", "name": "Santo Ant\u00f4nio do I\u00e7\u00e1", "lat": "-3.10222", "lng": "-67.93972"}, {"country": "BR", "name": "Santa Isabel do Rio Negro", "lat": "-0.41389", "lng": "-65.01917"}, {"country": "BR", "name": "Senador Guiomard", "lat": "-10.1497", "lng": "-67.73741"}, {"country": "BR", "name": "Sim\u00f5es Filho", "lat": "-12.78444", "lng": "-38.40389"}, {"country": "BR", "name": "Sinop", "lat": "-11.86417", "lng": "-55.5025"}, {"country": "BR", "name": "Santa Monica", "lat": "-27.59137", "lng": "-48.50756"}, {"country": "BR", "name": "Saco dos Limoes", "lat": "-27.60864", "lng": "-48.53605"}, {"country": "BS", "name": "Spanish Wells", "lat": "25.54717", "lng": "-76.76405"}, {"country": "BS", "name": "San Andros", "lat": "25.06667", "lng": "-78.05"}, {"country": "BT", "name": "Shemgang", "lat": "27.21689", "lng": "90.65793"}, {"country": "BT", "name": "Sarpang", "lat": "26.86395", "lng": "90.26745"}, {"country": "BT", "name": "Samtse", "lat": "26.89903", "lng": "89.09951"}, {"country": "BT", "name": "Samdrup Jongkhar", "lat": "26.80069", "lng": "91.50519"}, {"country": "BW", "name": "Sua", "lat": "-20.05", "lng": "26.2"}, {"country": "BW", "name": "Shakawe", "lat": "-18.36536", "lng": "21.84219"}, {"country": "BW", "name": "Serowe", "lat": "-22.38754", "lng": "26.71077"}, {"country": "BW", "name": "Selebi-Phikwe", "lat": "-21.97895", "lng": "27.84296"}, {"country": "BW", "name": "Sekoma", "lat": "-24.4", "lng": "23.88333"}, {"country": "BW", "name": "Sehithwa", "lat": "-20.46667", "lng": "22.71667"}, {"country": "BW", "name": "Sefophe", "lat": "-22.18333", "lng": "27.96667"}, {"country": "BW", "name": "Sebina", "lat": "-20.86667", "lng": "27.25"}, {"country": "BY", "name": "Skidal\u2019", "lat": "53.5904", "lng": "24.2478"}, {"country": "BY", "name": "Svislach", "lat": "53.0368", "lng": "24.0957"}, {"country": "BY", "name": "Svir", "lat": "54.8517", "lng": "26.395"}, {"country": "BY", "name": "Svyetlahorsk", "lat": "52.6329", "lng": "29.7389"}, {"country": "BY", "name": "Stowbtsy", "lat": "53.4785", "lng": "26.7434"}, {"country": "BY", "name": "Stolin", "lat": "51.89115", "lng": "26.84597"}, {"country": "BY", "name": "Staryya Darohi", "lat": "53.0402", "lng": "28.267"}, {"country": "BY", "name": "Starobin", "lat": "52.7267", "lng": "27.4606"}, {"country": "BY", "name": "Stan\u2019kava", "lat": "53.6292", "lng": "27.229"}, {"country": "BY", "name": "Sasnovy Bor", "lat": "52.5194", "lng": "29.5988"}, {"country": "BY", "name": "Sapotskin", "lat": "53.8329", "lng": "23.6598"}, {"country": "BY", "name": "Soly", "lat": "54.51301", "lng": "26.19381"}, {"country": "BY", "name": "Snow", "lat": "53.2201", "lng": "26.401"}, {"country": "BY", "name": "Smarhon\u2019", "lat": "54.4798", "lng": "26.3957"}, {"country": "BY", "name": "Smilavichy", "lat": "53.7496", "lng": "28.0115"}, {"country": "BY", "name": "Slutsk", "lat": "53.0274", "lng": "27.5597"}, {"country": "BY", "name": "Slonim", "lat": "53.0869", "lng": "25.3163"}, {"country": "BY", "name": "Slabada", "lat": "54.0087", "lng": "27.8866"}, {"country": "BY", "name": "Slawharad", "lat": "53.4429", "lng": "31.0014"}, {"country": "BY", "name": "Shklow", "lat": "54.2131", "lng": "30.2877"}, {"country": "BY", "name": "Shchuchyn", "lat": "53.6014", "lng": "24.7465"}, {"country": "BY", "name": "Sharkawshchyna", "lat": "55.3689", "lng": "27.4686"}, {"country": "BY", "name": "Syanno", "lat": "54.8108", "lng": "29.7086"}, {"country": "BY", "name": "Syenitsa", "lat": "53.8313", "lng": "27.5343"}, {"country": "BY", "name": "Syomkava", "lat": "54.0101", "lng": "27.441"}, {"country": "BY", "name": "Sarachy", "lat": "52.7867", "lng": "28.0186"}, {"country": "BY", "name": "Samakhvalavichy", "lat": "53.7396", "lng": "27.5037"}, {"country": "BY", "name": "Salihorsk", "lat": "52.7876", "lng": "27.5415"}, {"country": "BY", "name": "Schomyslitsa", "lat": "53.8211", "lng": "27.4522"}, {"country": "BY", "name": "Svislach", "lat": "53.6404", "lng": "27.9199"}, {"country": "BZ", "name": "Shipyard", "lat": "17.89382", "lng": "-88.65452"}, {"country": "BZ", "name": "San Pedro", "lat": "17.91598", "lng": "-87.9659"}, {"country": "BZ", "name": "San Ignacio", "lat": "17.1588", "lng": "-89.0696"}, {"country": "CA", "name": "Sackville", "lat": "45.91875", "lng": "-64.38455"}, {"country": "CA", "name": "Saguenay", "lat": "48.41675", "lng": "-71.06573"}, {"country": "CA", "name": "Saint-Adolphe-d'Howard", "lat": "45.96679", "lng": "-74.33253"}, {"country": "CA", "name": "Saint-Ambroise", "lat": "48.55009", "lng": "-71.33238"}, {"country": "CA", "name": "Saint-Andr\u00e9-Avellin", "lat": "45.7168", "lng": "-75.06599"}, {"country": "CA", "name": "Saint Andrews", "lat": "45.0737", "lng": "-67.05312"}, {"country": "CA", "name": "Saint-Augustin", "lat": "51.22602", "lng": "-58.65017"}, {"country": "CA", "name": "Saint-Basile-le-Grand", "lat": "45.53338", "lng": "-73.28246"}, {"country": "CA", "name": "Saint-Bruno", "lat": "48.46679", "lng": "-71.6491"}, {"country": "CA", "name": "Saint-Bruno-de-Guigues", "lat": "47.46685", "lng": "-79.43296"}, {"country": "CA", "name": "Saint-Bruno-de-Montarville", "lat": "45.53341", "lng": "-73.34916"}, {"country": "CA", "name": "Saint-C\u00e9saire", "lat": "45.41678", "lng": "-72.99914"}, {"country": "CA", "name": "Saint-Colomban", "lat": "45.73338", "lng": "-74.13251"}, {"country": "CA", "name": "Saint-C\u00f4me--Lini\u00e8re", "lat": "46.06677", "lng": "-70.51573"}, {"country": "CA", "name": "Saint-Constant", "lat": "45.36678", "lng": "-73.56588"}, {"country": "CA", "name": "Saint-Cyrille-de-Wendover", "lat": "45.93336", "lng": "-72.43241"}, {"country": "CA", "name": "Saint-Damase", "lat": "45.53341", "lng": "-72.99914"}, {"country": "CA", "name": "Saint-Denis-sur-Richelieu", "lat": "45.78338", "lng": "-73.14915"}, {"country": "CA", "name": "Sainte-Ad\u00e8le", "lat": "45.95008", "lng": "-74.13251"}, {"country": "CA", "name": "Sainte-Agathe-des-Monts", "lat": "46.05009", "lng": "-74.28252"}, {"country": "CA", "name": "Sainte-Anne-de-Bellevue", "lat": "45.40618", "lng": "-73.9456"}, {"country": "CA", "name": "Sainte-Anne-des-Monts", "lat": "49.12402", "lng": "-66.49243"}, {"country": "CA", "name": "Sainte-Anne-des-Plaines", "lat": "45.76468", "lng": "-73.81156"}, {"country": "CA", "name": "Sainte-B\u00e9atrix", "lat": "46.20007", "lng": "-73.61587"}, {"country": "CA", "name": "Sainte-Catherine", "lat": "45.40008", "lng": "-73.58248"}, {"country": "CA", "name": "Sainte-Catherine", "lat": "46.31836", "lng": "-72.56632"}, {"country": "CA", "name": "Saint-\u00c9douard", "lat": "45.23338", "lng": "-73.51588"}, {"country": "CA", "name": "Sainte-Julie", "lat": "45.58338", "lng": "-73.33246"}, {"country": "CA", "name": "Sainte-Julienne", "lat": "45.96677", "lng": "-73.71587"}, {"country": "CA", "name": "Sainte-Marthe-sur-le-Lac", "lat": "45.53338", "lng": "-73.9325"}, {"country": "CA", "name": "Sainte-Martine", "lat": "45.25008", "lng": "-73.79919"}, {"country": "CA", "name": "Sainte-Sophie", "lat": "45.81678", "lng": "-73.89919"}, {"country": "CA", "name": "Sainte-Th\u00e8cle", "lat": "46.81676", "lng": "-72.49911"}, {"country": "CA", "name": "Sainte-Th\u00e9r\u00e8se", "lat": "45.63922", "lng": "-73.82757"}, {"country": "CA", "name": "Saint-Eustache", "lat": "45.565", "lng": "-73.90554"}, {"country": "CA", "name": "Saint-F\u00e9licien", "lat": "48.65007", "lng": "-72.44906"}, {"country": "CA", "name": "Saint-F\u00e9lix-de-Valois", "lat": "46.16977", "lng": "-73.42525"}, {"country": "CA", "name": "Saint-Gabriel", "lat": "46.30007", "lng": "-73.38245"}, {"country": "CA", "name": "Saint-G\u00e9d\u00e9on", "lat": "48.50009", "lng": "-71.76581"}, {"country": "CA", "name": "Saint-Germain-de-Grantham", "lat": "45.83337", "lng": "-72.56582"}, {"country": "CA", "name": "Saint-Hippolyte", "lat": "45.93338", "lng": "-74.0159"}, {"country": "CA", "name": "Saint-Hyacinthe", "lat": "45.63076", "lng": "-72.95699"}, {"country": "CA", "name": "Saint-Jacques", "lat": "45.95007", "lng": "-73.56586"}, {"country": "CA", "name": "Saint-Jacques-le-Mineur", "lat": "45.28338", "lng": "-73.41587"}, {"country": "CA", "name": "Saint-Jean-sur-Richelieu", "lat": "45.30713", "lng": "-73.26259"}, {"country": "CA", "name": "Saint-J\u00e9r\u00f4me", "lat": "45.78036", "lng": "-74.00365"}, {"country": "CA", "name": "Saint John", "lat": "45.27271", "lng": "-66.06766"}, {"country": "CA", "name": "Saint-Joseph-de-Coleraine", "lat": "45.96677", "lng": "-71.36577"}, {"country": "CA", "name": "Saint-Joseph-du-Lac", "lat": "45.53338", "lng": "-73.9992"}, {"country": "CA", "name": "Saint-Laurent", "lat": "45.50008", "lng": "-73.66585"}, {"country": "CA", "name": "Saint-Lazare", "lat": "45.40008", "lng": "-74.13256"}, {"country": "CA", "name": "Saint-L\u00e9onard", "lat": "45.58773", "lng": "-73.59501"}, {"country": "CA", "name": "Saint-Lin-Laurentides", "lat": "45.85008", "lng": "-73.76588"}, {"country": "CA", "name": "Saint-Marc-des-Carri\u00e8res", "lat": "46.68335", "lng": "-72.0491"}, {"country": "CA", "name": "Saint-Mathieu", "lat": "45.31678", "lng": "-73.51587"}, {"country": "CA", "name": "Saint-Michel-des-Saints", "lat": "46.68338", "lng": "-73.91589"}, {"country": "CA", "name": "Saint-Nazaire", "lat": "48.58944", "lng": "-71.55247"}, {"country": "CA", "name": "Saint-Philippe-de-La Prairie", "lat": "45.35723", "lng": "-73.47706"}, {"country": "CA", "name": "Saint-Pie", "lat": "45.50277", "lng": "-72.9089"}, {"country": "CA", "name": "Saint-Pie-V", "lat": "46.00351", "lng": "-72.74689"}, {"country": "CA", "name": "Saint-Pierre-les-Becquets", "lat": "46.50005", "lng": "-72.1991"}, {"country": "CA", "name": "Saint-Polycarpe", "lat": "45.30009", "lng": "-74.29924"}, {"country": "CA", "name": "Saint-Raymond", "lat": "45.46698", "lng": "-73.60948"}, {"country": "CA", "name": "Saint-R\u00e9mi", "lat": "45.26678", "lng": "-73.61588"}, {"country": "CA", "name": "Saint-R\u00e9mi-de-Tingwick", "lat": "45.86677", "lng": "-71.81581"}, {"country": "CA", "name": "Saint-Sauveur", "lat": "45.88686", "lng": "-74.17943"}, {"country": "CA", "name": "Saint-Thomas", "lat": "46.01677", "lng": "-73.34915"}, {"country": "CA", "name": "Saint-Tite", "lat": "46.73336", "lng": "-72.56581"}, {"country": "CA", "name": "Saint-Zotique", "lat": "45.25009", "lng": "-74.24924"}, {"country": "CA", "name": "Salaberry-de-Valleyfield", "lat": "45.25008", "lng": "-74.13253"}, {"country": "CA", "name": "Salisbury", "lat": "46.03905", "lng": "-65.04628"}, {"country": "CA", "name": "Salmo", "lat": "49.19986", "lng": "-117.2689"}, {"country": "CA", "name": "Salmon Arm", "lat": "50.6998", "lng": "-119.30237"}, {"country": "CA", "name": "Sarnia", "lat": "42.97866", "lng": "-82.40407"}, {"country": "CA", "name": "Saskatoon", "lat": "52.13238", "lng": "-106.66892"}, {"country": "CA", "name": "Sault Ste. Marie", "lat": "46.51677", "lng": "-84.33325"}, {"country": "CA", "name": "Sechelt", "lat": "49.47512", "lng": "-123.75903"}, {"country": "CA", "name": "Selkirk", "lat": "50.1436", "lng": "-96.88452"},