[{"country": "AF", "name": "Wul\u00easw\u0101l\u012b Bihs\u016bd", "lat": "34.3436", "lng": "67.90567"}, {"country": "AF", "name": "W\u0101sh\u0113r", "lat": "32.25122", "lng": "63.85553"}, {"country": "AF", "name": "Wul\u00easw\u0101l\u012b Sayyid Karam", "lat": "33.69056", "lng": "69.36881"}, {"country": "AF", "name": "Wulusw\u0101l\u012b \u2018Al\u012bng\u0101r", "lat": "34.83529", "lng": "70.3593"}, {"country": "AF", "name": "Wu\u1e6fahp\u016br", "lat": "34.91914", "lng": "71.09863"}, {"country": "AI", "name": "West End Village", "lat": "18.17191", "lng": "-63.14941"}, {"country": "AR", "name": "Winifreda", "lat": "-36.22643", "lng": "-64.23388"}, {"country": "AR", "name": "Wenceslao Escalante", "lat": "-33.17303", "lng": "-62.77078"}, {"country": "AT", "name": "W\u00fcrmla", "lat": "48.25497", "lng": "15.86031"}, {"country": "AT", "name": "W\u00fcrflach", "lat": "47.77648", "lng": "16.05463"}, {"country": "AT", "name": "Wundschuh", "lat": "46.92639", "lng": "15.45111"}, {"country": "AT", "name": "Wullersdorf", "lat": "48.62792", "lng": "16.10089"}, {"country": "AT", "name": "Wulkaprodersdorf", "lat": "47.79753", "lng": "16.50447"}, {"country": "AT", "name": "W\u00f6rth an der Lafnitz", "lat": "47.21368", "lng": "16.08081"}, {"country": "AT", "name": "W\u00f6rterberg", "lat": "47.21667", "lng": "16.1"}, {"country": "AT", "name": "W\u00f6rschach", "lat": "47.55", "lng": "14.15"}, {"country": "AT", "name": "W\u00f6rgl", "lat": "47.48906", "lng": "12.06174"}, {"country": "AT", "name": "W\u00f6rdern", "lat": "48.334", "lng": "16.21016"}, {"country": "AT", "name": "Wolkersdorf im Weinviertel", "lat": "48.38333", "lng": "16.51667"}, {"country": "AT", "name": "Wolfurt", "lat": "47.46667", "lng": "9.75"}, {"country": "AT", "name": "Wolfsthal", "lat": "48.13333", "lng": "17"}, {"country": "AT", "name": "Wolfsgraben", "lat": "48.1587", "lng": "16.12098"}, {"country": "AT", "name": "Wolfsegg am Hausruck", "lat": "48.10669", "lng": "13.67274"}, {"country": "AT", "name": "Wolfsberg im Schwarzautal", "lat": "46.84389", "lng": "15.65889"}, {"country": "AT", "name": "Wolfsberg", "lat": "46.84056", "lng": "14.84417"}, {"country": "AT", "name": "Wolfsbach", "lat": "48.06667", "lng": "14.66667"}, {"country": "AT", "name": "Wolfpassing", "lat": "48.07785", "lng": "15.06453"}, {"country": "AT", "name": "Wolfau", "lat": "47.25", "lng": "16.1"}, {"country": "AT", "name": "Winklern bei Oberw\u00f6lz", "lat": "47.2", "lng": "14.23333"}, {"country": "AT", "name": "Winklern", "lat": "46.87361", "lng": "12.87472"}, {"country": "AT", "name": "Winklarn", "lat": "48.09135", "lng": "14.84819"}, {"country": "AT", "name": "Windigsteig", "lat": "48.76667", "lng": "15.28333"}, {"country": "AT", "name": "Winden am See", "lat": "47.95", "lng": "16.75"}, {"country": "AT", "name": "Wimpassing an der Leitha", "lat": "47.91667", "lng": "16.43333"}, {"country": "AT", "name": "Wimpassing im Schwarzatale", "lat": "47.70295", "lng": "16.03334"}, {"country": "AT", "name": "Willendorf am Steinfelde", "lat": "47.78929", "lng": "16.05686"}, {"country": "AT", "name": "Wilhelmsburg", "lat": "48.10571", "lng": "15.60539"}, {"country": "AT", "name": "Wilfersdorf", "lat": "48.58333", "lng": "16.63333"}, {"country": "AT", "name": "Wildon", "lat": "46.88333", "lng": "15.51667"}, {"country": "AT", "name": "Wildermieming", "lat": "47.31667", "lng": "11.01667"}, {"country": "AT", "name": "Wildalpen", "lat": "47.65", "lng": "14.98333"}, {"country": "AT", "name": "Wiesmath", "lat": "47.61667", "lng": "16.28333"}, {"country": "AT", "name": "Wiesing", "lat": "47.40486", "lng": "11.79708"}, {"country": "AT", "name": "Wiesfleck", "lat": "47.38458", "lng": "16.14552"}, {"country": "AT", "name": "Wiesen", "lat": "47.73776", "lng": "16.33798"}, {"country": "AT", "name": "Wieselburg", "lat": "48.13333", "lng": "15.13333"}, {"country": "AT", "name": "Wies", "lat": "46.72028", "lng": "15.27194"}, {"country": "AT", "name": "Wiener Neustadt", "lat": "47.80485", "lng": "16.23196"}, {"country": "AT", "name": "Wiener Neudorf", "lat": "48.08278", "lng": "16.31384"}, {"country": "AT", "name": "Weyregg", "lat": "47.90294", "lng": "13.57193"}, {"country": "AT", "name": "Weyer", "lat": "47.85717", "lng": "14.66409"}, {"country": "AT", "name": "Wetzelsdorf", "lat": "47.05293", "lng": "15.39923"}, {"country": "AT", "name": "Wettmannst\u00e4tten", "lat": "46.83056", "lng": "15.38722"}, {"country": "AT", "name": "Westendorf", "lat": "47.43208", "lng": "12.21406"}, {"country": "AT", "name": "Wernersdorf", "lat": "46.71592", "lng": "15.20718"}, {"country": "AT", "name": "Werndorf", "lat": "46.92417", "lng": "15.49083"}, {"country": "AT", "name": "Wernberg", "lat": "46.61667", "lng": "13.93333"}, {"country": "AT", "name": "Werfenweng", "lat": "47.46204", "lng": "13.25582"}, {"country": "AT", "name": "Werfen", "lat": "47.47585", "lng": "13.1902"}, {"country": "AT", "name": "Weppersdorf", "lat": "47.57954", "lng": "16.42679"}, {"country": "AT", "name": "Wenns", "lat": "47.16667", "lng": "10.73333"}, {"country": "AT", "name": "Weng im Innkreis", "lat": "48.23508", "lng": "13.17801"}, {"country": "AT", "name": "Wels", "lat": "48.16667", "lng": "14.03333"}, {"country": "AT", "name": "Weiz", "lat": "47.21667", "lng": "15.61667"}, {"country": "AT", "name": "Weitra", "lat": "48.7", "lng": "14.88333"}, {"country": "AT", "name": "Weitersfelden", "lat": "48.4773", "lng": "14.72546"}, {"country": "AT", "name": "Weitersfeld", "lat": "48.78097", "lng": "15.81345"}, {"country": "AT", "name": "Weitensfeld", "lat": "46.84743", "lng": "14.19213"}, {"country": "AT", "name": "Weiten", "lat": "48.29564", "lng": "15.2601"}, {"country": "AT", "name": "Weistrach", "lat": "48.05", "lng": "14.58333"}, {"country": "AT", "name": "Wei\u00dfkirchen in Steiermark", "lat": "47.15", "lng": "14.73333"}, {"country": "AT", "name": "Wei\u00dfenkirchen in der Wachau", "lat": "48.3979", "lng": "15.46931"}, {"country": "AT", "name": "Wei\u00dfenbach bei Liezen", "lat": "47.56667", "lng": "14.21667"}, {"country": "AT", "name": "Weissenbach an der Triesting", "lat": "47.98211", "lng": "16.03935"}, {"country": "AT", "name": "Weinzierl bei Krems", "lat": "48.4", "lng": "15.6"}, {"country": "AT", "name": "Weinzierl am Walde", "lat": "48.43211", "lng": "15.4321"}, {"country": "AT", "name": "Weingraben", "lat": "47.51393", "lng": "16.36375"}, {"country": "AT", "name": "Weinburg am Sa\u00dfbach", "lat": "46.75361", "lng": "15.72111"}, {"country": "AT", "name": "Weinburg", "lat": "48.11351", "lng": "15.53295"}, {"country": "AT", "name": "Weiler", "lat": "47.29972", "lng": "9.65"}, {"country": "AT", "name": "Weikersdorf am Steinfelde", "lat": "47.80612", "lng": "16.14389"}, {"country": "AT", "name": "Weikendorf", "lat": "48.34438", "lng": "16.76651"}, {"country": "AT", "name": "Weiden bei Rechnitz", "lat": "47.3", "lng": "16.35"}, {"country": "AT", "name": "Weiden am See", "lat": "47.92532", "lng": "16.86899"}, {"country": "AT", "name": "Weichselbaum", "lat": "46.9425", "lng": "16.1875"}, {"country": "AT", "name": "Weibern", "lat": "48.18333", "lng": "13.7"}, {"country": "AT", "name": "Weer", "lat": "47.3", "lng": "11.63333"}, {"country": "AT", "name": "Wattens", "lat": "47.29419", "lng": "11.5907"}, {"country": "AT", "name": "Wattenberg", "lat": "47.28333", "lng": "11.6"}, {"country": "AT", "name": "Wartmannstetten", "lat": "47.69359", "lng": "16.07506"}, {"country": "AT", "name": "Warth", "lat": "47.65", "lng": "16.11667"}, {"country": "AT", "name": "Warth", "lat": "47.25", "lng": "10.18333"}, {"country": "AT", "name": "Wartberg", "lat": "47.52717", "lng": "15.48095"}, {"country": "AT", "name": "W\u00e4ngle", "lat": "47.48658", "lng": "10.68995"}, {"country": "AT", "name": "Wang", "lat": "48.04538", "lng": "15.02672"}, {"country": "AT", "name": "Walpersbach", "lat": "47.71667", "lng": "16.23333"}, {"country": "AT", "name": "Wallern im Burgenland", "lat": "47.72847", "lng": "16.93706"}, {"country": "AT", "name": "Waldzell", "lat": "48.13562", "lng": "13.42701"}, {"country": "AT", "name": "Waldneukirchen", "lat": "47.99854", "lng": "14.25879"}, {"country": "AT", "name": "Waldkirchen an der Thaya", "lat": "48.93333", "lng": "15.35"}, {"country": "AT", "name": "Waldkirchen am Wesen", "lat": "48.44059", "lng": "13.82174"}, {"country": "AT", "name": "Walding", "lat": "48.35209", "lng": "14.1576"}, {"country": "AT", "name": "Wald im Pinzgau", "lat": "47.25", "lng": "12.23333"}, {"country": "AT", "name": "Waldhausen", "lat": "48.52183", "lng": "15.2625"}, {"country": "AT", "name": "Waldenstein", "lat": "48.72845", "lng": "15.01419"}, {"country": "AT", "name": "Waldegg", "lat": "47.86852", "lng": "16.05154"}, {"country": "AT", "name": "Wald am Schoberpa\u00df", "lat": "47.44936", "lng": "14.67567"}, {"country": "AT", "name": "Walchsee", "lat": "47.65163", "lng": "12.31868"}, {"country": "AT", "name": "Waizenkirchen", "lat": "48.33018", "lng": "13.85754"}, {"country": "AT", "name": "Waidring", "lat": "47.58333", "lng": "12.56667"}, {"country": "AT", "name": "Waidmannsfeld", "lat": "47.87042", "lng": "15.98116"}, {"country": "AT", "name": "Waidhofen an der Ybbs", "lat": "47.96004", "lng": "14.77361"}, {"country": "AT", "name": "Waidhofen an der Thaya", "lat": "48.81667", "lng": "15.28333"}, {"country": "AT", "name": "Wagrain", "lat": "47.33528", "lng": "13.29889"}, {"country": "AT", "name": "Wagna", "lat": "46.75", "lng": "15.55"}, {"country": "AT", "name": "Wildsch\u00f6nau", "lat": "47.40619", "lng": "12.03784"}, {"country": "AT", "name": "Wei\u00dfenkirchen im Attergau", "lat": "47.94964", "lng": "13.41843"}, {"country": "AT", "name": "Wagnergraben", "lat": "48.02036", "lng": "13.02395"}, {"country": "AT", "name": "Wasserburg", "lat": "48.27425", "lng": "14.56152"}, {"country": "AT", "name": "Wolfern", "lat": "48.08278", "lng": "14.37201"}, {"country": "AU", "name": "Wundowie", "lat": "-31.76163", "lng": "116.3799"}, {"country": "AU", "name": "Wooroloo", "lat": "-31.8038", "lng": "116.31311"}, {"country": "AU", "name": "Woodville", "lat": "-34.88333", "lng": "138.55"}, {"country": "AU", "name": "Woodside", "lat": "-34.95433", "lng": "138.87901"}, {"country": "AU", "name": "Wongan Hills", "lat": "-30.89294", "lng": "116.71925"}, {"country": "AU", "name": "Williamstown", "lat": "-34.6721", "lng": "138.89108"}, {"country": "AU", "name": "Willaston", "lat": "-34.58333", "lng": "138.75"}, {"country": "AU", "name": "Whyalla", "lat": "-33.03268", "lng": "137.56483"}, {"country": "AU", "name": "Wembley", "lat": "-31.93333", "lng": "115.8"}, {"country": "AU", "name": "Wellard", "lat": "-32.26667", "lng": "115.83333"}, {"country": "AU", "name": "Wayville", "lat": "-34.95", "lng": "138.58333"}, {"country": "AU", "name": "Waroona", "lat": "-32.84323", "lng": "115.92201"}, {"country": "AU", "name": "Wanneroo", "lat": "-31.75", "lng": "115.8"}, {"country": "AU", "name": "Wallaroo", "lat": "-33.93881", "lng": "137.63365"}, {"country": "AU", "name": "Waikerie", "lat": "-34.18178", "lng": "139.98552"}, {"country": "AU", "name": "Wagin", "lat": "-33.30894", "lng": "117.34328"}, {"country": "AU", "name": "Waggrakine", "lat": "-28.71883", "lng": "114.63924"}, {"country": "AU", "name": "Warnbro", "lat": "-32.34017", "lng": "115.7473"}, {"country": "AU", "name": "Wynyard", "lat": "-40.9897", "lng": "145.72617"}, {"country": "AU", "name": "Wynnum", "lat": "-27.44527", "lng": "153.15813"}, {"country": "AU", "name": "Worrolong", "lat": "-37.80619", "lng": "140.84803"}, {"country": "AU", "name": "Woree", "lat": "-16.95", "lng": "145.75"}, {"country": "AU", "name": "Woori Yallock", "lat": "-37.78062", "lng": "145.53819"}, {"country": "AU", "name": "Woorim", "lat": "-27.06931", "lng": "153.20427"}, {"country": "AU", "name": "Woombye", "lat": "-26.66054", "lng": "152.96947"}, {"country": "AU", "name": "Woolgoolga", "lat": "-30.11058", "lng": "153.20067"}, {"country": "AU", "name": "Woodridge", "lat": "-27.63333", "lng": "153.1"}, {"country": "AU", "name": "Woodford", "lat": "-26.95291", "lng": "152.77747"}, {"country": "AU", "name": "Wondai", "lat": "-26.3177", "lng": "151.87242"}, {"country": "AU", "name": "Wodonga", "lat": "-36.12179", "lng": "146.88809"}, {"country": "AU", "name": "Windsor", "lat": "-37.85344", "lng": "144.99241"}, {"country": "AU", "name": "Windaroo", "lat": "-27.73333", "lng": "153.2"}, {"country": "AU", "name": "Williamstown", "lat": "-37.86349", "lng": "144.899"}, {"country": "AU", "name": "Whittlesea", "lat": "-37.51152", "lng": "145.11836"}, {"country": "AU", "name": "Wheelers Hill", "lat": "-37.9", "lng": "145.18333"}, {"country": "AU", "name": "West Wyalong", "lat": "-33.92373", "lng": "147.20473"}, {"country": "AU", "name": "Westmead", "lat": "-33.80383", "lng": "150.98768"}, {"country": "AU", "name": "Westcourt", "lat": "-26.8", "lng": "150.15"}, {"country": "AU", "name": "Westbury", "lat": "-41.52914", "lng": "146.83914"}, {"country": "AU", "name": "Westbrook", "lat": "-27.61667", "lng": "151.86667"}, {"country": "AU", "name": "Werribee", "lat": "-37.9", "lng": "144.66667"}, {"country": "AU", "name": "Wellington Point", "lat": "-27.48333", "lng": "153.25"}, {"country": "AU", "name": "Wellington", "lat": "-32.55588", "lng": "148.94508"}, {"country": "AU", "name": "Weipa", "lat": "-12.62346", "lng": "141.87883"}, {"country": "AU", "name": "Wattleglen", "lat": "-37.66667", "lng": "145.18333"}, {"country": "AU", "name": "Watsonia", "lat": "-37.71667", "lng": "145.08333"}, {"country": "AU", "name": "Warwick", "lat": "-28.21901", "lng": "152.03438"}, {"country": "AU", "name": "Warrnambool", "lat": "-38.38176", "lng": "142.48799"}, {"country": "AU", "name": "Warrane", "lat": "-42.85546", "lng": "147.38297"}, {"country": "AU", "name": "Warrandyte", "lat": "-37.75", "lng": "145.23333"}, {"country": "AU", "name": "Warragul", "lat": "-38.15912", "lng": "145.93118"}, {"country": "AU", "name": "Wantirna South", "lat": "-37.88333", "lng": "145.21667"}, {"country": "AU", "name": "Wantirna", "lat": "-37.85", "lng": "145.21667"}, {"country": "AU", "name": "Wangaratta", "lat": "-36.35846", "lng": "146.32056"}, {"country": "AU", "name": "Walkerston", "lat": "-21.16097", "lng": "149.05814"}, {"country": "AU", "name": "Wahroonga", "lat": "-33.71816", "lng": "151.11561"}, {"country": "AU", "name": "Wagga Wagga", "lat": "-35.12577", "lng": "147.35375"}, {"country": "AU", "name": "Wacol", "lat": "-27.58333", "lng": "152.93333"}, {"country": "AU", "name": "Werribee South", "lat": "-37.9475", "lng": "144.71667"}, {"country": "AU", "name": "Wollongong", "lat": "-34.424", "lng": "150.89345"}, {"country": "AU", "name": "Woollahra", "lat": "-33.8878", "lng": "151.23681"}, {"country": "AU", "name": "Wooloowin", "lat": "-27.42244", "lng": "153.04204"}, {"country": "AU", "name": "Woolloongabba", "lat": "-27.48855", "lng": "153.03655"}, {"country": "AU", "name": "Windsor", "lat": "-27.43631", "lng": "153.02882"}, {"country": "AU", "name": "West Melbourne", "lat": "-37.81014", "lng": "144.95"}, {"country": "AU", "name": "Woody Point", "lat": "-27.25608", "lng": "153.10427"}, {"country": "AU", "name": "West Perth", "lat": "-31.94896", "lng": "115.84199"}, {"country": "AU", "name": "White Gum Valley", "lat": "-32.06031", "lng": "115.77058"}, {"country": "AU", "name": "Woodvale", "lat": "-31.78928", "lng": "115.79676"}, {"country": "AU", "name": "Warriewood", "lat": "-33.68857", "lng": "151.29534"}, {"country": "AU", "name": "Waterways", "lat": "-38.01478", "lng": "145.1305"}, {"country": "AU", "name": "Wyndham Vale", "lat": "-37.89138", "lng": "144.62368"}, {"country": "AU", "name": "Willetton", "lat": "-32.05251", "lng": "115.88782"}, {"country": "AU", "name": "Wilson", "lat": "-32.02058", "lng": "115.91181"}, {"country": "AU", "name": "Westminster", "lat": "-31.86744", "lng": "115.83919"}, {"country": "AU", "name": "Winthrop", "lat": "-32.05216", "lng": "115.82972"}, {"country": "AU", "name": "Wavell Heights", "lat": "-27.39385", "lng": "153.04698"}, {"country": "AU", "name": "Williams Landing", "lat": "-37.8619", "lng": "144.74371"}, {"country": "AU", "name": "Wilston", "lat": "-27.43218", "lng": "153.01904"}, {"country": "AU", "name": "Wynnum West", "lat": "-27.45824", "lng": "153.15319"}, {"country": "AU", "name": "Waterford West", "lat": "-27.69056", "lng": "153.13319"}, {"country": "AU", "name": "Watsonia North", "lat": "-37.69981", "lng": "145.08468"}, {"country": "AU", "name": "Westmeadows", "lat": "-37.67604", "lng": "144.88701"}, {"country": "AU", "name": "Warranwood", "lat": "-37.77555", "lng": "145.24728"}, {"country": "AU", "name": "Williamstown North", "lat": "-37.85515", "lng": "144.88259"}, {"country": "AU", "name": "West Footscray", "lat": "-37.79746", "lng": "144.87727"}, {"country": "AU", "name": "Wareemba", "lat": "-33.85819", "lng": "151.13085"}, {"country": "AU", "name": "Werrington County", "lat": "-33.7465", "lng": "150.73929"}, {"country": "AU", "name": "Werrington Downs", "lat": "-33.74206", "lng": "150.72779"}, {"country": "AU", "name": "West Pennant", "lat": "-33.7457", "lng": "151.04764"}, {"country": "AU", "name": "West Ryde", "lat": "-33.80543", "lng": "151.07386"}, {"country": "AU", "name": "Wollstonecraft", "lat": "-33.8328", "lng": "151.18981"}, {"country": "AU", "name": "Woronora Heights", "lat": "-34.03562", "lng": "151.02734"}, {"country": "AU", "name": "Wattle Park", "lat": "-34.92516", "lng": "138.67501"}, {"country": "AU", "name": "West Lakes Shore", "lat": "-34.8601", "lng": "138.48966"}, {"country": "AU", "name": "Woodville North", "lat": "-34.872", "lng": "138.54309"}, {"country": "AU", "name": "Woodville West", "lat": "-34.8864", "lng": "138.53095"}, {"country": "AU", "name": "Watermans Bay", "lat": "-31.84915", "lng": "115.7559"}, {"country": "AU", "name": "Wembley Downs", "lat": "-31.91169", "lng": "115.77358"}, {"country": "AU", "name": "West Leederville", "lat": "-31.94141", "lng": "115.83117"}, {"country": "AU", "name": "Woodbridge", "lat": "-31.88695", "lng": "115.99196"}, {"country": "AU", "name": "West Moonah", "lat": "-42.84996", "lng": "147.28181"}, {"country": "AU", "name": "Waratah", "lat": "-32.90667", "lng": "151.72647"}, {"country": "AU", "name": "Windale", "lat": "-32.99277", "lng": "151.68167"}, {"country": "AU", "name": "West Rockhampton", "lat": "-23.37941", "lng": "150.48175"}, {"country": "AU", "name": "West Wollongong", "lat": "-34.4248", "lng": "150.86417"}, {"country": "AU", "name": "White Hills", "lat": "-36.72875", "lng": "144.30525"}, {"country": "AU", "name": "Wandana Heights", "lat": "-38.17577", "lng": "144.30387"}, {"country": "AU", "name": "West Launceston", "lat": "-41.45092", "lng": "147.13114"}, {"country": "AU", "name": "Wilsonton Heights", "lat": "-27.53227", "lng": "151.92444"}, {"country": "AU", "name": "West Albury", "lat": "-36.07979", "lng": "146.89227"}, {"country": "BB", "name": "Welchman Hall", "lat": "13.18676", "lng": "-59.57663"}, {"country": "BE", "name": "Wuustwezel", "lat": "51.39214", "lng": "4.59546"}, {"country": "BE", "name": "Wommelgem", "lat": "51.20452", "lng": "4.5225"}, {"country": "BE", "name": "Wingene", "lat": "51.05782", "lng": "3.27359"}, {"country": "BE", "name": "Willebroek", "lat": "51.06041", "lng": "4.36019"}, {"country": "BE", "name": "Wijnegem", "lat": "51.22787", "lng": "4.51895"}, {"country": "BE", "name": "Wielsbeke", "lat": "50.9", "lng": "3.36667"}, {"country": "BE", "name": "Wichelen", "lat": "51.00526", "lng": "3.97683"}, {"country": "BE", "name": "Wezembeek-Oppem", "lat": "50.8395", "lng": "4.49427"}, {"country": "BE", "name": "Wevelgem", "lat": "50.8", "lng": "3.16667"}, {"country": "BE", "name": "Wetteren", "lat": "51.00526", "lng": "3.88341"}, {"country": "BE", "name": "Westerlo", "lat": "51.09049", "lng": "4.91544"}, {"country": "BE", "name": "Wervik", "lat": "50.78069", "lng": "3.03854"}, {"country": "BE", "name": "Wenduine", "lat": "51.2983", "lng": "3.08213"}, {"country": "BE", "name": "Wemmel", "lat": "50.90812", "lng": "4.30613"}, {"country": "BE", "name": "Wellin", "lat": "50.08133", "lng": "5.11413"}, {"country": "BE", "name": "Wellen", "lat": "50.84096", "lng": "5.33867"}, {"country": "BE", "name": "Welkenraedt", "lat": "50.6605", "lng": "5.97034"}, {"country": "BE", "name": "Wavre", "lat": "50.71717", "lng": "4.60138"}, {"country": "BE", "name": "Waterloo", "lat": "50.71469", "lng": "4.3991"}, {"country": "BE", "name": "Wasseiges", "lat": "50.62186", "lng": "5.00528"}, {"country": "BE", "name": "Waremme", "lat": "50.6976", "lng": "5.25524"}, {"country": "BE", "name": "Waregem", "lat": "50.88898", "lng": "3.42756"}, {"country": "BE", "name": "Wanze", "lat": "50.53907", "lng": "5.20846"}, {"country": "BE", "name": "Walhain-Saint-Paul", "lat": "50.62627", "lng": "4.69837"}, {"country": "BE", "name": "Walcourt", "lat": "50.25401", "lng": "4.43796"}, {"country": "BE", "name": "Waimes", "lat": "50.41488", "lng": "6.11207"}, {"country": "BE", "name": "Wachtebeke", "lat": "51.16852", "lng": "3.87183"}, {"country": "BE", "name": "Waasmunster", "lat": "51.10572", "lng": "4.08573"}, {"country": "BE", "name": "Waarschoot", "lat": "51.1525", "lng": "3.605"}, {"country": "BO", "name": "Warnes", "lat": "-17.5163", "lng": "-63.16778"}, {"country": "BR", "name": "Wenceslau Braz", "lat": "-23.87389", "lng": "-49.80278"}, {"country": "BS", "name": "West End", "lat": "26.68711", "lng": "-78.97702"}, {"country": "BT", "name": "Wangdue Phodrang", "lat": "27.48615", "lng": "89.89915"}, {"country": "BW", "name": "Werda", "lat": "-25.26667", "lng": "23.28333"}, {"country": "CA", "name": "Wabana", "lat": "47.63319", "lng": "-52.94806"}, {"country": "CA", "name": "Wadena", "lat": "51.94999", "lng": "-103.80102"}, {"country": "CA", "name": "Wainwright", "lat": "52.83482", "lng": "-110.85342"}, {"country": "CA", "name": "Wakefield", "lat": "45.6668", "lng": "-75.83265"}, {"country": "CA", "name": "Walpole Island", "lat": "42.6152", "lng": "-82.51398"}, {"country": "CA", "name": "Warman", "lat": "52.31679", "lng": "-106.56791"}, {"country": "CA", "name": "Warwick", "lat": "45.95007", "lng": "-71.9824"}, {"country": "CA", "name": "Wasaga Beach", "lat": "44.5168", "lng": "-80.01637"}, {"country": "CA", "name": "Waswanipi", "lat": "49.73346", "lng": "-76.16604"}, {"country": "CA", "name": "Waterloo", "lat": "45.35008", "lng": "-72.51582"}, {"country": "CA", "name": "Waterloo", "lat": "43.4668", "lng": "-80.51639"}, {"country": "CA", "name": "Watrous", "lat": "51.66677", "lng": "-105.46788"}, {"country": "CA", "name": "Watson Lake", "lat": "60.06349", "lng": "-128.70893"}, {"country": "CA", "name": "Welland", "lat": "42.98342", "lng": "-79.24958"}, {"country": "CA", "name": "Wembley", "lat": "55.14995", "lng": "-119.13602"}, {"country": "CA", "name": "West End", "lat": "49.28333", "lng": "-123.13333"}, {"country": "CA", "name": "Westlock", "lat": "54.15016", "lng": "-113.86876"}, {"country": "CA", "name": "Westmount", "lat": "45.48341", "lng": "-73.59918"}, {"country": "CA", "name": "Wetaskiwin", "lat": "52.96683", "lng": "-113.36869"}, {"country": "CA", "name": "Weyburn", "lat": "49.66675", "lng": "-103.85109"}, {"country": "CA", "name": "Whistler", "lat": "50.1164", "lng": "-122.96946"}, {"country": "CA", "name": "White City", "lat": "50.43338", "lng": "-104.36778"}, {"country": "CA", "name": "Whitecourt", "lat": "54.15015", "lng": "-115.68548"}, {"country": "CA", "name": "Whitehorse", "lat": "60.71611", "lng": "-135.05375"}, {"country": "CA", "name": "White Rock", "lat": "49.01636", "lng": "-122.8026"}, {"country": "CA", "name": "Wilkie", "lat": "52.41683", "lng": "-108.70142"}, {"country": "CA", "name": "Williams Lake", "lat": "52.14153", "lng": "-122.14451"}, {"country": "CA", "name": "Windsor", "lat": "44.98345", "lng": "-64.13204"}, {"country": "CA", "name": "Windsor", "lat": "45.56678", "lng": "-71.99909"}, {"country": "CA", "name": "Windsor", "lat": "42.30008", "lng": "-83.01654"}, {"country": "CA", "name": "Wingham", "lat": "43.88793", "lng": "-81.31145"}, {"country": "CA", "name": "Winkler", "lat": "49.1817", "lng": "-97.94104"}, {"country": "CA", "name": "Winnipeg", "lat": "49.8844", "lng": "-97.14704"}, {"country": "CA", "name": "Wolfville", "lat": "45.08345", "lng": "-64.36546"}, {"country": "CA", "name": "Woodstock", "lat": "43.13339", "lng": "-80.7497"}, {"country": "CA", "name": "Wynyard", "lat": "51.76674", "lng": "-104.18436"}, {"country": "CA", "name": "West Kelowna", "lat": "49.8625", "lng": "-119.58333"}, {"country": "CA", "name": "Walnut Grove", "lat": "49.16473", "lng": "-122.64042"}, {"country": "CA", "name": "West Vancouver", "lat": "49.36672", "lng": "-123.16652"}, {"country": "CA", "name": "Willowdale", "lat": "43.76672", "lng": "-79.39909"}, {"country": "CA", "name": "Wild Rose", "lat": "53.4708", "lng": "-113.38119"}, {"country": "CC", "name": "West Island", "lat": "-12.15681", "lng": "96.82251"}, {"country": "CD", "name": "Watsa", "lat": "3.03716", "lng": "29.53551"}, {"country": "CD", "name": "Wamba", "lat": "2.14838", "lng": "27.99466"}, {"country": "CH", "name": "Wyssachen", "lat": "47.07851", "lng": "7.82922"}, {"country": "CH", "name": "Wynigen", "lat": "47.10586", "lng": "7.66681"}, {"country": "CH", "name": "Wynau", "lat": "47.2557", "lng": "7.81626"}, {"country": "CH", "name": "W\u00fcrenlos", "lat": "47.44205", "lng": "8.36261"}, {"country": "CH", "name": "W\u00fcrenlingen", "lat": "47.53356", "lng": "8.25666"}, {"country": "CH", "name": "Worben", "lat": "47.10279", "lng": "7.29518"}, {"country": "CH", "name": "Worb", "lat": "46.92984", "lng": "7.56306"}, {"country": "CH", "name": "Wollerau", "lat": "47.19478", "lng": "8.71903"}, {"country": "CH", "name": "Wolhusen", "lat": "47.05983", "lng": "8.07389"}, {"country": "CH", "name": "Wolfwil", "lat": "47.26871", "lng": "7.79652"}, {"country": "CH", "name": "W\u00f6lflinswil", "lat": "47.4607", "lng": "7.99835"}, {"country": "CH", "name": "Wolfenschiessen", "lat": "46.90322", "lng": "8.39423"}, {"country": "CH", "name": "Wohlen", "lat": "47.35066", "lng": "8.27517"}, {"country": "CH", "name": "Wohlen", "lat": "46.97118", "lng": "7.35685"}, {"country": "CH", "name": "Wittnau", "lat": "47.48139", "lng": "7.97577"}, {"country": "CH", "name": "Wittenbach", "lat": "47.46108", "lng": "9.38601"}, {"country": "CH", "name": "Winterthur", "lat": "47.50564", "lng": "8.72413"}, {"country": "CH", "name": "Windisch", "lat": "47.47899", "lng": "8.21842"}, {"country": "CH", "name": "Wimmis", "lat": "46.67587", "lng": "7.63972"}, {"country": "CH", "name": "Willisau", "lat": "47.12183", "lng": "7.99418"}, {"country": "CH", "name": "Wildhaus", "lat": "47.20583", "lng": "9.35402"}, {"country": "CH", "name": "Wilderswil", "lat": "46.66369", "lng": "7.86175"}, {"country": "CH", "name": "Wilchingen", "lat": "47.66745", "lng": "8.46774"}, {"country": "CH", "name": "Wila", "lat": "47.41928", "lng": "8.84524"}, {"country": "CH", "name": "Wil", "lat": "47.46152", "lng": "9.04552"}, {"country": "CH", "name": "Wikon", "lat": "47.26339", "lng": "7.96801"}, {"country": "CH", "name": "Wigoltingen", "lat": "47.5977", "lng": "9.03141"}, {"country": "CH", "name": "Wiesendangen / Wiesendangen (Dorf)", "lat": "47.5217", "lng": "8.78967"}, {"country": "CH", "name": "Wiedlisbach", "lat": "47.25194", "lng": "7.6461"}, {"country": "CH", "name": "Wetzikon", "lat": "47.3264", "lng": "8.79779"}, {"country": "CH", "name": "Wettingen", "lat": "47.47049", "lng": "8.31636"}, {"country": "CH", "name": "Werthenstein", "lat": "47.05578", "lng": "8.10182"}, {"country": "CH", "name": "Welschenrohr", "lat": "47.28052", "lng": "7.52664"}, {"country": "CH", "name": "Weisslingen", "lat": "47.43063", "lng": "8.76787"}, {"country": "CH", "name": "Weiningen", "lat": "47.42022", "lng": "8.43644"}, {"country": "CH", "name": "Weinfelden", "lat": "47.56667", "lng": "9.1"}, {"country": "CH", "name": "Weggis", "lat": "47.03208", "lng": "8.43219"}, {"country": "CH", "name": "Wegenstetten", "lat": "47.49797", "lng": "7.93141"}, {"country": "CH", "name": "Weesen", "lat": "47.13447", "lng": "9.09644"}, {"country": "CH", "name": "Wauwil", "lat": "47.18457", "lng": "8.021"}, {"country": "CH", "name": "Wattwil", "lat": "47.29955", "lng": "9.08657"}, {"country": "CH", "name": "Wattenwil", "lat": "46.76973", "lng": "7.50835"}, {"country": "CH", "name": "W\u00e4ngi", "lat": "47.49654", "lng": "8.95325"}, {"country": "CH", "name": "Wangen an der Aare", "lat": "47.23208", "lng": "7.65253"}, {"country": "CH", "name": "Wangen", "lat": "47.34365", "lng": "7.86982"}, {"country": "CH", "name": "Walzenhausen", "lat": "47.44867", "lng": "9.60495"}, {"country": "CH", "name": "Waltenschwil", "lat": "47.33339", "lng": "8.29791"}, {"country": "CH", "name": "Wallisellen", "lat": "47.41499", "lng": "8.59672"}, {"country": "CH", "name": "Walenstadt", "lat": "47.12411", "lng": "9.31194"}, {"country": "CH", "name": "Walkringen", "lat": "46.94856", "lng": "7.6204"}, {"country": "CH", "name": "Waldstatt", "lat": "47.35627", "lng": "9.28345"}, {"country": "CH", "name": "Waldkirch", "lat": "47.46859", "lng": "9.28665"}, {"country": "CH", "name": "Waldenburg", "lat": "47.38333", "lng": "7.75"}, {"country": "CH", "name": "Wald", "lat": "47.27595", "lng": "8.91405"}, {"country": "CH", "name": "Walchwil", "lat": "47.10169", "lng": "8.51693"}, {"country": "CH", "name": "Wahlen", "lat": "47.40226", "lng": "7.51511"}, {"country": "CH", "name": "Wagenhausen", "lat": "47.66003", "lng": "8.84782"}, {"country": "CH", "name": "W\u00e4denswil", "lat": "47.22683", "lng": "8.6687"}, {"country": "CH", "name": "Wetzikon / Unter-Wetzikon", "lat": "47.31637", "lng": "8.79369"}, {"country": "CH", "name": "Wetzikon / Ober-Wetzikon", "lat": "47.32514", "lng": "8.80005"}, {"country": "CH", "name": "Wichtrach", "lat": "46.8501", "lng": "7.57748"}, {"country": "CH", "name": "Wettswil / Wettswil (Dorf)", "lat": "47.34152", "lng": "8.47149"}, {"country": "CH", "name": "Wettswil / Ausser-Dorf", "lat": "47.33197", "lng": "8.47732"}, {"country": "CH", "name": "Wallisellen / Wallisellen-West", "lat": "47.41906", "lng": "8.58586"}, {"country": "CH", "name": "Wallisellen / Wallisellen-Ost", "lat": "47.41446", "lng": "8.59727"}, {"country": "CH", "name": "Wallisellen / Rieden", "lat": "47.41738", "lng": "8.60028"}, {"country": "CH", "name": "Wetzikon / Robenhausen", "lat": "47.33089", "lng": "8.78762"}, {"country": "CH", "name": "Wetzikon / Kempten", "lat": "47.33319", "lng": "8.80982"}, {"country": "CH", "name": "W\u00e4denswil / Dorf (W\u00e4denswil)", "lat": "47.22923", "lng": "8.6722"}, {"country": "CH", "name": "W\u00e4denswil / Hangenmoos", "lat": "47.23367", "lng": "8.65251"}, {"country": "CH", "name": "W\u00e4denswil / B\u00fcelen", "lat": "47.23395", "lng": "8.66346"}, {"country": "CH", "name": "W\u00e4denswil / Untermosen-Fuhr", "lat": "47.22772", "lng": "8.66303"}, {"country": "CH", "name": "W\u00e4denswil / Leihof-M\u00fchlebach", "lat": "47.22364", "lng": "8.67149"}, {"country": "CH", "name": "W\u00e4denswil / Eichweid", "lat": "47.21847", "lng": "8.6744"}, {"country": "CH", "name": "W\u00e4denswil / Boller-Giessen", "lat": "47.22115", "lng": "8.68385"}, {"country": "CH", "name": "Wangen", "lat": "47.41182", "lng": "8.64516"}, {"country": "CH", "name": "W\u00fclflingen (Kreis 6) / Oberfeld", "lat": "47.49873", "lng": "8.69897"}, {"country": "CH", "name": "W\u00fclflingen (Kreis 6) / Lindenplatz", "lat": "47.51098", "lng": "8.6929"}, {"country": "CH", "name": "W\u00fclflingen (Kreis 6) / Niederfeld", "lat": "47.50904", "lng": "8.67968"}, {"country": "CH", "name": "W\u00fclflingen (Kreis 6) / H\u00e4rti", "lat": "47.51262", "lng": "8.684"}, {"country": "CH", "name": "W\u00fclflingen (Kreis 6)", "lat": "47.51036", "lng": "8.68333"}, {"country": "CH", "name": "Wolfhausen", "lat": "47.25619", "lng": "8.7991"}, {"country": "CH", "name": "Wettswil", "lat": "47.33725", "lng": "8.47527"}, {"country": "CH", "name": "Walliswil bei Niederbipp", "lat": "47.23625", "lng": "7.68991"}, {"country": "CM", "name": "Wum", "lat": "6.38333", "lng": "10.06667"}, {"country": "CN", "name": "Wangda", "lat": "29.67445", "lng": "97.83736"}, {"country": "CN", "name": "Wushi", "lat": "41.15167", "lng": "79.225"}, {"country": "CN", "name": "Wujiaqu", "lat": "44.16963", "lng": "87.53497"}, {"country": "CN", "name": "Wensu", "lat": "41.27196", "lng": "80.24085"}, {"country": "CN", "name": "Wenchang", "lat": "31.63625", "lng": "105.15502"}, {"country": "CN", "name": "Wufeng", "lat": "27.45", "lng": "104.83333"}, {"country": "CN", "name": "Wulingyuan", "lat": "29.34936", "lng": "110.54407"}, {"country": "CN", "name": "Weifen", "lat": "38.48064", "lng": "111.16664"}, {"country": "CN", "name": "Wacheng", "lat": "33.78333", "lng": "114.51667"}, {"country": "CN", "name": "Wenxing", "lat": "28.68208", "lng": "112.87864"}, {"country": "CN", "name": "Wuzhou", "lat": "23.48333", "lng": "111.31667"}, {"country": "CN", "name": "Wuzhong", "lat": "37.9867", "lng": "106.201"}, {"country": "CN", "name": "Wuzhen", "lat": "30.74536", "lng": "120.4851"}, {"country": "CN", "name": "Wuyun", "lat": "28.65388", "lng": "120.06693"}, {"country": "CN", "name": "Wuyuan", "lat": "30.51539", "lng": "120.94856"}, {"country": "CN", "name": "Wuyu", "lat": "24.33551", "lng": "118.14489"}, {"country": "CN", "name": "Wuquan", "lat": "33.44408", "lng": "113.5709"}, {"country": "CN", "name": "Wuyang", "lat": "31.9925", "lng": "116.24722"}, {"country": "CN", "name": "Wujin", "lat": "30.41131", "lng": "103.81302"}, {"country": "CN", "name": "Wuyang", "lat": "26.74278", "lng": "110.32833"}, {"country": "CN", "name": "Wuxue", "lat": "29.85058", "lng": "115.5525"}, {"country": "CN", "name": "Wuxuan", "lat": "23.62466", "lng": "109.65201"}, {"country": "CN", "name": "Wuxia", "lat": "31.07971", "lng": "109.87588"}, {"country": "CN", "name": "Wuxi", "lat": "31.56887", "lng": "120.28857"}, {"country": "CN", "name": "Wuqi", "lat": "36.92631", "lng": "108.17171"}, {"country": "CN", "name": "Wujiashan", "lat": "30.61702", "lng": "114.13166"}, {"country": "CN", "name": "Wuhu", "lat": "31.33728", "lng": "118.37351"}, {"country": "CN", "name": "Wuhe Chengguanzhen", "lat": "33.1386", "lng": "117.86582"}, {"country": "CN", "name": "Wuhan", "lat": "30.58333", "lng": "114.26667"}, {"country": "CN", "name": "Wuhai", "lat": "39.68442", "lng": "106.81583"}, {"country": "CN", "name": "Wufeng", "lat": "30.2", "lng": "110.69081"}, {"country": "CN", "name": "Wuda", "lat": "39.49944", "lng": "106.71167"}, {"country": "CN", "name": "Wucheng", "lat": "31.2837", "lng": "117.90193"}, {"country": "CN", "name": "Wucheng", "lat": "29.60077", "lng": "118.17495"}, {"country": "CN", "name": "Wenzhou", "lat": "27.99942", "lng": "120.66682"}, {"country": "CN", "name": "Wenquan", "lat": "34.93528", "lng": "113.07333"}, {"country": "CN", "name": "Wenxian Chengguanzhen", "lat": "32.94712", "lng": "104.68139"}, {"country": "CN", "name": "Wenshui", "lat": "28.45056", "lng": "106.52667"}, {"country": "CN", "name": "Wenshang", "lat": "35.7275", "lng": "116.49611"}, {"country": "CN", "name": "Wenquan", "lat": "30.84928", "lng": "115.6991"}, {"country": "CN", "name": "Wenping", "lat": "27.19306", "lng": "103.5273"}, {"country": "CN", "name": "Wenling", "lat": "28.37524", "lng": "121.38416"}, {"country": "CN", "name": "Wenlin", "lat": "29.99814", "lng": "104.13992"}, {"country": "CN", "name": "Wenfeng", "lat": "27.19899", "lng": "115.11963"}, {"country": "CN", "name": "Wenchang", "lat": "19.6157", "lng": "110.74894"}, {"country": "CN", "name": "Weizhou", "lat": "31.49267", "lng": "103.58491"}, {"country": "CN", "name": "Weiyuan", "lat": "36.85316", "lng": "101.99169"}, {"country": "CN", "name": "Weiyuan", "lat": "23.46831", "lng": "100.68354"}, {"country": "CN", "name": "Weitang", "lat": "30.85021", "lng": "120.91138"}, {"country": "CN", "name": "Weishi Chengguanzhen", "lat": "34.41361", "lng": "114.18722"}, {"country": "CN", "name": "Weinan", "lat": "34.50355", "lng": "109.50891"}, {"country": "CN", "name": "Weihai", "lat": "37.50914", "lng": "122.11356"}, {"country": "CN", "name": "Weifang", "lat": "36.71", "lng": "119.10194"}, {"country": "CN", "name": "Wanzhi", "lat": "31.14687", "lng": "118.56708"}, {"country": "CN", "name": "Wanxian", "lat": "30.81544", "lng": "108.37089"}, {"country": "CN", "name": "Wantouqiao", "lat": "26.84111", "lng": "110.61944"}, {"country": "CN", "name": "Wansheng", "lat": "28.9629", "lng": "106.92844"}, {"country": "CN", "name": "Wanshan", "lat": "27.5232", "lng": "109.206"}, {"country": "CN", "name": "Wanning", "lat": "18.79931", "lng": "110.3841"}, {"country": "CN", "name": "Wangqinzhuang", "lat": "39.22942", "lng": "117.08968"}, {"country": "CN", "name": "Wangbuzhuang", "lat": "39.6775", "lng": "117.42861"}, {"country": "CN", "name": "Wafangdian", "lat": "39.61833", "lng": "122.00806"}, {"country": "CN", "name": "Wusong", "lat": "30.95", "lng": "117.78333"}, {"country": "CN", "name": "Wuxue Shi", "lat": "29.91525", "lng": "115.41432"}, {"country": "CN", "name": "Wuxi", "lat": "26.5844", "lng": "111.859"}, {"country": "CN", "name": "Wenlan", "lat": "23.36002", "lng": "103.43684"}, {"country": "CN", "name": "Wuchuan", "lat": "21.45713", "lng": "110.76591"}, {"country": "CN", "name": "Wenquan", "lat": "22.32528", "lng": "110.25556"}, {"country": "CN", "name": "Wuling", "lat": "39.46799", "lng": "114.14843"}, {"country": "CN", "name": "Wuwei", "lat": "37.92672", "lng": "102.63202"}, {"country": "CN", "name": "Wulan", "lat": "36.56541", "lng": "104.68401"}, {"country": "CN", "name": "Wenbi", "lat": "39.3874", "lng": "111.19115"}, {"country": "CN", "name": "Wu\u2019an", "lat": "24.60387", "lng": "117.74539"}, {"country": "CN", "name": "Weining", "lat": "26.85", "lng": "104.23333"}, {"country": "CN", "name": "Wubu", "lat": "24.59589", "lng": "118.55359"}, {"country": "CN", "name": "Wuyishan", "lat": "27.75995", "lng": "118.03066"}, {"country": "CN", "name": "Weiwangzhuang", "lat": "39.025", "lng": "117.44083"}, {"country": "CN", "name": "Wumahe", "lat": "47.72348", "lng": "128.79277"}, {"country": "CN", "name": "Wudan", "lat": "42.93444", "lng": "119.02389"}, {"country": "CN", "name": "Wuchang", "lat": "44.91428", "lng": "127.15001"}, {"country": "CN", "name": "Weichang", "lat": "41.94472", "lng": "117.74806"}, {"country": "CN", "name": "Wangqing", "lat": "43.32179", "lng": "129.76342"}, {"country": "CN", "name": "Wangkui", "lat": "46.83283", "lng": "126.47768"}, {"country": "CN", "name": "Wenquan", "lat": "47.18333", "lng": "119.96667"}, {"country": "CN", "name": "Weicheng", "lat": "34.3314", "lng": "108.71691"}, {"country": "CN", "name": "Weiyang", "lat": "34.2906", "lng": "108.93554"}, {"country": "CN", "name": "Wuhu", "lat": "31.1463", "lng": "118.56465"}, {"country": "CN", "name": "Wenquan", "lat": "47.1756", "lng": "119.94809"}, {"country": "CN", "name": "Wenhe", "lat": "32.39523", "lng": "119.42688"}, {"country": "CN", "name": "Wulaocun", "lat": "32.03437", "lng": "118.79575"}, {"country": "CN", "name": "Wanghailou", "lat": "39.15954", "lng": "117.20338"}, {"country": "CN", "name": "Wuma", "lat": "28.01731", "lng": "120.66595"}, {"country": "CN", "name": "Wenhua", "lat": "37.39106", "lng": "121.58959"}, {"country": "CN", "name": "Wenshan City", "lat": "23.36306", "lng": "104.25047"}, {"country": "CN", "name": "Wangyue", "lat": "28.2359", "lng": "112.917"}, {"country": "CW", "name": "Willemstad", "lat": "12.1084", "lng": "-68.93354"}, {"country": "DE", "name": "Wyk auf F\u00f6hr", "lat": "54.6914", "lng": "8.56702"}, {"country": "DE", "name": "Wyhl", "lat": "48.16617", "lng": "7.64917"}, {"country": "DE", "name": "Wut\u00f6schingen", "lat": "47.66019", "lng": "8.36755"}, {"country": "DE", "name": "Wustrow", "lat": "53.47765", "lng": "13.15569"}, {"country": "DE", "name": "Wustrow", "lat": "52.9237", "lng": "11.12846"}, {"country": "DE", "name": "Wusterwitz", "lat": "52.36666", "lng": "12.38488"}, {"country": "DE", "name": "Wustermark", "lat": "52.55", "lng": "12.95"}, {"country": "DE", "name": "Wusterhusen", "lat": "54.11312", "lng": "13.61608"}, {"country": "DE", "name": "Wusterhausen", "lat": "52.8912", "lng": "12.46021"}, {"country": "DE", "name": "W\u00fcstenrot", "lat": "49.08083", "lng": "9.46056"}, {"country": "DE", "name": "Wurzen", "lat": "51.3707", "lng": "12.73939"}, {"country": "DE", "name": "W\u00fcrzburg", "lat": "49.79391", "lng": "9.95121"}, {"country": "DE", "name": "Wurzbach", "lat": "50.46357", "lng": "11.53779"}, {"country": "DE", "name": "W\u00fcrselen", "lat": "50.81809", "lng": "6.1347"}, {"country": "DE", "name": "Wurmsham", "lat": "48.35", "lng": "12.33333"}, {"country": "DE", "name": "Wurmlingen", "lat": "48", "lng": "8.78333"}, {"country": "DE", "name": "Wurmberg", "lat": "48.86667", "lng": "8.81667"}, {"country": "DE", "name": "Wurmannsquick", "lat": "48.35334", "lng": "12.78603"}, {"country": "DE", "name": "Wuppertal", "lat": "51.27027", "lng": "7.16755"}, {"country": "DE", "name": "Wunstorf", "lat": "52.42377", "lng": "9.43585"}, {"country": "DE", "name": "Wunsiedel", "lat": "50.03923", "lng": "12.00342"}, {"country": "DE", "name": "W\u00fcnschendorf", "lat": "50.79662", "lng": "12.09824"}, {"country": "DE", "name": "W\u00fcnnenberg", "lat": "51.52002", "lng": "8.69934"}, {"country": "DE", "name": "Wulsb\u00fcttel", "lat": "53.31667", "lng": "8.66667"}, {"country": "DE", "name": "W\u00fclknitz", "lat": "51.36667", "lng": "13.4"}, {"country": "DE", "name": "Wulkenzin", "lat": "53.54445", "lng": "13.16921"}, {"country": "DE", "name": "Wulften", "lat": "51.65999", "lng": "10.17437"}, {"country": "DE", "name": "Wulfsen", "lat": "53.3", "lng": "10.15"}, {"country": "DE", "name": "W\u00fclfrath", "lat": "51.28195", "lng": "7.03821"}, {"country": "DE", "name": "W\u00fclfershausen", "lat": "50.33201", "lng": "10.34084"}, {"country": "DE", "name": "Wulfen", "lat": "51.81938", "lng": "11.93063"}, {"country": "DE", "name": "Wrist", "lat": "53.93333", "lng": "9.76667"}, {"country": "DE", "name": "Wriezen", "lat": "52.72091", "lng": "14.13425"}, {"country": "DE", "name": "Wriedel", "lat": "53.0313", "lng": "10.29848"}, {"country": "DE", "name": "Wrestedt", "lat": "52.90435", "lng": "10.57494"}, {"country": "DE", "name": "Wremen", "lat": "53.65", "lng": "8.51667"}, {"country": "DE", "name": "W\u00f6ssingen", "lat": "49.01205", "lng": "8.60754"}, {"country": "DE", "name": "W\u00f6rthsee", "lat": "48.0725", "lng": "11.20175"}, {"country": "DE", "name": "W\u00f6rth an der Isar", "lat": "48.623", "lng": "12.33944"}, {"country": "DE", "name": "W\u00f6rth an der Donau", "lat": "49.00093", "lng": "12.40539"}, {"country": "DE", "name": "W\u00f6rth am Rhein", "lat": "49.04888", "lng": "8.25959"}, {"country": "DE", "name": "W\u00f6rth am Main", "lat": "49.7972", "lng": "9.15389"}, {"country": "DE", "name": "W\u00f6rt", "lat": "49.03047", "lng": "10.27239"}, {"country": "DE", "name": "W\u00f6rrstadt", "lat": "49.84861", "lng": "8.12417"}, {"country": "DE", "name": "Worpswede", "lat": "53.21667", "lng": "8.93333"}, {"country": "DE", "name": "Worms", "lat": "49.63278", "lng": "8.35916"}, {"country": "DE", "name": "W\u00f6rlitz", "lat": "51.84172", "lng": "12.42116"}, {"country": "DE", "name": "Woringen", "lat": "47.91667", "lng": "10.2"}, {"country": "DE", "name": "Worbis", "lat": "51.41997", "lng": "10.3633"}, {"country": "DE", "name": "Wonsees", "lat": "49.97614", "lng": "11.30047"}, {"country": "DE", "name": "Wonfurt", "lat": "50.01667", "lng": "10.46667"}, {"country": "DE", "name": "Woltersdorf", "lat": "52.95", "lng": "11.21667"}, {"country": "DE", "name": "Woltersdorf", "lat": "52.45554", "lng": "13.74986"}, {"country": "DE", "name": "Wolsdorf", "lat": "52.19098", "lng": "10.93878"}, {"country": "DE", "name": "W\u00f6lpinghausen", "lat": "52.41667", "lng": "9.23333"}, {"country": "DE", "name": "Wolpertswende", "lat": "47.89471", "lng": "9.61202"}, {"country": "DE", "name": "Wolpertshausen", "lat": "49.1675", "lng": "9.84472"}, {"country": "DE", "name": "Wolnzach", "lat": "48.6038", "lng": "11.62568"}, {"country": "DE", "name": "Wolmirstedt", "lat": "52.24856", "lng": "11.62945"}, {"country": "DE", "name": "Wolmirsleben", "lat": "51.95", "lng": "11.48333"}, {"country": "DE", "name": "W\u00f6llstein", "lat": "49.81667", "lng": "7.96667"}, {"country": "DE", "name": "Wollbach", "lat": "50.36667", "lng": "10.23333"}, {"country": "DE", "name": "Wolkramshausen", "lat": "51.42185", "lng": "10.73815"}, {"country": "DE", "name": "Wolkenstein", "lat": "50.65552", "lng": "13.07132"}, {"country": "DE", "name": "Wolken", "lat": "50.33333", "lng": "7.46667"}, {"country": "DE", "name": "Wolgast", "lat": "54.05275", "lng": "13.77201"}, {"country": "DE", "name": "Wolfstein", "lat": "49.58411", "lng": "7.60496"}, {"country": "DE", "name": "Wolfsegg", "lat": "49.10731", "lng": "11.9781"}, {"country": "DE", "name": "Wolfschlugen", "lat": "48.65", "lng": "9.28333"}, {"country": "DE", "name": "Wolfsburg", "lat": "52.42452", "lng": "10.7815"}, {"country": "DE", "name": "Wolfratshausen", "lat": "47.91289", "lng": "11.42166"}, {"country": "DE", "name": "Wolframs-Eschenbach", "lat": "49.22675", "lng": "10.72769"}, {"country": "DE", "name": "W\u00f6lfis", "lat": "50.80825", "lng": "10.77905"}, {"country": "DE", "name": "Wolfhagen", "lat": "51.32611", "lng": "9.17015"}, {"country": "DE", "name": "Wolfertschwenden", "lat": "47.8935", "lng": "10.26715"}, {"country": "DE", "name": "Wolferstadt", "lat": "48.90352", "lng": "10.78129"}, {"country": "DE", "name": "W\u00f6lfersheim", "lat": "50.4", "lng": "8.81667"}, {"country": "DE", "name": "Wolfersdorf", "lat": "48.47937", "lng": "11.70949"}, {"country": "DE", "name": "Wolferode", "lat": "51.5065", "lng": "11.51299"}, {"country": "DE", "name": "Wolfenb\u00fcttel", "lat": "52.16442", "lng": "10.54095"}, {"country": "DE", "name": "Wolfen", "lat": "51.66122", "lng": "12.26873"}, {"country": "DE", "name": "Wolfegg", "lat": "47.8203", "lng": "9.79491"}, {"country": "DE", "name": "Wolfach", "lat": "48.29319", "lng": "8.2158"}, {"country": "DE", "name": "Woldegk", "lat": "53.46058", "lng": "13.58356"}, {"country": "DE", "name": "W\u00f6hrden", "lat": "54.16667", "lng": "9"}, {"country": "DE", "name": "Wohnbach", "lat": "50.42864", "lng": "8.82923"}, {"country": "DE", "name": "Wohltorf", "lat": "53.51667", "lng": "10.28333"}, {"country": "DE", "name": "Wohldorf-Ohlstedt", "lat": "53.69282", "lng": "10.13117"}, {"country": "DE", "name": "Witzmannsberg", "lat": "48.62224", "lng": "13.49444"}, {"country": "DE", "name": "Witzhave", "lat": "53.56667", "lng": "10.33333"}, {"country": "DE", "name": "Witzenhausen", "lat": "51.34103", "lng": "9.8554"}, {"country": "DE", "name": "Wittstock", "lat": "53.16118", "lng": "12.48287"}, {"country": "DE", "name": "Wittorf", "lat": "53.33333", "lng": "10.38333"}, {"country": "DE", "name": "Wittorf", "lat": "53.01207", "lng": "9.51675"}, {"country": "DE", "name": "Wittnau", "lat": "47.95", "lng": "7.81667"}, {"country": "DE", "name": "Wittmund", "lat": "53.57674", "lng": "7.77839"}, {"country": "DE", "name": "Wittmar", "lat": "52.12969", "lng": "10.64"}, {"country": "DE", "name": "Wittlich", "lat": "49.98596", "lng": "6.89308"}, {"country": "DE", "name": "Wittislingen", "lat": "48.61917", "lng": "10.41722"}, {"country": "DE", "name": "Wittingen", "lat": "52.72694", "lng": "10.73613"}, {"country": "DE", "name": "Wittichenau", "lat": "51.38496", "lng": "14.24403"}, {"country": "DE", "name": "Wittgensdorf", "lat": "50.88316", "lng": "12.87031"}, {"country": "DE", "name": "Witterda", "lat": "51.03615", "lng": "10.89028"}, {"country": "DE", "name": "Wittenhagen", "lat": "54.18379", "lng": "13.07133"}, {"country": "DE", "name": "Wittenf\u00f6rden", "lat": "53.62917", "lng": "11.32982"}, {"country": "DE", "name": "Wittenburg", "lat": "53.50599", "lng": "11.08049"}, {"country": "DE", "name": "Wittenberge", "lat": "53.00543", "lng": "11.75032"}, {"country": "DE", "name": "Wittenau", "lat": "52.59319", "lng": "13.32127"}, {"country": "DE", "name": "Witten", "lat": "51.44362", "lng": "7.35258"}, {"country": "DE", "name": "Wittelshofen", "lat": "49.06121", "lng": "10.48121"}, {"country": "DE", "name": "Wistedt", "lat": "53.26667", "lng": "9.68333"}, {"country": "DE", "name": "Wissen", "lat": "50.77915", "lng": "7.73466"}, {"country": "DE", "name": "Wismar", "lat": "53.89314", "lng": "11.45286"}, {"country": "DE", "name": "Wischhafen", "lat": "53.78333", "lng": "9.31667"}, {"country": "DE", "name": "Wirsberg", "lat": "50.10572", "lng": "11.60515"}, {"country": "DE", "name": "Wirges", "lat": "50.47195", "lng": "7.79844"}, {"country": "DE", "name": "Wirdum", "lat": "53.47667", "lng": "7.20594"}, {"country": "DE", "name": "Wippra", "lat": "51.573", "lng": "11.27498"}, {"country": "DE", "name": "Wipperf\u00fcrth", "lat": "51.1161", "lng": "7.39865"}, {"country": "DE", "name": "Wipperdorf", "lat": "51.4556", "lng": "10.64388"}, {"country": "DE", "name": "Wipfeld", "lat": "49.91667", "lng": "10.16667"}, {"country": "DE", "name": "Winzer", "lat": "48.72285", "lng": "13.07751"}, {"country": "DE", "name": "Wintersdorf", "lat": "51.0532", "lng": "12.35445"}, {"country": "DE", "name": "Winterlingen", "lat": "48.18333", "lng": "9.11667"}, {"country": "DE", "name": "Winterhude", "lat": "53.6", "lng": "10"}, {"country": "DE", "name": "Winterhausen", "lat": "49.70683", "lng": "10.01661"}, {"country": "DE", "name": "Winterberg", "lat": "51.19248", "lng": "8.53468"}, {"country": "DE", "name": "Winterbach", "lat": "48.79918", "lng": "9.47914"}, {"country": "DE", "name": "Winsen", "lat": "53.35753", "lng": "10.21282"}, {"country": "DE", "name": "Winsen", "lat": "52.68301", "lng": "9.91362"}, {"country": "DE", "name": "Winnweiler", "lat": "49.56667", "lng": "7.85"}, {"country": "DE", "name": "Winningen", "lat": "50.31667", "lng": "7.51667"}, {"country": "DE", "name": "Winnenden", "lat": "48.87563", "lng": "9.39819"}, {"country": "DE", "name": "Winklarn", "lat": "49.42688", "lng": "12.47986"}, {"country": "DE", "name": "Winkelhaid", "lat": "49.38963", "lng": "11.29888"}, {"country": "DE", "name": "Winh\u00f6ring", "lat": "48.26667", "lng": "12.65"}, {"country": "DE", "name": "Wingst", "lat": "53.73572", "lng": "9.08054"}, {"country": "DE", "name": "Wingerode", "lat": "51.39032", "lng": "10.23954"}, {"country": "DE", "name": "Windsbach", "lat": "49.24786", "lng": "10.82651"}, {"country": "DE", "name": "Windischleuba", "lat": "51.01556", "lng": "12.46914"}, {"country": "DE", "name": "Windischeschenbach", "lat": "49.80108", "lng": "12.1571"}, {"country": "DE", "name": "Windhausen", "lat": "51.78544", "lng": "10.21218"}, {"country": "DE", "name": "Windhagen", "lat": "50.64121", "lng": "7.35352"}, {"country": "DE", "name": "Windesheim", "lat": "49.9", "lng": "7.81667"}, {"country": "DE", "name": "Winden", "lat": "49.09778", "lng": "8.11694"}, {"country": "DE", "name": "Windelsbach", "lat": "49.4", "lng": "10.3"}, {"country": "DE", "name": "Windeby", "lat": "54.46667", "lng": "9.81667"}, {"country": "DE", "name": "Windberg", "lat": "48.94285", "lng": "12.7462"}, {"country": "DE", "name": "Windach", "lat": "48.06667", "lng": "11.03333"}, {"country": "DE", "name": "Wincheringen", "lat": "49.60904", "lng": "6.42597"}, {"country": "DE", "name": "Wimsheim", "lat": "48.85", "lng": "8.83333"}, {"country": "DE", "name": "Wimmelburg", "lat": "51.52069", "lng": "11.50696"}, {"country": "DE", "name": "Wiltingen", "lat": "49.65919", "lng": "6.59255"}, {"country": "DE", "name": "Wilthen", "lat": "51.09745", "lng": "14.3929"}, {"country": "DE", "name": "Wilsum", "lat": "52.53333", "lng": "6.85"}, {"country": "DE", "name": "Wilster", "lat": "53.92253", "lng": "9.37465"}, {"country": "DE", "name": "Wilstedt", "lat": "53.19493", "lng": "9.09595"}, {"country": "DE", "name": "Wilsdruff", "lat": "51.05199", "lng": "13.53657"}, {"country": "DE", "name": "Wilnsdorf", "lat": "50.81667", "lng": "8.1"}, {"country": "DE", "name": "Wilmersdorf", "lat": "52.48333", "lng": "13.31667"}, {"country": "DE", "name": "Willst\u00e4tt", "lat": "48.54071", "lng": "7.89314"}, {"country": "DE", "name": "Willmering", "lat": "49.25", "lng": "12.66667"}, {"country": "DE", "name": "Willingshausen", "lat": "50.85", "lng": "9.2"}, {"country": "DE", "name": "Willingen", "lat": "51.29418", "lng": "8.6091"}, {"country": "DE", "name": "Willich", "lat": "51.26371", "lng": "6.54734"}, {"country": "DE", "name": "Willebadessen", "lat": "51.62564", "lng": "9.03694"}, {"country": "DE", "name": "Willanzheim", "lat": "49.68011", "lng": "10.23248"}, {"country": "DE", "name": "Wilkau-Ha\u00dflau", "lat": "50.67504", "lng": "12.51482"}, {"country": "DE", "name": "Wilhermsdorf", "lat": "49.48308", "lng": "10.71555"}, {"country": "DE", "name": "Wilhelmsthal", "lat": "50.31113", "lng": "11.37278"}, {"country": "DE", "name": "Wilhelmstadt", "lat": "52.52462", "lng": "13.17707"}, {"country": "DE", "name": "Wilhelmsruh", "lat": "52.5871", "lng": "13.36855"}, {"country": "DE", "name": "Wilhelmshaven", "lat": "53.52998", "lng": "8.11253"}, {"country": "DE", "name": "Wilhelmsfeld", "lat": "49.47056", "lng": "8.75361"}, {"country": "DE", "name": "Wilhelmsdorf", "lat": "49.56419", "lng": "10.73716"}, {"country": "DE", "name": "Wilhelmsdorf", "lat": "47.86612", "lng": "9.42621"}, {"country": "DE", "name": "Wilgartswiesen", "lat": "49.20891", "lng": "7.87346"}, {"country": "DE", "name": "Wildsteig", "lat": "47.70145", "lng": "10.93753"}, {"country": "DE", "name": "Wildpoldsried", "lat": "47.76667", "lng": "10.4"}, {"country": "DE", "name": "Wildflecken", "lat": "50.37764", "lng": "9.91092"}, {"country": "DE", "name": "Wildeshausen", "lat": "52.89446", "lng": "8.43375"}, {"country": "DE", "name": "Wildenhain", "lat": "51.3076", "lng": "13.47678"}, {"country": "DE", "name": "Wildenfels", "lat": "50.66784", "lng": "12.60886"}, {"country": "DE", "name": "Wildenberg", "lat": "48.72981", "lng": "11.89845"}, {"country": "DE", "name": "Wildemann", "lat": "51.8281", "lng": "10.28152"}, {"country": "DE", "name": "Wildberg", "lat": "48.62336", "lng": "8.74518"}, {"country": "DE", "name": "Wilburgstetten", "lat": "49.02427", "lng": "10.39505"}, {"country": "DE", "name": "Wiggensbach", "lat": "47.74781", "lng": "10.22987"}, {"country": "DE", "name": "Wietzendorf", "lat": "52.91667", "lng": "9.98333"}, {"country": "DE", "name": "Wietzen", "lat": "52.71667", "lng": "9.08333"}, {"country": "DE", "name": "Wietze", "lat": "52.65", "lng": "9.83333"}, {"country": "DE", "name": "Wietmarschen", "lat": "52.51806", "lng": "7.13408"}, {"country": "DE", "name": "Wiesthal", "lat": "50.03333", "lng": "9.43333"}, {"country": "DE", "name": "Wiesmoor", "lat": "53.41667", "lng": "7.73333"}, {"country": "DE", "name": "Wiesloch", "lat": "49.29504", "lng": "8.69846"}, {"country": "DE", "name": "Wiesentheid", "lat": "49.79451", "lng": "10.34509"}, {"country": "DE", "name": "Wiesenthau", "lat": "49.71326", "lng": "11.13564"}, {"country": "DE", "name": "Wiesent", "lat": "49.01667", "lng": "12.38333"}, {"country": "DE", "name": "Wiesensteig", "lat": "48.56127", "lng": "9.6254"}, {"country": "DE", "name": "Wiesenfelden", "lat": "49.04066", "lng": "12.54008"}, {"country": "DE", "name": "Wiesenburg", "lat": "52.11456", "lng": "12.45534"}, {"country": "DE", "name": "Wiesenbach", "lat": "49.36139", "lng": "8.80361"}, {"country": "DE", "name": "Wiesenau", "lat": "52.23071", "lng": "14.59107"}, {"country": "DE", "name": "Wiesen", "lat": "50.11667", "lng": "9.36667"}, {"country": "DE", "name": "Wiesbaden", "lat": "50.08258", "lng": "8.24932"}, {"country": "DE", "name": "Wiesau", "lat": "49.90817", "lng": "12.18889"}, {"country": "DE", "name": "Wiesa", "lat": "50.61114", "lng": "13.01377"}, {"country": "DE", "name": "Wiernsheim", "lat": "48.88333", "lng": "8.85"}, {"country": "DE", "name": "Wieren", "lat": "52.88529", "lng": "10.65871"}, {"country": "DE", "name": "Wienhausen", "lat": "52.58021", "lng": "10.18862"}, {"country": "DE", "name": "Wiemersdorf", "lat": "53.95815", "lng": "9.90297"}, {"country": "DE", "name": "Wiek", "lat": "54.62", "lng": "13.28914"}, {"country": "DE", "name": "Wiehl", "lat": "50.9495", "lng": "7.55062"}, {"country": "DE", "name": "Wiehe", "lat": "51.26586", "lng": "11.41282"}, {"country": "DE", "name": "Wiefelstede", "lat": "53.25", "lng": "8.11667"}, {"country": "DE", "name": "Wiednitz", "lat": "51.38608", "lng": "14.02683"}, {"country": "DE", "name": "Wiederstedt", "lat": "51.66526", "lng": "11.52723"}, {"country": "DE", "name": "Wiedergeltingen", "lat": "48.03946", "lng": "10.67406"}, {"country": "DE", "name": "Wiedensahl", "lat": "52.38385", "lng": "9.12019"}, {"country": "DE", "name": "Wiedemar", "lat": "51.46667", "lng": "12.2"}, {"country": "DE", "name": "Wieda", "lat": "51.634", "lng": "10.58704"}, {"country": "DE", "name": "Widdern", "lat": "49.31825", "lng": "9.42209"}, {"country": "DE", "name": "Wickede", "lat": "51.4964", "lng": "7.86587"}, {"country": "DE", "name": "Weyhausen", "lat": "52.46208", "lng": "10.71699"}, {"country": "DE", "name": "Weyerbusch", "lat": "50.71667", "lng": "7.55"}, {"country": "DE", "name": "Weyarn", "lat": "47.85838", "lng": "11.79923"}, {"country": "DE", "name": "Wewelsfleth", "lat": "53.85", "lng": "9.4"}, {"country": "DE", "name": "Wetzlar", "lat": "50.56109", "lng": "8.50495"}, {"country": "DE", "name": "Wetzendorf", "lat": "49.47056", "lng": "11.04148"}, {"country": "DE", "name": "Wettringen", "lat": "52.20939", "lng": "7.31895"}, {"country": "DE", "name": "Wettin", "lat": "51.58604", "lng": "11.8063"}, {"country": "DE", "name": "Wetterzeube", "lat": "51", "lng": "12.01667"}, {"country": "DE", "name": "Wetter (Ruhr)", "lat": "51.38747", "lng": "7.39277"}, {"country": "DE", "name": "Wetter", "lat": "50.90254", "lng": "8.72366"}, {"country": "DE", "name": "Wetschen", "lat": "52.61295", "lng": "8.44883"}, {"country": "DE", "name": "Westhofen", "lat": "49.70444", "lng": "8.24806"}, {"country": "DE", "name": "Westheim", "lat": "49.2464", "lng": "8.32357"}, {"country": "DE", "name": "Westheim", "lat": "49", "lng": "10.66667"}, {"country": "DE", "name": "Westhausen", "lat": "48.88333", "lng": "10.18333"}, {"country": "DE", "name": "Westerstetten", "lat": "48.51916", "lng": "9.95494"}, {"country": "DE", "name": "Westerstede", "lat": "53.25682", "lng": "7.92737"}, {"country": "DE", "name": "Westerr\u00f6nfeld", "lat": "54.28333", "lng": "9.65"}, {"country": "DE", "name": "Wester-Ohrstedt", "lat": "54.50796", "lng": "9.18574"}, {"country": "DE", "name": "Westerland", "lat": "54.9079", "lng": "8.30326"}, {"country": "DE", "name": "Westerkappeln", "lat": "52.31667", "lng": "7.88333"}, {"country": "DE", "name": "Westerhorn", "lat": "53.85711", "lng": "9.67959"}, {"country": "DE", "name": "Westerholt", "lat": "53.6", "lng": "7.45"}, {"country": "DE", "name": "Westerheim", "lat": "48.51511", "lng": "9.62424"}, {"country": "DE", "name": "Westerheim", "lat": "48.01667", "lng": "10.3"}, {"country": "DE", "name": "Westerhausen", "lat": "51.80566", "lng": "11.05631"}, {"country": "DE", "name": "Westergellersen", "lat": "53.23333", "lng": "10.25"}, {"country": "DE", "name": "Westeregeln", "lat": "51.96328", "lng": "11.39265"}, {"country": "DE", "name": "Westerburg", "lat": "50.55938", "lng": "7.97482"}, {"country": "DE", "name": "Westensee", "lat": "54.27452", "lng": "9.89584"}, {"country": "DE", "name": "Westendorf", "lat": "48.57209", "lng": "10.84049"}, {"country": "DE", "name": "Westendorf", "lat": "47.93333", "lng": "10.71667"}, {"country": "DE", "name": "Westend", "lat": "52.51708", "lng": "13.27636"}, {"country": "DE", "name": "Weste", "lat": "53.05943", "lng": "10.70283"}, {"country": "DE", "name": "Wessobrunn", "lat": "47.87407", "lng": "11.02461"}, {"country": "DE", "name": "We\u00dfling", "lat": "48.07452", "lng": "11.2482"}, {"country": "DE", "name": "Wesseln", "lat": "54.20985", "lng": "9.07644"}, {"country": "DE", "name": "Wesseling", "lat": "50.82709", "lng": "6.9747"}, {"country": "DE", "name": "Wesselburen", "lat": "54.21217", "lng": "8.92419"}, {"country": "DE", "name": "Wesendorf", "lat": "52.6", "lng": "10.53333"}, {"country": "DE", "name": "Wesenberg", "lat": "53.2803", "lng": "12.96936"}, {"country": "DE", "name": "Weselberg", "lat": "49.33662", "lng": "7.6078"}, {"country": "DE", "name": "Wesel", "lat": "51.6669", "lng": "6.62037"}, {"country": "DE", "name": "Wertingen", "lat": "48.56314", "lng": "10.68149"}, {"country": "DE", "name": "Werther", "lat": "52.07771", "lng": "8.41793"}, {"country": "DE", "name": "Wertheim", "lat": "49.759", "lng": "9.50852"}, {"country": "DE", "name": "Wertach", "lat": "47.60301", "lng": "10.40966"}, {"country": "DE", "name": "Werpeloh", "lat": "52.87207", "lng": "7.50831"}, {"country": "DE", "name": "Wernshausen", "lat": "50.72404", "lng": "10.35086"}, {"country": "DE", "name": "Wernigerode", "lat": "51.83652", "lng": "10.78216"}, {"country": "DE", "name": "Werneuchen", "lat": "52.63275", "lng": "13.73437"}, {"country": "DE", "name": "Wernersberg", "lat": "49.19062", "lng": "7.92756"}, {"country": "DE", "name": "Werneck", "lat": "49.98201", "lng": "10.09884"}, {"country": "DE", "name": "Werne", "lat": "51.66446", "lng": "7.63421"}, {"country": "DE", "name": "Wernberg-K\u00f6blitz", "lat": "49.53931", "lng": "12.1613"}, {"country": "DE", "name": "Wernau", "lat": "48.69306", "lng": "9.41533"}, {"country": "DE", "name": "Wermsdorf", "lat": "51.28333", "lng": "12.95"}, {"country": "DE", "name": "Wermelskirchen", "lat": "51.1397", "lng": "7.21583"}, {"country": "DE", "name": "Werlte", "lat": "52.85", "lng": "7.68333"}, {"country": "DE", "name": "Werl", "lat": "51.55493", "lng": "7.91403"}, {"country": "DE", "name": "Werftpfuhl", "lat": "52.66014", "lng": "13.79351"}, {"country": "DE", "name": "Werdohl", "lat": "51.26011", "lng": "7.76608"}, {"country": "DE", "name": "Werder", "lat": "52.37874", "lng": "12.934"}, {"country": "DE", "name": "Werdau", "lat": "50.73604", "lng": "12.37534"}, {"country": "DE", "name": "Werda", "lat": "50.43811", "lng": "12.30473"}, {"country": "DE", "name": "Werben", "lat": "51.81667", "lng": "14.18333"}, {"country": "DE", "name": "Werbach", "lat": "49.67083", "lng": "9.63944"}, {"country": "DE", "name": "Wenzendorf", "lat": "53.34948", "lng": "9.77234"}, {"country": "DE", "name": "Wenzenbach", "lat": "49.07561", "lng": "12.19954"}, {"country": "DE", "name": "Wentorf bei Hamburg", "lat": "53.5", "lng": "10.25"}, {"country": "DE", "name": "Wennigsen", "lat": "52.27404", "lng": "9.57287"}, {"country": "DE", "name": "Weng", "lat": "48.65866", "lng": "12.36927"}, {"country": "DE", "name": "Wendtorf", "lat": "54.41212", "lng": "10.28952"}, {"country": "DE", "name": "Wendorf", "lat": "54.2554", "lng": "13.07682"}, {"country": "DE", "name": "Wendlingen am Neckar", "lat": "48.67124", "lng": "9.37632"}, {"country": "DE", "name": "Wendisch Rietz", "lat": "52.21613", "lng": "14.00845"}, {"country": "DE", "name": "Wendisch Evern", "lat": "53.21667", "lng": "10.46667"}, {"country": "DE", "name": "Wenden", "lat": "50.96667", "lng": "7.86667"}, {"country": "DE", "name": "Wendelstein", "lat": "49.3523", "lng": "11.15069"}, {"country": "DE", "name": "Wendelsheim", "lat": "49.76667", "lng": "8"}, {"country": "DE", "name": "Wendeburg", "lat": "52.32957", "lng": "10.39255"}, {"country": "DE", "name": "Wemding", "lat": "48.87461", "lng": "10.72452"}, {"country": "DE", "name": "Welzow", "lat": "51.58381", "lng": "14.17082"}, {"country": "DE", "name": "Welzheim", "lat": "48.87675", "lng": "9.63434"}, {"country": "DE", "name": "Welver", "lat": "51.61667", "lng": "7.96667"}, {"country": "DE", "name": "Welsleben", "lat": "52.00304", "lng": "11.63851"}, {"country": "DE", "name": "Welschbillig", "lat": "49.85", "lng": "6.56667"}, {"country": "DE", "name": "Wellingsb\u00fcttel", "lat": "53.64104", "lng": "10.0798"}, {"country": "DE", "name": "Wellendingen", "lat": "48.14745", "lng": "8.70375"}, {"country": "DE", "name": "Wellen", "lat": "52.14518", "lng": "11.44106"}, {"country": "DE", "name": "Welle", "lat": "53.23985", "lng": "9.80178"}, {"country": "DE", "name": "Welden", "lat": "48.45505", "lng": "10.66086"}, {"country": "DE", "name": "Weitramsdorf", "lat": "50.256", "lng": "10.87989"}, {"country": "DE", "name": "Weitnau", "lat": "47.64171", "lng": "10.12732"}, {"country": "DE", "name": "Weiterstadt", "lat": "49.9039", "lng": "8.58874"}, {"country": "DE", "name": "Weitersburg", "lat": "50.41667", "lng": "7.6"}, {"country": "DE", "name": "Weitenhagen", "lat": "54.05372", "lng": "13.40998"}, {"country": "DE", "name": "Weiten", "lat": "49.53011", "lng": "6.54064"}, {"country": "DE", "name": "Weitefeld", "lat": "50.72541", "lng": "7.92805"}, {"country": "DE", "name": "Weisweil", "lat": "48.19939", "lng": "7.67713"}, {"country": "DE", "name": "Wei\u00dfwasser", "lat": "51.50403", "lng": "14.64017"}, {"country": "DE", "name": "Wei\u00dfkei\u00dfel", "lat": "51.49405", "lng": "14.71515"}, {"country": "DE", "name": "Wei\u00dfig", "lat": "51.29192", "lng": "13.44117"}, {"country": "DE", "name": "Wei\u00dfenthurm", "lat": "50.41719", "lng": "7.45072"}, {"country": "DE", "name": "Wei\u00dfenstadt", "lat": "50.10217", "lng": "11.88849"}, {"country": "DE", "name": "Wei\u00dfensee", "lat": "51.19989", "lng": "11.06914"}, {"country": "DE", "name": "Wei\u00dfensberg", "lat": "47.5813", "lng": "9.72586"}, {"country": "DE", "name": "Wei\u00dfenohe", "lat": "49.63089", "lng": "11.25369"}, {"country": "DE", "name": "Wei\u00dfenhorn", "lat": "48.30501", "lng": "10.16047"}, {"country": "DE", "name": "Wei\u00dfenfels", "lat": "51.20148", "lng": "11.96843"}, {"country": "DE", "name": "Wei\u00dfenburg in Bayern", "lat": "49.03095", "lng": "10.97221"}, {"country": "DE", "name": "Wei\u00dfenbrunn", "lat": "50.2", "lng": "11.35"}, {"country": "DE", "name": "Wei\u00dfenborn-L\u00fcderode", "lat": "51.5319", "lng": "10.41889"}, {"country": "DE", "name": "Wei\u00dfenborn", "lat": "50.92393", "lng": "11.87947"}, {"country": "DE", "name": "Wei\u00dfenborn", "lat": "50.73952", "lng": "12.47051"}, {"country": "DE", "name": "Wei\u00dfenberg", "lat": "51.19644", "lng": "14.65874"}, {"country": "DE", "name": "Wei\u00dfdorf", "lat": "50.18333", "lng": "11.85"}, {"country": "DE", "name": "Wei\u00dfbach", "lat": "49.29717", "lng": "9.59531"}, {"country": "DE", "name": "Wei\u00dfandt-G\u00f6lzau", "lat": "51.6707", "lng": "12.07338"}, {"country": "DE", "name": "Weissach", "lat": "48.84687", "lng": "8.92828"}, {"country": "DE", "name": "Weismain", "lat": "50.08512", "lng": "11.24024"}, {"country": "DE", "name": "Weiskirchen", "lat": "49.55", "lng": "6.81667"}, {"country": "DE", "name": "Weisendorf", "lat": "49.62283", "lng": "10.82531"}, {"country": "DE", "name": "Weisenbach", "lat": "48.72757", "lng": "8.35378"}, {"country": "DE", "name": "Weisen", "lat": "53.02518", "lng": "11.7871"}, {"country": "DE", "name": "Weisel", "lat": "50.11667", "lng": "7.8"}, {"country": "DE", "name": "Weischlitz", "lat": "50.45", "lng": "12.06667"}, {"country": "DE", "name": "Weinstadt-Endersbach", "lat": "48.81311", "lng": "9.36387"}, {"country": "DE", "name": "Weinsheim", "lat": "50.23333", "lng": "6.46667"}, {"country": "DE", "name": "Weinsheim", "lat": "49.83333", "lng": "7.76667"}, {"country": "DE", "name": "Weinsberg", "lat": "49.15127", "lng": "9.28762"}, {"country": "DE", "name": "Weinheim", "lat": "49.54887", "lng": "8.66697"}, {"country": "DE", "name": "Weingarten", "lat": "49.25946", "lng": "8.2862"}, {"country": "DE", "name": "Weingarten", "lat": "49.05457", "lng": "8.52678"}, {"country": "DE", "name": "Weingarten", "lat": "47.81009", "lng": "9.63863"}, {"country": "DE", "name": "Weinb\u00f6hla", "lat": "51.16667", "lng": "13.56667"}, {"country": "DE", "name": "Weinbach", "lat": "50.43843", "lng": "8.29133"}, {"country": "DE", "name": "Weimar", "lat": "50.9803", "lng": "11.32903"}, {"country": "DE", "name": "Weiltingen", "lat": "49.03878", "lng": "10.45052"}, {"country": "DE", "name": "Weilm\u00fcnster", "lat": "50.43143", "lng": "8.37673"}, {"country": "DE", "name": "Weil im Sch\u00f6nbuch", "lat": "48.6227", "lng": "9.06355"}, {"country": "DE", "name": "Weilheim an der Teck", "lat": "48.61572", "lng": "9.53751"}, {"country": "DE", "name": "Weilheim", "lat": "47.84147", "lng": "11.15484"}, {"country": "DE", "name": "Weilheim", "lat": "47.66667", "lng": "8.23333"}, {"country": "DE", "name": "Weilerswist", "lat": "50.75292", "lng": "6.84585"}, {"country": "DE", "name": "Weilerbach", "lat": "49.48333", "lng": "7.63333"}, {"country": "DE", "name": "Weiler", "lat": "49.95696", "lng": "7.86484"}, {"country": "DE", "name": "Weil der Stadt", "lat": "48.74953", "lng": "8.87176"}, {"country": "DE", "name": "Weilburg", "lat": "50.48438", "lng": "8.26249"}, {"country": "DE", "name": "Weilbach", "lat": "49.66812", "lng": "9.21639"}, {"country": "DE", "name": "Weil am Rhein", "lat": "47.59331", "lng": "7.62082"}, {"country": "DE", "name": "Weil", "lat": "48.11717", "lng": "10.92161"}, {"country": "DE", "name": "Weikersheim", "lat": "49.47866", "lng": "9.89977"}, {"country": "DE", "name": "Weihmichl", "lat": "48.6", "lng": "12.05"}, {"country": "DE", "name": "Weiherhammer", "lat": "49.63333", "lng": "12.06667"}, {"country": "DE", "name": "Weihenzell", "lat": "49.35", "lng": "10.61667"}, {"country": "DE", "name": "Weigendorf", "lat": "49.49773", "lng": "11.56869"}, {"country": "DE", "name": "Weiding", "lat": "49.26282", "lng": "12.76311"}, {"country": "DE", "name": "Weidhausen bei Coburg", "lat": "50.20354", "lng": "11.14006"}, {"country": "DE", "name": "Weidenthal", "lat": "49.41667", "lng": "8"}, {"country": "DE", "name": "Weidenstetten", "lat": "48.5525", "lng": "9.9961"}, {"country": "DE", "name": "Weidenbach", "lat": "49.19817", "lng": "10.64489"}, {"country": "DE", "name": "Weiden", "lat": "49.67682", "lng": "12.15613"}, {"country": "DE", "name": "Weida", "lat": "50.77449", "lng": "12.06028"}, {"country": "DE", "name": "Weichs", "lat": "48.38333", "lng": "11.41667"}, {"country": "DE", "name": "Weichering", "lat": "48.71713", "lng": "11.32141"}, {"country": "DE", "name": "Weibersbrunn", "lat": "49.93083", "lng": "9.36611"}, {"country": "DE", "name": "Weibern", "lat": "50.40808", "lng": "7.14669"}, {"country": "DE", "name": "Wei\u00dfensee", "lat": "52.55632", "lng": "13.46649"}, {"country": "DE", "name": "Wehringen", "lat": "48.25", "lng": "10.8"}, {"country": "DE", "name": "Wehrheim", "lat": "50.3", "lng": "8.56667"}, {"country": "DE", "name": "Wehr", "lat": "50.41667", "lng": "7.21667"}, {"country": "DE", "name": "Wehr", "lat": "47.62983", "lng": "7.90423"}, {"country": "DE", "name": "Wehingen", "lat": "48.14533", "lng": "8.79151"}, {"country": "DE", "name": "Wegscheid", "lat": "48.60136", "lng": "13.78733"}, {"country": "DE", "name": "Wegeleben", "lat": "51.88376", "lng": "11.17347"}, {"country": "DE", "name": "Wegberg", "lat": "51.14221", "lng": "6.28436"}, {"country": "DE", "name": "Weferlingen", "lat": "52.31205", "lng": "11.05791"}, {"country": "DE", "name": "Wefensleben", "lat": "52.18319", "lng": "11.16074"}, {"country": "DE", "name": "Weeze", "lat": "51.62678", "lng": "6.19792"}, {"country": "DE", "name": "Wees", "lat": "54.80621", "lng": "9.51695"}, {"country": "DE", "name": "Weener", "lat": "53.16332", "lng": "7.35052"}, {"country": "DE", "name": "Wedel", "lat": "53.58374", "lng": "9.69835"}, {"country": "DE", "name": "Weddingstedt", "lat": "54.23428", "lng": "9.09103"}, {"country": "DE", "name": "Wedding", "lat": "52.54734", "lng": "13.35594"}, {"country": "DE", "name": "Weddersleben", "lat": "51.76533", "lng": "11.08531"}, {"country": "DE", "name": "Weddelbrook", "lat": "53.9", "lng": "9.83333"}, {"country": "DE", "name": "Wechselburg", "lat": "51.00214", "lng": "12.77661"}, {"country": "DE", "name": "Wechingen", "lat": "48.89229", "lng": "10.61331"}, {"country": "DE", "name": "Waxweiler", "lat": "50.09257", "lng": "6.36299"}, {"country": "DE", "name": "Wattmannshagen", "lat": "53.7759", "lng": "12.40701"}, {"country": "DE", "name": "Wattenheim", "lat": "49.52167", "lng": "8.06167"}, {"country": "DE", "name": "Wattenbek", "lat": "54.16667", "lng": "10.05"}, {"country": "DE", "name": "Wathlingen", "lat": "52.5369", "lng": "10.15069"}, {"country": "DE", "name": "Wasungen", "lat": "50.6619", "lng": "10.36947"}, {"country": "DE", "name": "Wassertr\u00fcdingen", "lat": "49.04328", "lng": "10.59906"}, {"country": "DE", "name": "Wasserlosen", "lat": "50.09476", "lng": "10.03017"}, {"country": "DE", "name": "Wasserliesch", "lat": "49.70739", "lng": "6.53944"}, {"country": "DE", "name": "Wasserleben", "lat": "51.92089", "lng": "10.7567"}, {"country": "DE", "name": "Wasserburg am Inn", "lat": "48.0525", "lng": "12.22341"}, {"country": "DE", "name": "Wasserburg", "lat": "48.44105", "lng": "10.2693"}, {"country": "DE", "name": "Wassenberg", "lat": "51.10009", "lng": "6.15484"}, {"country": "DE", "name": "Wassenach", "lat": "50.43333", "lng": "7.28333"}, {"country": "DE", "name": "W\u00e4schenbeuren", "lat": "48.75991", "lng": "9.68735"}, {"country": "DE", "name": "Wasb\u00fcttel", "lat": "52.41331", "lng": "10.59357"}, {"country": "DE", "name": "Wasbek", "lat": "54.07427", "lng": "9.89738"}, {"country": "DE", "name": "Wartmannsroth", "lat": "50.16667", "lng": "9.78333"}, {"country": "DE", "name": "Warthausen", "lat": "48.12863", "lng": "9.79749"}, {"country": "DE", "name": "Wartenberg", "lat": "52.5752", "lng": "13.51559"}, {"country": "DE", "name": "Wartenberg", "lat": "48.40597", "lng": "11.98865"}, {"country": "DE", "name": "Warstein", "lat": "51.44488", "lng": "8.34851"}, {"country": "DE", "name": "Warnow", "lat": "53.7858", "lng": "11.88106"}, {"country": "DE", "name": "Warngau", "lat": "47.83217", "lng": "11.72173"}, {"country": "DE", "name": "Warnem\u00fcnde", "lat": "54.1767", "lng": "12.08402"}, {"country": "DE", "name": "Warmsen", "lat": "52.45695", "lng": "8.84949"}, {"country": "DE", "name": "Warmensteinach", "lat": "49.99348", "lng": "11.77866"}, {"country": "DE", "name": "Warin", "lat": "53.80026", "lng": "11.70504"}, {"country": "DE", "name": "Warendorf", "lat": "51.95109", "lng": "7.98756"}, {"country": "DE", "name": "Waren", "lat": "53.5204", "lng": "12.67985"}, {"country": "DE", "name": "Wardow", "lat": "53.93054", "lng": "12.40818"}, {"country": "DE", "name": "Wardenburg", "lat": "53.06667", "lng": "8.2"}, {"country": "DE", "name": "Warburg", "lat": "51.49011", "lng": "9.14641"}, {"country": "DE", "name": "Wanzleben", "lat": "52.06087", "lng": "11.4408"}, {"country": "DE", "name": "Wansleben", "lat": "51.46034", "lng": "11.75135"}, {"country": "DE", "name": "Wannweil", "lat": "48.51667", "lng": "9.15"}, {"country": "DE", "name": "Wannsee", "lat": "52.41915", "lng": "13.15531"}, {"country": "DE", "name": "Wanna", "lat": "53.75", "lng": "8.8"}, {"country": "DE", "name": "Wankendorf", "lat": "54.11224", "lng": "10.20546"}, {"country": "DE", "name": "Wangerooge", "lat": "53.79002", "lng": "7.89938"}, {"country": "DE", "name": "Wangen im Allg\u00e4u", "lat": "47.6895", "lng": "9.83247"}, {"country": "DE", "name": "Wangen", "lat": "48.72933", "lng": "9.61175"}, {"country": "DE", "name": "Wangels", "lat": "54.26667", "lng": "10.76667"}, {"country": "DE", "name": "Wang", "lat": "48.49549", "lng": "11.93641"}, {"country": "DE", "name": "Wanfried", "lat": "51.18207", "lng": "10.17283"}, {"country": "DE", "name": "Wandlitz", "lat": "52.74196", "lng": "13.45799"}, {"country": "DE", "name": "Wanderup", "lat": "54.68333", "lng": "9.33333"}, {"country": "DE", "name": "Wandersleben", "lat": "50.89946", "lng": "10.84959"}, {"country": "DE", "name": "Waltrop", "lat": "51.62125", "lng": "7.40238"}, {"country": "DE", "name": "Waltershausen", "lat": "50.89827", "lng": "10.55791"}, {"country": "DE", "name": "Waltenhofen", "lat": "47.67319", "lng": "10.30703"}, {"country": "DE", "name": "Walsrode", "lat": "52.86147", "lng": "9.5926"}, {"country": "DE", "name": "Walsdorf", "lat": "49.86667", "lng": "10.78333"}, {"country": "DE", "name": "Walschleben", "lat": "51.06667", "lng": "10.93333"}, {"country": "DE", "name": "Walpertskirchen", "lat": "48.2584", "lng": "11.97527"}, {"country": "DE", "name": "Wallwitz", "lat": "51.58029", "lng": "11.92888"}, {"country": "DE", "name": "Wallmerod", "lat": "50.48333", "lng": "7.95"}, {"country": "DE", "name": "Wallmenroth", "lat": "50.8", "lng": "7.83333"}, {"country": "DE", "name": "Wallhausen", "lat": "51.46117", "lng": "11.2076"}, {"country": "DE", "name": "Wallhausen", "lat": "49.88333", "lng": "7.76667"}, {"country": "DE", "name": "Wallhausen", "lat": "49.21042", "lng": "10.06219"}, {"country": "DE", "name": "Wallgau", "lat": "47.51667", "lng": "11.28333"}, {"country": "DE", "name": "Wallertheim", "lat": "49.83556", "lng": "8.05139"}, {"country": "DE", "name": "Wallerstein", "lat": "48.88741", "lng": "10.47591"}, {"country": "DE", "name": "Wallersdorf", "lat": "48.73767", "lng": "12.74744"}, {"country": "DE", "name": "Wallerfing", "lat": "48.68416", "lng": "12.88035"}, {"country": "DE", "name": "Wallerfangen", "lat": "49.32749", "lng": "6.71102"}, {"country": "DE", "name": "Wallenhorst", "lat": "52.35", "lng": "8.01667"}, {"country": "DE", "name": "Wallenfels", "lat": "50.2685", "lng": "11.47058"}, {"country": "DE", "name": "Wallendorf", "lat": "51.35983", "lng": "12.07537"}, {"country": "DE", "name": "Walld\u00fcrn", "lat": "49.58358", "lng": "9.36642"}, {"country": "DE", "name": "Walldorf", "lat": "50.61667", "lng": "10.38333"}, {"country": "DE", "name": "Walldorf", "lat": "49.30637", "lng": "8.64236"}, {"country": "DE", "name": "Walkertshofen", "lat": "48.22613", "lng": "10.58836"}, {"country": "DE", "name": "Walkenried", "lat": "51.58333", "lng": "10.61667"}, {"country": "DE", "name": "Walheim", "lat": "49.01417", "lng": "9.15111"}, {"country": "DE", "name": "Waldthurn", "lat": "49.67221", "lng": "12.32919"}, {"country": "DE", "name": "Waldstetten", "lat": "48.76615", "lng": "9.82135"}, {"country": "DE", "name": "Waldstetten", "lat": "48.34815", "lng": "10.29385"}, {"country": "DE", "name": "Waldsieversdorf", "lat": "52.54221", "lng": "14.07022"}, {"country": "DE", "name": "Waldshut-Tiengen", "lat": "47.62323", "lng": "8.21717"}, {"country": "DE", "name": "Waldsee", "lat": "49.39528", "lng": "8.44028"}, {"country": "DE", "name": "Waldsassen", "lat": "50.00167", "lng": "12.30434"}, {"country": "DE", "name": "Waldrach", "lat": "49.74623", "lng": "6.74543"}, {"country": "DE", "name": "Waldm\u00fcnchen", "lat": "49.37804", "lng": "12.70905"}, {"country": "DE", "name": "Waldmohr", "lat": "49.38333", "lng": "7.33333"}, {"country": "DE", "name": "Wald-Michelbach", "lat": "49.57", "lng": "8.83167"}, {"country": "DE", "name": "Waldkraiburg", "lat": "48.20854", "lng": "12.39893"}, {"country": "DE", "name": "Waldkirchen", "lat": "50.59667", "lng": "12.37994"}, {"country": "DE", "name": "Waldkirchen", "lat": "48.7327", "lng": "13.60082"}, {"country": "DE", "name": "Waldkirch", "lat": "48.09585", "lng": "7.96371"}, {"country": "DE", "name": "Waldkappel", "lat": "51.14462", "lng": "9.87695"}, {"country": "DE", "name": "Waldheim", "lat": "51.07282", "lng": "13.02004"}, {"country": "DE", "name": "Waldfischbach-Burgalben", "lat": "49.28333", "lng": "7.66667"}, {"country": "DE", "name": "Waldfeucht", "lat": "51.0661", "lng": "5.98815"}, {"country": "DE", "name": "Waldershof", "lat": "49.98144", "lng": "12.06291"}, {"country": "DE", "name": "Walderbach", "lat": "49.18333", "lng": "12.38333"}, {"country": "DE", "name": "Waldenburg", "lat": "50.87653", "lng": "12.59919"}, {"country": "DE", "name": "Waldenburg", "lat": "49.18468", "lng": "9.63994"}, {"country": "DE", "name": "Waldenbuch", "lat": "48.6383", "lng": "9.13256"}, {"country": "DE", "name": "Waldeck", "lat": "51.20618", "lng": "9.06286"}, {"country": "DE", "name": "Waldb\u00fcttelbrunn", "lat": "49.78833", "lng": "9.84667"}, {"country": "DE", "name": "Waldburg", "lat": "47.7571", "lng": "9.71342"}, {"country": "DE", "name": "Waldbrunn", "lat": "49.75861", "lng": "9.80361"}, {"country": "DE", "name": "Waldbr\u00f6l", "lat": "50.87576", "lng": "7.61688"}, {"country": "DE", "name": "Waldbreitbach", "lat": "50.55", "lng": "7.41667"}, {"country": "DE", "name": "Waldb\u00f6ckelheim", "lat": "49.81667", "lng": "7.71667"}, {"country": "DE", "name": "Waldaschaff", "lat": "49.97528", "lng": "9.30194"}, {"country": "DE", "name": "Waldalgesheim", "lat": "49.95", "lng": "7.83333"}, {"country": "DE", "name": "Wald", "lat": "49.15", "lng": "12.35"}, {"country": "DE", "name": "Wald", "lat": "47.97223", "lng": "10.30054"}, {"country": "DE", "name": "Wald", "lat": "47.93333", "lng": "9.16667"}, {"country": "DE", "name": "Walchum", "lat": "52.92717", "lng": "7.28325"}, {"country": "DE", "name": "Waischenfeld", "lat": "49.84645", "lng": "11.3481"}, {"country": "DE", "name": "Wain", "lat": "48.18904", "lng": "10.0209"}, {"country": "DE", "name": "Waigolshausen", "lat": "49.9643", "lng": "10.12001"}, {"country": "DE", "name": "Waidhofen", "lat": "48.57681", "lng": "11.33537"}, {"country": "DE", "name": "Waidhaus", "lat": "49.64218", "lng": "12.49523"}, {"country": "DE", "name": "Waibstadt", "lat": "49.29505", "lng": "8.91771"}, {"country": "DE", "name": "Waiblingen", "lat": "48.83241", "lng": "9.31641"}, {"country": "DE", "name": "Wahrenholz", "lat": "52.61667", "lng": "10.6"}, {"country": "DE", "name": "Wahn-Heide", "lat": "50.85891", "lng": "7.10662"}, {"country": "DE", "name": "Wahlstedt", "lat": "53.95161", "lng": "10.20626"}, {"country": "DE", "name": "Wahlitz", "lat": "52.10376", "lng": "11.77947"}, {"country": "DE", "name": "Waging am See", "lat": "47.93414", "lng": "12.73392"}, {"country": "DE", "name": "Wagh\u00e4usel", "lat": "49.24991", "lng": "8.51257"}, {"country": "DE", "name": "Wagenhoff", "lat": "52.55233", "lng": "10.52337"}, {"country": "DE", "name": "Wagenfeld", "lat": "52.55", "lng": "8.58333"}, {"country": "DE", "name": "Waffenbrunn", "lat": "49.26667", "lng": "12.66667"}, {"country": "DE", "name": "Wadgassen", "lat": "49.26667", "lng": "6.78333"}, {"country": "DE", "name": "Wadersloh", "lat": "51.73333", "lng": "8.25"}, {"country": "DE", "name": "Wadern", "lat": "49.54122", "lng": "6.88774"}, {"country": "DE", "name": "Wackersdorf", "lat": "49.31667", "lng": "12.18333"}, {"country": "DE", "name": "Wackersberg", "lat": "47.73333", "lng": "11.55"}, {"country": "DE", "name": "Wackerow", "lat": "53.67683", "lng": "12.98164"}, {"country": "DE", "name": "Wackernheim", "lat": "49.97444", "lng": "8.11667"}, {"country": "DE", "name": "Wacken", "lat": "54.02078", "lng": "9.37597"}, {"country": "DE", "name": "W\u00e4chtersbach", "lat": "50.25511", "lng": "9.29564"}, {"country": "DE", "name": "Wachtendonk", "lat": "51.40916", "lng": "6.33894"}, {"country": "DE", "name": "Wachtberg", "lat": "50.63333", "lng": "7.1"}, {"country": "DE", "name": "Wachenroth", "lat": "49.75185", "lng": "10.71335"}, {"country": "DE", "name": "Wachenheim", "lat": "49.44045", "lng": "8.18041"}, {"country": "DE", "name": "Wachau", "lat": "51.16172", "lng": "13.90651"}, {"country": "DE", "name": "Wabern", "lat": "51.1", "lng": "9.35"}, {"country": "DE", "name": "Waal", "lat": "47.99679", "lng": "10.77786"}, {"country": "DE", "name": "Waakirchen", "lat": "47.7725", "lng": "11.67315"}, {"country": "DE", "name": "Waake", "lat": "51.55637", "lng": "10.05713"}, {"country": "DE", "name": "Waabs", "lat": "54.53333", "lng": "9.98333"}, {"country": "DE", "name": "Wandsbek", "lat": "53.58334", "lng": "10.08305"}, {"country": "DE", "name": "Weiler-Simmerberg", "lat": "47.58261", "lng": "9.91352"}, {"country": "DE", "name": "Weilersbach", "lat": "49.75", "lng": "11.11667"}, {"country": "DE", "name": "Waldbrunn", "lat": "50.51875", "lng": "8.10812"}, {"country": "DE", "name": "Waldems", "lat": "50.25", "lng": "8.33333"}, {"country": "DE", "name": "Walluf", "lat": "50.04003", "lng": "8.15545"}, {"country": "DE", "name": "W\u00f6rth", "lat": "48.24531", "lng": "11.90214"}, {"country": "DE", "name": "Werdervorstadt", "lat": "53.63909", "lng": "11.42767"}, {"country": "DE", "name": "Weststadt", "lat": "53.63472", "lng": "11.39565"}, {"country": "DE", "name": "Waidmannslust", "lat": "52.60691", "lng": "13.31968"}, {"country": "DE", "name": "Westhagen", "lat": "52.40425", "lng": "10.73939"}, {"country": "DM", "name": "Woodford Hill", "lat": "15.56667", "lng": "-61.33333"}, {"country": "DM", "name": "Wesley", "lat": "15.56667", "lng": "-61.31667"}, {"country": "EC", "name": "Wilfrido Loor Moreira", "lat": "-0.35294", "lng": "-79.66033"}, {"country": "ES", "name": "Wamba", "lat": "41.67525", "lng": "-4.91748"}, {"country": "ET", "name": "Werota", "lat": "11.91667", "lng": "37.7"}, {"country": "ET", "name": "Were \u012alu", "lat": "10.58964", "lng": "39.43767"}, {"country": "ET", "name": "Wenj\u012b", "lat": "8.45", "lng": "39.28333"}, {"country": "ET", "name": "Wendo", "lat": "6.6", "lng": "38.41667"}, {"country": "ET", "name": "Waliso", "lat": "8.53417", "lng": "37.96515"}, {"country": "FM", "name": "Weno", "lat": "7.44648", "lng": "151.84135"}, {"country": "FM", "name": "Weno Municipal Offices", "lat": "7.44428", "lng": "151.84103"}, {"country": "FR", "name": "Woustviller", "lat": "49.07636", "lng": "7.00487"}, {"country": "FR", "name": "Wormhout", "lat": "50.88129", "lng": "2.46901"}, {"country": "FR", "name": "Wolfisheim", "lat": "48.58723", "lng": "7.66708"}, {"country": "FR", "name": "Wolfgantzen", "lat": "48.02805", "lng": "7.5004"}, {"country": "FR", "name": "Woippy", "lat": "49.14946", "lng": "6.14909"}, {"country": "FR", "name": "Woincourt", "lat": "50.0663", "lng": "1.53676"}, {"country": "FR", "name": "Wizernes", "lat": "50.7117", "lng": "2.24316"}, {"country": "FR", "name": "Wittisheim", "lat": "48.26341", "lng": "7.58703"}, {"country": "FR", "name": "Wittenheim", "lat": "47.8078", "lng": "7.33702"}, {"country": "FR", "name": "Wittelsheim", "lat": "47.80947", "lng": "7.24154"}, {"country": "FR", "name": "Witry-l\u00e8s-Reims", "lat": "49.29162", "lng": "4.11921"}, {"country": "FR", "name": "Wissous", "lat": "48.73352", "lng": "2.32338"}, {"country": "FR", "name": "Wissembourg", "lat": "49.03708", "lng": "7.94548"}, {"country": "FR", "name": "Wissant", "lat": "50.8853", "lng": "1.66263"}, {"country": "FR", "name": "Wisches", "lat": "48.50881", "lng": "7.26814"}, {"country": "FR", "name": "Wintzenheim", "lat": "48.07269", "lng": "7.29072"}, {"country": "FR", "name": "Winnezeele", "lat": "50.841", "lng": "2.55118"}, {"country": "FR", "name": "Wingles", "lat": "50.49382", "lng": "2.855"}, {"country": "FR", "name": "Wingersheim", "lat": "48.72149", "lng": "7.63464"}, {"country": "FR", "name": "Wimmenau", "lat": "48.91155", "lng": "7.42093"}, {"country": "FR", "name": "Wimille", "lat": "50.76418", "lng": "1.63137"}, {"country": "FR", "name": "Wimereux", "lat": "50.76963", "lng": "1.61139"}, {"country": "FR", "name": "Willerwald", "lat": "49.02481", "lng": "7.03726"}, {"country": "FR", "name": "Willems", "lat": "50.63206", "lng": "3.2384"}, {"country": "FR", "name": "Wihr-au-Val", "lat": "48.05312", "lng": "7.20489"}, {"country": "FR", "name": "Wignehies", "lat": "50.0155", "lng": "4.00913"}, {"country": "FR", "name": "Wiesviller", "lat": "49.07916", "lng": "7.16466"}, {"country": "FR", "name": "Widensolen", "lat": "48.06289", "lng": "7.48057"}, {"country": "FR", "name": "Weyersheim", "lat": "48.71537", "lng": "7.80097"}, {"country": "FR", "name": "Wettolsheim", "lat": "48.05755", "lng": "7.29844"}, {"country": "FR", "name": "Westhoffen", "lat": "48.60352", "lng": "7.44289"}, {"country": "FR", "name": "Wervicq-Sud", "lat": "50.7745", "lng": "3.04207"}, {"country": "FR", "name": "Weitbruch", "lat": "48.75455", "lng": "7.77935"}, {"country": "FR", "name": "Waziers", "lat": "50.38717", "lng": "3.1149"}, {"country": "FR", "name": "Wavrin", "lat": "50.57386", "lng": "2.9363"}, {"country": "FR", "name": "Wavrechain-sous-Denain", "lat": "50.33224", "lng": "3.41252"}, {"country": "FR", "name": "Wavignies", "lat": "49.54748", "lng": "2.36032"}, {"country": "FR", "name": "Wattwiller", "lat": "47.83649", "lng": "7.17785"}, {"country": "FR", "name": "Wattrelos", "lat": "50.70118", "lng": "3.21812"}, {"country": "FR", "name": "Wattignies", "lat": "50.58639", "lng": "3.04394"}, {"country": "FR", "name": "Watten", "lat": "50.83685", "lng": "2.21346"}, {"country": "FR", "name": "Wassy", "lat": "48.49811", "lng": "4.94775"}, {"country": "FR", "name": "Wassigny", "lat": "50.01334", "lng": "3.59988"}, {"country": "FR", "name": "Wasselonne", "lat": "48.63723", "lng": "7.44731"}, {"country": "FR", "name": "Wasquehal", "lat": "50.67043", "lng": "3.13382"}, {"country": "FR", "name": "Warmeriville", "lat": "49.35227", "lng": "4.21882"}, {"country": "FR", "name": "Warluis", "lat": "49.38874", "lng": "2.1422"}, {"country": "FR", "name": "Warhem", "lat": "50.97592", "lng": "2.49303"}, {"country": "FR", "name": "Wargnies-le-Grand", "lat": "50.30751", "lng": "3.66038"}, {"country": "FR", "name": "Wardrecques", "lat": "50.71108", "lng": "2.34483"}, {"country": "FR", "name": "Warcq", "lat": "49.77517", "lng": "4.68175"}, {"country": "FR", "name": "Wangenbourg-Engenthal", "lat": "48.62805", "lng": "7.30471"}, {"country": "FR", "name": "Wandignies-Hamage", "lat": "50.39609", "lng": "3.3145"}, {"country": "FR", "name": "Wambrechies", "lat": "50.68276", "lng": "3.04784"}, {"country": "FR", "name": "Walscheid", "lat": "48.65245", "lng": "7.14856"}, {"country": "FR", "name": "Wallers", "lat": "50.37432", "lng": "3.39188"}, {"country": "FR", "name": "Waldighofen", "lat": "47.55126", "lng": "7.31743"}, {"country": "FR", "name": "Walbourg", "lat": "48.88628", "lng": "7.78828"}, {"country": "FR", "name": "Wailly", "lat": "50.52287", "lng": "2.06792"}, {"country": "FR", "name": "Wahagnies", "lat": "50.48665", "lng": "3.03448"}, {"country": "GB", "name": "Wymondham", "lat": "52.75978", "lng": "-0.74055"}, {"country": "GB", "name": "Wymeswold", "lat": "52.80536", "lng": "-1.11288"}, {"country": "GB", "name": "Wylam", "lat": "54.97654", "lng": "-1.82187"}, {"country": "GB", "name": "Wye", "lat": "51.18249", "lng": "0.93678"}, {"country": "GB", "name": "Wroxall", "lat": "52.33791", "lng": "-1.66898"}, {"country": "GB", "name": "Wroxall", "lat": "50.61625", "lng": "-1.22292"}, {"country": "GB", "name": "Wroughton", "lat": "51.52411", "lng": "-1.79559"}, {"country": "GB", "name": "Wrotham", "lat": "51.30856", "lng": "0.30899"}, {"country": "GB", "name": "Writtle", "lat": "51.72906", "lng": "0.42938"}, {"country": "GB", "name": "Wrington", "lat": "51.36173", "lng": "-2.76319"}, {"country": "GB", "name": "Wrexham", "lat": "53.04664", "lng": "-2.99132"}, {"country": "GB", "name": "Wrea Green", "lat": "53.77651", "lng": "-2.91573"}, {"country": "GB", "name": "Wrawby", "lat": "53.56672", "lng": "-0.46194"}, {"country": "GB", "name": "Wragby", "lat": "53.28333", "lng": "-0.3"}, {"country": "GB", "name": "Wouldham", "lat": "51.34986", "lng": "0.45816"}, {"country": "GB", "name": "Wotton-under-Edge", "lat": "51.63242", "lng": "-2.34512"}, {"country": "GB", "name": "Worton", "lat": "51.31611", "lng": "-2.04111"}, {"country": "GB", "name": "Wortley", "lat": "53.48333", "lng": "-1.53333"}, {"country": "GB", "name": "Worthing", "lat": "50.81795", "lng": "-0.37538"}, {"country": "GB", "name": "Worlaby", "lat": "53.6113", "lng": "-0.46685"}, {"country": "GB", "name": "Worksop", "lat": "53.30182", "lng": "-1.12404"}, {"country": "GB", "name": "Workington", "lat": "54.6425", "lng": "-3.54413"}, {"country": "GB", "name": "Worcester", "lat": "52.18935", "lng": "-2.22001"}, {"country": "GB", "name": "Wootton", "lat": "53.63021", "lng": "-0.35328"}, {"country": "GB", "name": "Wootton", "lat": "52.09525", "lng": "-0.53494"}, {"country": "GB", "name": "Wootton", "lat": "51.1738", "lng": "1.1794"}, {"country": "GB", "name": "Wootton", "lat": "50.72847", "lng": "-1.23536"}, {"country": "GB", "name": "Woolwich", "lat": "51.491", "lng": "0.0648"}, {"country": "GB", "name": "Woolpit", "lat": "52.22454", "lng": "0.88826"}, {"country": "GB", "name": "Woolley", "lat": "53.61339", "lng": "-1.51457"}, {"country": "GB", "name": "Wooler", "lat": "55.54755", "lng": "-2.01186"}, {"country": "GB", "name": "Wool", "lat": "50.67966", "lng": "-2.2189"}, {"country": "GB", "name": "Woodstock", "lat": "51.8485", "lng": "-1.35132"}, {"country": "GB", "name": "Woodsetts", "lat": "53.34804", "lng": "-1.17204"}, {"country": "GB", "name": "Woodley", "lat": "51.45", "lng": "-0.88333"}, {"country": "GB", "name": "Woodhall Spa", "lat": "53.15215", "lng": "-0.21453"}, {"country": "GB", "name": "Wood Green", "lat": "51.6", "lng": "-0.11667"}, {"country": "GB", "name": "Woodford Green", "lat": "51.60938", "lng": "0.02329"}, {"country": "GB", "name": "Woodford", "lat": "52.38231", "lng": "-0.58099"}, {"country": "GB", "name": "Woodford", "lat": "51.11667", "lng": "-1.83333"}, {"country": "GB", "name": "Woodcote", "lat": "52.73333", "lng": "-2.33333"}, {"country": "GB", "name": "Woodchurch", "lat": "51.07605", "lng": "0.77346"}, {"country": "GB", "name": "Woodbridge", "lat": "52.09332", "lng": "1.32042"}, {"country": "GB", "name": "Woodborough", "lat": "51.33852", "lng": "-1.83976"}, {"country": "GB", "name": "Wombwell", "lat": "53.52189", "lng": "-1.39698"}, {"country": "GB", "name": "Wombourn", "lat": "52.53333", "lng": "-2.18333"}, {"country": "GB", "name": "Wolverhampton", "lat": "52.58547", "lng": "-2.12296"}, {"country": "GB", "name": "Wolston", "lat": "52.37717", "lng": "-1.39544"}, {"country": "GB", "name": "Wolsingham", "lat": "54.73085", "lng": "-1.88319"}, {"country": "GB", "name": "Wollaston", "lat": "52.25794", "lng": "-0.67038"}, {"country": "GB", "name": "Wold Newton", "lat": "54.1428", "lng": "-0.39993"}, {"country": "GB", "name": "Wold Newton", "lat": "53.45", "lng": "-0.13333"}, {"country": "GB", "name": "Woldingham", "lat": "51.28527", "lng": "-0.03372"}, {"country": "GB", "name": "Wokingham", "lat": "51.4112", "lng": "-0.83565"}, {"country": "GB", "name": "Woking", "lat": "51.31903", "lng": "-0.55893"}, {"country": "GB", "name": "Woburn Sands", "lat": "52.01579", "lng": "-0.64982"}, {"country": "GB", "name": "Woburn", "lat": "51.98865", "lng": "-0.61903"}, {"country": "GB", "name": "Wivenhoe", "lat": "51.85553", "lng": "0.95796"}, {"country": "GB", "name": "Wivelsfield Green", "lat": "50.96313", "lng": "-0.07133"}, {"country": "GB", "name": "Wiveliscombe", "lat": "51.04139", "lng": "-3.31278"}, {"country": "GB", "name": "Witton Gilbert", "lat": "54.80572", "lng": "-1.63686"}, {"country": "GB", "name": "Wittering", "lat": "52.60698", "lng": "-0.44048"}, {"country": "GB", "name": "Witney", "lat": "51.7836", "lng": "-1.4854"}, {"country": "GB", "name": "Witley", "lat": "51.14993", "lng": "-0.64768"}, {"country": "GB", "name": "Withington", "lat": "52.71667", "lng": "-2.6"}, {"country": "GB", "name": "Withington", "lat": "52.1", "lng": "-2.63333"}, {"country": "GB", "name": "Withernsea", "lat": "53.7311", "lng": "0.03347"}, {"country": "GB", "name": "Witheridge", "lat": "50.91743", "lng": "-3.70351"}, {"country": "GB", "name": "Witham", "lat": "51.80007", "lng": "0.64038"}, {"country": "GB", "name": "Witchford", "lat": "52.38699", "lng": "0.20602"}, {"country": "GB", "name": "Wiston", "lat": "51.82583", "lng": "-4.87"}, {"country": "GB", "name": "Wishaw", "lat": "55.76667", "lng": "-3.91667"}, {"country": "GB", "name": "Wisbech", "lat": "52.66622", "lng": "0.15938"}, {"country": "GB", "name": "Wirksworth", "lat": "53.08232", "lng": "-1.57391"}, {"country": "GB", "name": "Winwick", "lat": "53.43333", "lng": "-2.6"}, {"country": "GB", "name": "Winterton", "lat": "53.65497", "lng": "-0.59885"}, {"country": "GB", "name": "Winterbourne Stoke", "lat": "51.16729", "lng": "-1.89806"}, {"country": "GB", "name": "Winterbourne", "lat": "51.44609", "lng": "-1.3466"}, {"country": "GB", "name": "Winston", "lat": "54.54519", "lng": "-1.78854"}, {"country": "GB", "name": "Winslow", "lat": "51.94284", "lng": "-0.88131"}, {"country": "GB", "name": "Winsford", "lat": "53.19146", "lng": "-2.52398"}, {"country": "GB", "name": "Winnersh", "lat": "51.42747", "lng": "-0.87994"}, {"country": "GB", "name": "Winkleigh", "lat": "50.85581", "lng": "-3.943"}, {"country": "GB", "name": "Wingrave", "lat": "51.86494", "lng": "-0.74244"}, {"country": "GB", "name": "Wingham", "lat": "51.27168", "lng": "1.21463"}, {"country": "GB", "name": "Wingfield", "lat": "51.31345", "lng": "-2.26038"}, {"country": "GB", "name": "Wingerworth", "lat": "53.202", "lng": "-1.43359"}, {"country": "GB", "name": "Wingate", "lat": "54.73242", "lng": "-1.37896"}, {"country": "GB", "name": "Wing", "lat": "52.61775", "lng": "-0.6827"}, {"country": "GB", "name": "Wing", "lat": "51.89524", "lng": "-0.71956"}, {"country": "GB", "name": "Winford", "lat": "51.38333", "lng": "-2.66111"}, {"country": "GB", "name": "Windsor", "lat": "51.48333", "lng": "-0.6"}, {"country": "GB", "name": "Windlesham", "lat": "51.36509", "lng": "-0.65476"}, {"country": "GB", "name": "Windermere", "lat": "54.38086", "lng": "-2.90709"}, {"country": "GB", "name": "Winchester", "lat": "51.06513", "lng": "-1.3187"}, {"country": "GB", "name": "Winchcombe", "lat": "51.95363", "lng": "-1.96398"}, {"country": "GB", "name": "Wincanton", "lat": "51.05676", "lng": "-2.40574"}, {"country": "GB", "name": "Wimborne Minster", "lat": "50.78333", "lng": "-1.98333"}, {"country": "GB", "name": "Wimblington", "lat": "52.50925", "lng": "0.08416"}, {"country": "GB", "name": "Wilton", "lat": "51.07926", "lng": "-1.8621"}, {"country": "GB", "name": "Wilshamstead", "lat": "52.08088", "lng": "-0.44889"}, {"country": "GB", "name": "Wilsford", "lat": "51.3", "lng": "-1.85"}, {"country": "GB", "name": "Wilsden", "lat": "53.82084", "lng": "-1.85959"}, {"country": "GB", "name": "Wilmslow", "lat": "53.32803", "lng": "-2.23148"}, {"country": "GB", "name": "Wilmcote", "lat": "52.22081", "lng": "-1.76528"}, {"country": "GB", "name": "Williton", "lat": "51.16236", "lng": "-3.32208"}, {"country": "GB", "name": "Willington", "lat": "54.71667", "lng": "-1.7"}, {"country": "GB", "name": "Willington", "lat": "52.13409", "lng": "-0.37235"}, {"country": "GB", "name": "Willingham", "lat": "53.35", "lng": "-0.68333"}, {"country": "GB", "name": "Willingham", "lat": "52.31404", "lng": "0.05776"}, {"country": "GB", "name": "Willerby", "lat": "53.76099", "lng": "-0.44186"}, {"country": "GB", "name": "Willenhall", "lat": "52.58514", "lng": "-2.05934"}, {"country": "GB", "name": "Willaston", "lat": "53.2955", "lng": "-2.99732"}, {"country": "GB", "name": "Willaston", "lat": "53.06667", "lng": "-2.48333"}, {"country": "GB", "name": "Willand", "lat": "50.88333", "lng": "-3.36667"}, {"country": "GB", "name": "Wilden", "lat": "52.18272", "lng": "-0.39645"}, {"country": "GB", "name": "Wilburton", "lat": "52.35191", "lng": "0.17673"}, {"country": "GB", "name": "Wilberfoss", "lat": "53.94854", "lng": "-0.88945"}, {"country": "GB", "name": "Wigton", "lat": "54.82482", "lng": "-3.16114"}, {"country": "GB", "name": "Wigston Magna", "lat": "52.58128", "lng": "-1.09248"}, {"country": "GB", "name": "Wigmore", "lat": "52.31474", "lng": "-2.85802"}, {"country": "GB", "name": "Wigginton", "lat": "54.01717", "lng": "-1.0831"}, {"country": "GB", "name": "Wigan", "lat": "53.54296", "lng": "-2.63706"}, {"country": "GB", "name": "Widnes", "lat": "53.3618", "lng": "-2.73406"}, {"country": "GB", "name": "Wickwar", "lat": "51.59404", "lng": "-2.39968"}, {"country": "GB", "name": "Wickham Market", "lat": "52.15298", "lng": "1.36299"}, {"country": "GB", "name": "Wickham Bishops", "lat": "51.7783", "lng": "0.66823"}, {"country": "GB", "name": "Wickham", "lat": "51.44342", "lng": "-1.432"}, {"country": "GB", "name": "Wickham", "lat": "50.89924", "lng": "-1.18815"}, {"country": "GB", "name": "Wickford", "lat": "51.61101", "lng": "0.52331"}, {"country": "GB", "name": "Wick", "lat": "58.43906", "lng": "-3.09424"}, {"country": "GB", "name": "Wick", "lat": "51.45306", "lng": "-2.42361"}, {"country": "GB", "name": "Wick", "lat": "51.43944", "lng": "-3.54944"}, {"country": "GB", "name": "Whyteleafe", "lat": "51.30808", "lng": "-0.08429"}, {"country": "GB", "name": "Whitworth", "lat": "53.65601", "lng": "-2.1771"}, {"country": "GB", "name": "Whitwell", "lat": "53.28333", "lng": "-1.21667"}, {"country": "GB", "name": "Whitton", "lat": "53.7", "lng": "-0.63333"}, {"country": "GB", "name": "Whitton", "lat": "52.3", "lng": "-3.06667"}, {"country": "GB", "name": "Whittlesford", "lat": "52.11345", "lng": "0.14969"},