[{"country": "CZ", "name": "\u00davaly", "lat": "50.07394", "lng": "14.7308"}, {"country": "CZ", "name": "\u00dast\u00ed nad Orlic\u00ed", "lat": "49.97387", "lng": "16.39361"}, {"country": "CZ", "name": "\u00dast\u00ed nad Labem", "lat": "50.6607", "lng": "14.03227"}, {"country": "CZ", "name": "\u00da\u0161t\u011bk", "lat": "50.58474", "lng": "14.34332"}, {"country": "CZ", "name": "\u00dasov", "lat": "49.79831", "lng": "17.01055"}, {"country": "CZ", "name": "\u00dapice", "lat": "50.51237", "lng": "16.01607"}, {"country": "CZ", "name": "\u00dananov", "lat": "48.90082", "lng": "16.06351"}, {"country": "CZ", "name": "\u00dajezd", "lat": "49.76397", "lng": "17.1804"}, {"country": "CZ", "name": "\u00dajezd", "lat": "49.16809", "lng": "17.9061"}, {"country": "CZ", "name": "\u00dadlice", "lat": "50.4406", "lng": "13.45738"}, {"country": "ES", "name": "\u00dabeda", "lat": "38.01328", "lng": "-3.3705"}, {"country": "HU", "name": "\u00dajsz\u00e1sz", "lat": "47.3", "lng": "20.08333"}, {"country": "HU", "name": "\u00dajk\u00edgy\u00f3s", "lat": "46.58333", "lng": "21.03333"}, {"country": "HU", "name": "\u00dajfeh\u00e9rt\u00f3", "lat": "47.8", "lng": "21.68333"}, {"country": "HU", "name": "\u00dark\u00fat", "lat": "47.08505", "lng": "17.64393"}, {"country": "HU", "name": "\u00dari", "lat": "47.41429", "lng": "19.52762"}, {"country": "HU", "name": "\u00dajszilv\u00e1s", "lat": "47.27477", "lng": "19.92477"}, {"country": "HU", "name": "\u00dajharty\u00e1n", "lat": "47.21981", "lng": "19.38638"}, {"country": "MX", "name": "\u00darsulo Galv\u00e1n", "lat": "19.40531", "lng": "-96.3609"}]