[{"country": "AF", "name": "\u014cmnah", "lat": "32.90029", "lng": "68.79627"}, {"country": "AF", "name": "\u014ckak", "lat": "33.89793", "lng": "67.95652"}, {"country": "JP", "name": "\u014czu", "lat": "32.8804", "lng": "130.87161"}, {"country": "JP", "name": "\u014cyama", "lat": "34.60359", "lng": "138.21719"}, {"country": "JP", "name": "\u014cuda", "lat": "34.46667", "lng": "135.93333"}, {"country": "JP", "name": "\u014ctsuki", "lat": "35.61851", "lng": "138.97396"}, {"country": "JP", "name": "\u014ctsu", "lat": "35", "lng": "135.86667"}, {"country": "JP", "name": "\u014ctake", "lat": "34.20754", "lng": "132.22063"}, {"country": "JP", "name": "\u014cta", "lat": "36.3", "lng": "139.36667"}, {"country": "JP", "name": "\u014cno-hara", "lat": "34.28333", "lng": "132.26667"}, {"country": "JP", "name": "\u014cmuta", "lat": "33.03333", "lng": "130.45"}, {"country": "JP", "name": "\u014cmura", "lat": "32.92139", "lng": "129.95389"}, {"country": "JP", "name": "\u014cme", "lat": "35.78389", "lng": "139.24306"}, {"country": "JP", "name": "\u014cmamach\u014d-\u014dmama", "lat": "36.43181", "lng": "139.27534"}, {"country": "JP", "name": "\u014cmachi", "lat": "36.5", "lng": "137.86667"}, {"country": "JP", "name": "\u014ckuchi-shinohara", "lat": "32.06779", "lng": "130.62439"}, {"country": "JP", "name": "\u014ckawa", "lat": "33.20566", "lng": "130.37527"}, {"country": "JP", "name": "\u014cita", "lat": "33.23333", "lng": "131.6"}, {"country": "JP", "name": "\u014ciso", "lat": "35.31558", "lng": "139.31625"}, {"country": "JP", "name": "\u014ci", "lat": "35.85091", "lng": "139.51998"}, {"country": "JP", "name": "\u014cgaki", "lat": "35.35", "lng": "136.61667"}, {"country": "JP", "name": "\u014cdach\u014d-\u014dda", "lat": "35.19025", "lng": "132.50846"}, {"country": "JP", "name": "\u014cbu", "lat": "35.01756", "lng": "136.94947"}, {"country": "JP", "name": "\u014cmihachiman", "lat": "35.12861", "lng": "136.0976"}, {"country": "JP", "name": "\u014czu", "lat": "33.5", "lng": "132.55"}, {"country": "JP", "name": "\u014ctsuchi", "lat": "39.36667", "lng": "141.9"}, {"country": "JP", "name": "\u014ctawara", "lat": "36.86667", "lng": "140.03333"}, {"country": "JP", "name": "\u014cmiya", "lat": "36.55", "lng": "140.41667"}, {"country": "JP", "name": "\u014cmagari", "lat": "39.45", "lng": "140.48333"}, {"country": "JP", "name": "\u014ckawara", "lat": "38.05", "lng": "140.73361"}, {"country": "JP", "name": "\u014chara", "lat": "35.24761", "lng": "140.39289"}, {"country": "JP", "name": "\u014cfunato", "lat": "39.07167", "lng": "141.71667"}, {"country": "JP", "name": "\u014carai", "lat": "36.31409", "lng": "140.58389"}, {"country": "JP", "name": "\u014cami", "lat": "35.51667", "lng": "140.31667"}, {"country": "JP", "name": "\u014cdate", "lat": "40.27178", "lng": "140.55756"}, {"country": "JP", "name": "\u014cnoj\u014d", "lat": "33.53567", "lng": "130.47861"}, {"country": "JP", "name": "\u014csh\u016b", "lat": "39.13927", "lng": "141.1685"}, {"country": "JP", "name": "\u014csaki", "lat": "38.58866", "lng": "140.973"}, {"country": "JP", "name": "\u014cshima", "lat": "34.74824", "lng": "139.36243"}, {"country": "JP", "name": "\u014camishirasato", "lat": "35.51183", "lng": "140.35257"}, {"country": "JP", "name": "\u014csaka-sayama", "lat": "34.49524", "lng": "135.55069"}]