[{"country": "BA", "name": "\u017divinice", "lat": "44.54765", "lng": "17.37357"}, {"country": "BA", "name": "\u017divinice", "lat": "44.44929", "lng": "18.64978"}, {"country": "BA", "name": "\u017dep\u010de", "lat": "44.42667", "lng": "18.03778"}, {"country": "BA", "name": "\u017deljezno Polje", "lat": "44.39875", "lng": "17.94103"}, {"country": "CZ", "name": "\u017dulov\u00e1", "lat": "50.30933", "lng": "17.09871"}, {"country": "CZ", "name": "\u017dlutice", "lat": "50.09192", "lng": "13.16297"}, {"country": "CZ", "name": "\u017dlutava", "lat": "49.19976", "lng": "17.49037"}, {"country": "CZ", "name": "\u017dleby", "lat": "49.88958", "lng": "15.48853"}, {"country": "CZ", "name": "\u017di\u017eelice", "lat": "50.13192", "lng": "15.3932"}, {"country": "CZ", "name": "\u017ditenice", "lat": "50.55528", "lng": "14.15665"}, {"country": "CZ", "name": "\u017dirovnice", "lat": "49.25318", "lng": "15.18824"}, {"country": "CZ", "name": "\u017dihle", "lat": "50.04491", "lng": "13.37502"}, {"country": "CZ", "name": "\u017didlochovice", "lat": "49.03952", "lng": "16.61881"}, {"country": "CZ", "name": "\u017deravice", "lat": "49.02288", "lng": "17.23726"}, {"country": "CZ", "name": "\u017deliv", "lat": "49.52984", "lng": "15.22181"}, {"country": "CZ", "name": "\u017delezn\u00fd Brod", "lat": "50.64274", "lng": "15.25408"}, {"country": "CZ", "name": "\u017deleznice", "lat": "50.47274", "lng": "15.38459"}, {"country": "CZ", "name": "\u017delezn\u00e1 Ruda", "lat": "49.13743", "lng": "13.2352"}, {"country": "CZ", "name": "\u017deletava", "lat": "49.14187", "lng": "15.673"}, {"country": "CZ", "name": "\u017dele\u0161ice", "lat": "49.11689", "lng": "16.58137"}, {"country": "CZ", "name": "\u017debr\u00e1k", "lat": "49.87574", "lng": "13.89735"}, {"country": "CZ", "name": "\u017d\u010f\u00e1r nad S\u00e1zavou Druhy", "lat": "49.58726", "lng": "15.93215"}, {"country": "CZ", "name": "\u017d\u010f\u00e1r nad S\u00e1zavou", "lat": "49.56263", "lng": "15.93924"}, {"country": "CZ", "name": "\u017d\u010f\u00e1r", "lat": "50.54366", "lng": "15.08034"}, {"country": "CZ", "name": "\u017dd\u00e1nice", "lat": "49.06729", "lng": "17.02751"}, {"country": "CZ", "name": "\u017datec", "lat": "50.32717", "lng": "13.54577"}, {"country": "CZ", "name": "\u017dandov", "lat": "50.71394", "lng": "14.39623"}, {"country": "CZ", "name": "\u017damberk", "lat": "50.08601", "lng": "16.46738"}, {"country": "CZ", "name": "\u017dacl\u00e9\u0159", "lat": "50.66329", "lng": "15.91063"}, {"country": "CZ", "name": "\u017dab\u010dice", "lat": "49.0116", "lng": "16.60257"}, {"country": "HR", "name": "\u017dupanja", "lat": "45.0775", "lng": "18.6975"}, {"country": "HR", "name": "\u017dumberak", "lat": "45.75", "lng": "15.43333"}, {"country": "HR", "name": "\u017drnovo", "lat": "42.95111", "lng": "17.11417"}, {"country": "HR", "name": "\u017drnovnica", "lat": "43.52111", "lng": "16.55917"}, {"country": "HR", "name": "\u017dminj", "lat": "45.14278", "lng": "13.90889"}, {"country": "HR", "name": "\u017ddralovi", "lat": "45.87639", "lng": "16.875"}, {"country": "HR", "name": "\u017dakanje", "lat": "45.6", "lng": "15.35"}, {"country": "LT", "name": "\u017die\u017emariai", "lat": "54.80725", "lng": "24.44073"}, {"country": "LT", "name": "\u017demai\u010di\u0173 Naumiestis", "lat": "55.35941", "lng": "21.70364"}, {"country": "LT", "name": "\u017dagar\u0117", "lat": "56.36149", "lng": "23.25094"}, {"country": "ME", "name": "\u017dabljak", "lat": "43.15423", "lng": "19.12325"}, {"country": "MK", "name": "\u017dito\u0161e", "lat": "41.41991", "lng": "21.29078"}, {"country": "RS", "name": "\u017dujince", "lat": "42.31568", "lng": "21.70212"}, {"country": "RS", "name": "\u017ditora\u0111a", "lat": "43.19", "lng": "21.71306"}, {"country": "RS", "name": "\u017diti\u0161te", "lat": "45.485", "lng": "20.54972"}, {"country": "RS", "name": "\u017dagubica", "lat": "44.19685", "lng": "21.78838"}, {"country": "RS", "name": "\u017dabari", "lat": "44.35611", "lng": "21.215"}, {"country": "RS", "name": "\u017dabalj", "lat": "45.37222", "lng": "20.06389"}, {"country": "SI", "name": "\u017du\u017eemberk", "lat": "45.83389", "lng": "14.92917"}, {"country": "SI", "name": "\u017dirovnica", "lat": "46.40472", "lng": "14.14"}, {"country": "SI", "name": "\u017diri", "lat": "46.04222", "lng": "14.10722"}, {"country": "SI", "name": "\u017detale", "lat": "46.27356", "lng": "15.82658"}, {"country": "SI", "name": "\u017delezniki", "lat": "46.21999", "lng": "14.14159"}, {"country": "SI", "name": "\u017dalec", "lat": "46.25151", "lng": "15.16482"}, {"country": "SK", "name": "\u017dehra", "lat": "48.9796", "lng": "20.7917"}, {"country": "SK", "name": "\u017ddiar", "lat": "49.271", "lng": "20.26239"}, {"country": "SK", "name": "\u017dilina", "lat": "49.22315", "lng": "18.73941"}, {"country": "SK", "name": "\u017diar nad Hronom", "lat": "48.59184", "lng": "18.84958"}, {"country": "SK", "name": "\u017deliezovce", "lat": "48.05075", "lng": "18.65421"}, {"country": "SK", "name": "\u017darnovica", "lat": "48.48123", "lng": "18.71565"}]